obs_datetime,station_id,station_name,lat,lon,intensidadeVentoKM,temperatura,radiacao,idDireccVento,precAcumulada,intensidadeVento,humidade,pressao,direccVento_txt
2026-01-17 00:00:00,11217160,Santa Maria / Praia Formosa (DROTRH),36.9542,-25.0917,12.6,13.6,0.0,3,0.0,3.5,86.0,,E
2026-01-17 00:00:00,11217165,Santa Maria / Maia (DROTRH),36.9412,-25.0176,16.6,13.3,0.2,8,0.0,4.6,86.0,,NW
2026-01-17 00:00:00,11217217,São Miguel / Santana (DROTRH),37.8049,-25.5618,15.5,14.4,10.0,8,0.0,4.3,82.0,,NW
2026-01-17 00:00:00,11217225,São Miguel / Sete Cidades (DROTRH),37.8679,-25.772,7.2,12.2,12.6,4,0.0,2.0,89.0,,SE
2026-01-17 00:00:00,11217255,São Miguel / Lagoa das Furnas (DROTRH),37.7619,-25.3291,5.4,11.5,0.8,3,0.5,1.5,91.0,,E
2026-01-17 00:00:00,11217370,Terceira / Ribeira das Nove (DROTRH),38.754,-27.3245,6.1,8.2,0.0,6,0.2,1.7,100.0,,SW
2026-01-17 00:00:00,11217372,Terceira / Serra do Cume (DROTRH),38.7002,-27.1031,14.0,9.9,0.0,8,0.0,3.9,100.0,,NW
2026-01-17 00:00:00,11217430,Graciosa / Serra das Fontes (DROTRH),39.0672,-28.0038,18.4,12.4,0.0,8,0.0,5.1,88.0,,NW
2026-01-17 00:00:00,11217510,São Jorge / Pico do Areeiro (DROTRH),38.6435,-28.0591,11.2,6.8,0.0,5,0.0,3.1,100.0,,S
2026-01-17 00:00:00,11217645,Pico / Cabecinho (DROTRH),38.4338,-28.1141,12.6,9.6,0.0,8,0.0,3.5,96.0,,NW
2026-01-17 00:00:00,11217730,Faial / Cabeço Verde (DROTRH),38.5843,-28.7576,7.6,9.8,0.0,6,0.0,2.1,92.0,,SW
2026-01-17 00:00:00,1200501,Flores (Aeródromo),39.45819,-31.1301,5.8,13.0,0.0,3,0.0,1.6,73.0,1035.9,E
2026-01-17 00:00:00,1200502,Corvo (Aeródromo),39.67389,-31.11362,33.8,14.7,0.0,8,0.0,9.4,67.0,1035.1,NW
2026-01-17 00:00:00,1200504,Pico (Aeródromo),38.55219,-28.44137,9.4,14.5,0.0,8,0.0,2.6,72.0,1036.0,NW
2026-01-17 00:00:00,1200505,Horta / Aeroporto,38.5211,-28.7128,8.6,14.1,,8,0.0,2.4,67.0,1035.9,NW
2026-01-17 00:00:00,1200506,Horta (Obs. Principe Alberto),38.540781,-28.63225,8.3,13.7,0.0,8,0.0,2.3,76.0,1036.2,NW
2026-01-17 00:00:00,1200510,São Jorge,38.66,-28.17,10.4,13.7,0.0,8,0.0,2.9,75.0,1035.6,NW
2026-01-17 00:00:00,1200511,Angra do Heroísmo,38.6659435,-27.216567,9.0,13.4,0.0,7,0.0,2.5,78.0,1035.2,W
2026-01-17 00:00:00,1200512,P. Delgada (Aeródromo),37.74414,-25.6953048,15.5,13.4,0.0,8,0.0,4.3,81.0,1034.4,NW
2026-01-17 00:00:00,1200515,Santa Maria (Aeródromo),36.967175,-25.1679,29.5,14.3,0.3,9,0.0,8.2,82.0,1034.6,N
2026-01-17 00:00:00,1200521,Santa Catarina (Aeródromo),32.69688,-16.77612,,15.5,0.0,0,0.1,,67.0,1026.5,
2026-01-17 00:00:00,1200522,Funchal,32.64786,-16.888,4.7,15.8,0.0,2,0.0,1.3,57.0,1026.4,NE
2026-01-17 00:00:00,1200524,Porto Santo,33.074029,-16.34868,28.4,15.6,0.0,8,0.0,7.9,67.0,1025.6,NW
2026-01-17 00:00:00,1200531,Cabo Carvoeiro,39.38,-9.40737778,9.7,8.1,,2,0.3,2.7,90.0,1015.7,NE
2026-01-17 00:00:00,1200533,Sagres,37.012835,-8.949089,10.4,9.5,,9,0.0,2.9,72.0,1016.3,N
2026-01-17 00:00:00,1200535,Lisboa (Geofísico),38.71907778,-9.14972222,10.1,8.1,0.0,8,0.1,2.8,100.0,1015.8,NW
2026-01-17 00:00:00,1200541,Sines,37.954504,-8.838271,12.2,7.8,0.0,1,0.0,3.4,99.0,1015.9,N
2026-01-17 00:00:00,1200545,"Porto, Pedras Rubras (Aeródromo)",41.233502,-8.681332,10.8,5.5,0.0,4,0.0,3.0,99.0,1014.6,SE
2026-01-17 00:00:00,1200548,Coimbra (Aeródromo),40.15006944,-8.46669167,3.2,6.0,0.0,4,0.0,0.9,99.0,1015.3,SE
2026-01-17 00:00:00,1200551,"Viana Castelo, Chafé",41.648875,-8.804606,9.7,4.9,0.0,3,0.0,2.7,100.0,1014.3,E
2026-01-17 00:00:00,1200554,Faro (Aeródromo),37.016579,-7.971953,14.8,8.2,0.0,8,0.0,4.1,90.0,1015.7,NW
2026-01-17 00:00:00,1200558,Évora (C.Coordenação),38.53336389,-7.88338056,10.4,4.7,0.0,7,0.0,2.9,,1015.4,W
2026-01-17 00:00:00,1200559,Viseu (Aeródromo),40.72645,-7.887472,9.7,1.5,,8,0.0,2.7,99.0,1015.7,NW
2026-01-17 00:00:00,1200560,Viseu (C.Coordenação),40.71492222,-7.89592222,12.6,2.0,,7,0.0,3.5,100.0,1016.0,W
2026-01-17 00:00:00,1200562,Beja,38.02493056,-7.867275,12.6,5.7,0.0,7,0.0,3.5,100.0,1014.9,W
2026-01-17 00:00:00,1200567,Vila Real,41.27418611,-7.7171,2.2,2.0,0.0,5,0.0,0.6,100.0,1015.5,S
2026-01-17 00:00:00,1200568,Penhas Douradas,40.41136667,-7.55865278,0.0,-1.0,0.0,0,,0.0,100.0,,
2026-01-17 00:00:00,1200570,Castelo Branco,39.83339444,-7.46678889,8.6,5.1,0.0,7,0.0,2.4,100.0,1013.7,W
2026-01-17 00:00:00,1200571,Portalegre,39.29546944,-7.41996944,13.0,3.3,0.0,8,0.0,3.6,100.0,1015.1,NW
2026-01-17 00:00:00,1200575,Bragança,41.80388889,-6.74283889,6.5,0.7,0.0,1,0.0,1.8,92.0,1015.4,N
2026-01-17 00:00:00,1200576,Bragança (Aeródromo),41.85763611,-6.70796389,4.3,-0.2,,3,0.0,1.2,99.0,1015.0,E
2026-01-17 00:00:00,1200843,Évora (Aeródromo),38.5296,-7.8916,9.7,4.9,,7,0.0,2.7,96.0,1015.1,W
2026-01-17 00:00:00,1210513,P. Delgada (Obs. A. Chaves),37.7464,-25.662283,4.3,14.0,1.1,9,0.0,1.2,75.0,,N
2026-01-17 00:00:00,1210517,Flores / Morro Alto,39.4633,-31.2207,46.1,5.9,,7,0.0,12.8,100.0,1033.3,W
2026-01-17 00:00:00,1210518,São Miguel - Pico Santos De Cima,37.819,-25.7512,52.2,7.5,,9,1.0,14.5,100.0,1034.2,N
2026-01-17 00:00:00,1210520,Ilhas selvagens,30.140595,-15.869153,34.6,16.4,0.0,1,0.0,9.6,74.0,1025.8,N
2026-01-17 00:00:00,1210550,Coruche / Cruz Do Leão,39.07101,-8.4,4.7,4.9,,7,0.0,1.3,100.0,1015.4,W
2026-01-17 00:00:00,1210553,Loulé / Cavalos De Caldeirão,37.3042,-7.9534,20.5,4.9,,8,0.0,5.7,100.0,1016.4,NW
2026-01-17 00:00:00,1210577,"Odemira, S.Teotónio",37.54710833,-8.72899167,3.6,8.0,0.0,9,0.0,1.0,93.0,,N
2026-01-17 00:00:00,1210580,"Lisboa, Relógio",38.7618,-9.1254,,7.7,,0,0.2,,87.0,1016.4,
2026-01-17 00:00:00,1210604,V.N.Cerveira (Aeródromo),41.96673056,-8.66676111,4.7,6.2,0.0,3,0.0,1.3,100.0,1014.0,E
2026-01-17 00:00:00,1210605,"Monção, Valinha",42.06669,-8.383347,2.9,3.2,0.0,3,0.0,0.8,100.0,,E
2026-01-17 00:00:00,1210606,"Lamas de Mouro, P.Ribeiro",42.03333333,-8.18333333,1.4,0.1,0.0,4,0.0,0.4,100.0,1016.6,SE
2026-01-17 00:00:00,1210611,Montalegre,41.82276667,-7.78797778,8.3,1.4,0.0,7,0.0,2.3,99.0,,W
2026-01-17 00:00:00,1210612,Vinhais,41.8434,-7.0034416,14.8,0.9,,8,0.0,4.1,100.0,,NW
2026-01-17 00:00:00,1210615,Ponte de Lima,41.75013889,-8.56671389,1.4,4.6,0.0,4,0.0,0.4,99.0,,SE
2026-01-17 00:00:00,1210616,Chaves (Aeródromo),41.72516667,-7.46540833,2.2,1.5,0.0,5,0.0,0.6,96.0,1015.0,S
2026-01-17 00:00:00,1210619,Cabril,41.71666667,-8.01666667,4.0,3.2,,4,0.0,1.1,99.0,,SE
2026-01-17 00:00:00,1210622,"Braga, Merelim",41.56678056,-8.45003056,1.1,2.8,0.0,4,0.0,0.3,100.0,1015.2,SE
2026-01-17 00:00:00,1210625,Guimarães,41.4289,-8.3178,,3.1,0.0,0,,,96.0,1015.2,
2026-01-17 00:00:00,1210630,Cabeceiras de Basto,41.53333333,-7.96666667,1.1,3.6,0.0,6,0.0,0.3,100.0,,SW
2026-01-17 00:00:00,1210632,Mirandela,41.51478611,-7.19083889,1.8,2.7,0.0,4,0.0,0.5,90.0,,SE
2026-01-17 00:00:00,1210633,"Macedo Cavaleiros, Bagueixe",41.56666667,-6.78333333,13.7,1.4,,8,0.0,3.8,100.0,,NW
2026-01-17 00:00:00,1210635,Miranda do Douro,41.51666667,-6.28333333,3.6,3.2,,8,0.0,1.0,99.0,,NW
2026-01-17 00:00:00,1210637,Mogadouro,41.33333333,-6.73333333,6.1,2.7,0.0,6,0.0,1.7,99.0,,SW
2026-01-17 00:00:00,1210643,Paços Ferreira,41.27365,-8.38012,2.9,2.6,,3,0.0,0.8,100.0,,E
2026-01-17 00:00:00,1210644,Carrazêda de Ansiães,41.23333333,-7.28333333,0.0,0.1,0.0,0,0.0,0.0,93.0,,
2026-01-17 00:00:00,1210654,Moncorvo,41.18333333,-7.01666667,1.8,2.1,0.0,7,0.0,0.5,90.0,1015.1,W
2026-01-17 00:00:00,1210655,"Pinhão, Santa Bárbara",41.172775,-7.5489722,2.5,4.1,,5,0.0,0.7,96.0,,S
2026-01-17 00:00:00,1210657,Luzim,41.14585,-8.2490333,1.8,2.4,0.2,7,0.0,0.5,99.0,,W
2026-01-17 00:00:00,1210663,Moimenta da Beira,40.98333333,-7.6,11.5,0.9,0.0,8,0.0,3.2,96.0,,NW
2026-01-17 00:00:00,1210666,"Trancoso, Bandarra",40.78333333,-7.36666667,2.9,1.1,0.0,6,0.0,0.8,99.0,,SW
2026-01-17 00:00:00,1210669,Arouca,40.93333333,-8.25,1.8,3.7,0.0,2,0.0,0.5,99.0,,NE
2026-01-17 00:00:00,1210671,"F. Castelo Rodrigo, V.Torpim",40.75,-6.88333333,2.5,2.3,0.0,6,0.0,0.7,99.0,,SW
2026-01-17 00:00:00,1210683,Guarda,40.53333333,-7.26666667,11.9,0.7,0.9,8,0.0,3.3,100.0,,NW
2026-01-17 00:00:00,1210685,Nelas,40.51666667,-7.85,0.4,4.0,0.0,7,0.0,0.1,100.0,,W
2026-01-17 00:00:00,1210686,"Pampilhosa da Serra, Fajão",40.145653,-7.92704,8.6,1.8,,8,0.1,2.4,100.0,,NW
2026-01-17 00:00:00,1210687,Covilhã (Aeródromo),40.264309,-7.482302,4.3,3.6,0.0,6,,1.2,96.0,,SW
2026-01-17 00:00:00,1210690,Aldeia Souto (Q. Lageosa),40.35425833,-7.38931111,1.4,4.2,0.0,8,0.0,0.4,75.0,,NW
2026-01-17 00:00:00,1210697,Lousã (Aeródromo),40.143922,-8.244066,4.0,3.9,,4,0.1,1.1,100.0,,SE
2026-01-17 00:00:00,1210698,Fundão,40.14063611,-7.55362778,6.5,5.0,0.0,6,0.0,1.8,84.0,,SW
2026-01-17 00:00:00,1210702,Aveiro (Universidade),40.63529722,-8.65958333,6.1,5.9,0.0,4,0.1,1.7,99.0,1015.1,SE
2026-01-17 00:00:00,1210704,Dunas de Mira,40.445955,-8.76168055,1.4,4.2,0.0,5,0.0,0.4,99.0,,S
2026-01-17 00:00:00,1210705,Anadia,40.438852,-8.439996,2.2,4.1,0.0,3,0.0,0.6,97.0,,E
2026-01-17 00:00:00,1210707,"Coimbra, Bencanta",40.2134694,-8.45515277,4.3,4.4,0.1,4,0.0,1.2,100.0,,SE
2026-01-17 00:00:00,1210713,"Figueira da Foz, Vila Verde",40.139764,-8.805945,9.0,4.7,0.0,2,0.0,2.5,,,NE
2026-01-17 00:00:00,1210716,Ansião,39.9,-8.4,4.0,4.7,0.0,8,,1.1,98.0,,NW
2026-01-17 00:00:00,1210718,Leiria (Aeródromo),39.780553,-8.818166,4.3,5.1,0.0,3,0.1,1.2,100.0,1015.3,E
2026-01-17 00:00:00,1210724,"Tomar, Valdonas",39.6,-8.36666667,1.4,3.0,217.6,5,0.0,0.4,100.0,,S
2026-01-17 00:00:00,1210726,Alcobaça,39.51666667,-8.96666667,0.0,6.4,0.0,0,0.1,0.0,95.0,,
2026-01-17 00:00:00,1210729,Rio Maior,39.35,-8.93333333,4.3,6.5,19.8,8,0.0,1.2,97.0,,NW
2026-01-17 00:00:00,1210734,"Santarém, Fonte Boa",39.201216,-8.736656,7.6,6.7,0.0,7,0.0,2.1,93.0,1015.4,W
2026-01-17 00:00:00,1210735,Chamusca / Chouto,39.27,-8.3508,0.0,3.3,,0,0.0,0.0,100.0,1015.3,
2026-01-17 00:00:00,1210739,"Torres Vedras, Dois Portos",39.04389444,-9.179,2.5,6.6,0.0,7,0.6,0.7,99.0,,W
2026-01-17 00:00:00,1210744,Coruche,38.94096667,-8.51073611,6.8,6.2,0.0,7,0.0,1.9,,,W
2026-01-17 00:00:00,1210746,Santa Cruz (Aeródromo),39.12594166,-9.3790388,6.5,6.6,0.0,4,0.8,1.8,95.0,1015.9,SE
2026-01-17 00:00:00,1210750,Cabo da Roca,38.78171,-9.4975361,16.9,8.3,4.3,2,2.5,4.7,82.0,,NE
2026-01-17 00:00:00,1210752,Sintra/Tapada do Mouco,38.781669,-9.400398,8.3,4.5,,9,2.7,2.3,100.0,,N
2026-01-17 00:00:00,1210762,"Lisboa, Tapada da Ajuda",38.70956111,-9.182825,8.3,8.0,0.0,8,0.1,2.3,89.0,,NW
2026-01-17 00:00:00,1210765,Cabo Raso,38.70900833,-9.48538333,14.8,8.6,,1,2.3,4.1,88.0,,N
2026-01-17 00:00:00,1210766,"Barreiro, Lavradio",38.67448611,-9.04766111,7.6,9.7,0.0,7,0.2,2.1,84.0,,W
2026-01-17 00:00:00,1210767,Pegões,38.65079,-8.63503,6.8,5.4,0.0,8,0.0,1.9,100.0,,NW
2026-01-17 00:00:00,1210770,Setúbal,38.54846008,-8.89077058,9.7,8.1,0.0,8,0.1,2.7,87.0,,NW
2026-01-17 00:00:00,1210773,"Almada, P.Rainha",38.617111,-9.212804,6.5,,0.0,9,0.2,1.8,,,N
2026-01-17 00:00:00,1210776,"Alcácer do Sal, Barrosinha",38.36666667,-8.48333333,9.4,6.8,0.0,7,0.0,2.6,99.0,,W
2026-01-17 00:00:00,1210783,Alvalade,37.946806,-8.394504,2.9,7.2,0.0,7,0.1,0.8,94.0,,W
2026-01-17 00:00:00,1210785,Ourique / Santana Da Serra,37.5025,-8.3019,0.0,6.4,0.0,0,0.0,0.0,94.0,1016.2,
2026-01-17 00:00:00,1210789,Aljezur,37.31675278,-8.80001667,3.2,8.5,0.4,2,0.0,0.9,94.0,,NE
2026-01-17 00:00:00,1210790,Fóia,37.3143,-8.595733,40.7,3.0,0.4,9,1.4,11.3,,,N
2026-01-17 00:00:00,1210800,"Sabugal, Martim Rei",40.33918056,-7.03693333,5.0,1.5,0.0,2,0.0,1.4,99.0,,NE
2026-01-17 00:00:00,1210803,Zebreira,39.86666667,-7.01666667,12.6,3.8,0.0,7,0.0,3.5,92.0,,W
2026-01-17 00:00:00,1210806,"Proença-a-Nova, P.Moitas",39.73333333,-7.86666667,7.2,5.2,0.0,8,0.0,2.0,87.0,,NW
2026-01-17 00:00:00,1210812,Alvega,39.46666667,-8.05,1.1,3.5,,6,0.0,0.3,100.0,,SW
2026-01-17 00:00:00,1210824,"Avis, Benavila",39.1,-7.86666667,4.0,5.3,0.0,6,0.0,1.1,99.0,,SW
2026-01-17 00:00:00,1210826,Mora,38.94068,-8.16406,6.1,5.8,0.0,7,0.0,1.7,98.0,,W
2026-01-17 00:00:00,1210835,Elvas,38.8908,-7.13976111,14.0,6.4,0.0,8,0.0,3.9,93.0,,NW
2026-01-17 00:00:00,1210837,Estremoz,38.86666667,-7.51666667,8.3,4.5,0.0,7,0.0,2.3,100.0,,W
2026-01-17 00:00:00,1210846,Montemor-O-Novo,38.6451,-8.1991,8.6,5.5,,7,0.0,2.4,100.0,1016.3,W
2026-01-17 00:00:00,1210847,Viana do Alentejo,38.3319194,-8.04553888,6.1,6.0,0.0,7,,1.7,,,W
2026-01-17 00:00:00,1210848,"Portel, Oriola",38.31666667,-7.86666667,2.5,5.7,,7,0.0,0.7,98.0,,W
2026-01-17 00:00:00,1210851,Amareleja,38.2007,-7.2261,4.0,,0.0,6,0.0,1.1,,1013.8,SW
2026-01-17 00:00:00,1210863,"Mértola, Vale Formoso",37.75,-7.55,7.9,6.5,0.0,8,0.0,2.2,95.0,,NW
2026-01-17 00:00:00,1210864,"Castro Verde, N.Corvo",37.57655833,-7.97211389,10.1,6.3,0.0,8,0.0,2.8,99.0,,NW
2026-01-17 00:00:00,1210865,"Alcoutim, Mart.Longo",37.43333333,-7.76666667,7.9,5.5,,7,0.1,2.2,96.0,1015.8,W
2026-01-17 00:00:00,1210866,Vila Real de S.António,37.1871055,-7.416325,,8.2,,0,0.0,,84.0,,
2026-01-17 00:00:00,1210867,Castro Marim (RN Sapal),37.21666667,-7.45,8.3,7.9,0.0,8,0.0,2.3,90.0,,NW
2026-01-17 00:00:00,1210874,Albufeira,37.0935,-8.262,13.3,7.0,,8,0.0,3.7,93.0,,NW
2026-01-17 00:00:00,1210878,Portimão (Aeródromo),37.149167,-8.581389,2.5,7.0,0.0,7,0.0,0.7,95.0,1016.0,W
2026-01-17 00:00:00,1210881,"Olhão, EPPO",37.033,-7.821,6.1,8.0,0.0,7,,1.7,88.0,1016.2,W
2026-01-17 00:00:00,1210883,Tavira,37.12166968,-7.62050375,6.5,6.7,,6,0.0,1.8,92.0,1016.6,SW
2026-01-17 00:00:00,1210907,Faja / Ilha das Flores,39.45328,-31.2647,,14.6,,0,,,65.0,1036.4,
2026-01-17 00:00:00,1210932,"S. Miguel, Nordeste",37.83256,-25.150108,14.8,12.8,,8,0.1,4.1,92.0,,NW
2026-01-17 00:00:00,1210956,"Madeira, Porto Moniz",32.867477,-17.171373,,16.6,1.6,0,0.0,,70.0,,
2026-01-17 00:00:00,1210960,"Madeira, S. Jorge, Santana",32.83446944,-16.906219,19.1,14.1,0.0,8,0.0,5.3,75.0,1026.2,NW
2026-01-17 00:00:00,1210965,"Madeira, Santana",32.808238,-16.8864166,,11.8,29.5,0,0.0,,83.0,,
2026-01-17 00:00:00,1210967,"Madeira, São Vicente",32.8001833,-17.044722,,15.3,0.0,0,0.0,,74.0,,
2026-01-17 00:00:00,1210972,"Madeira, Pico Alto",32.693491,-16.903955,4.0,6.3,0.0,9,,1.1,,,N
2026-01-17 00:00:00,1210973,"Madeira, Areeiro",32.71666667,-16.91666667,10.1,2.6,12.8,1,0.1,2.8,100.0,,N
2026-01-17 00:00:00,1210974,"Madeira, Pico do Areeiro",32.735107,-16.928271,,0.9,,0,0.0,,100.0,,
2026-01-17 00:00:00,1210975,"Madeira, Santo da Serra",32.7258972,-16.816822,,9.4,0.0,0,0.0,,96.0,,
2026-01-17 00:00:00,1210976,"Madeira, Monte",32.675833,-16.906944,3.6,10.7,1.3,2,0.1,1.0,78.0,,NE
2026-01-17 00:00:00,1210977,"Madeira, Cancela",32.64500556,-16.86575,4.0,14.0,0.0,3,0.0,1.1,71.0,,E
2026-01-17 00:00:00,1210978,"Madeira, S. Lourenço",32.747,-16.706,35.3,15.5,0.0,9,0.0,9.8,75.0,,N
2026-01-17 00:00:00,1210984,"Madeira, Quinta Grande",32.6629722,-17.01503611,,12.0,0.0,0,0.1,,57.0,,
2026-01-17 00:00:00,1210986,Ponta do Sol/Lugar de Baixo,32.681502,-17.104167,7.2,15.7,0.0,7,0.0,2.0,64.0,,W
2026-01-17 00:00:00,1210987,Prazeres (Calheta),32.757205,-17.201551,18.7,10.2,0.0,9,0.3,5.2,90.0,,N
2026-01-17 00:00:00,1240546,"Porto, Serra do Pilar",41.1385194,-8.6025,13.0,5.7,,4,0.0,3.6,100.0,1014.3,SE
2026-01-17 00:00:00,1240566,Vila Real (Cidade),41.30898056,-7.740522,2.5,2.6,,5,0.0,0.7,98.0,,S
2026-01-17 00:00:00,1240610,Viana do Castelo,41.695,-8.82916,,6.5,,0,0.1,,98.0,,
2026-01-17 00:00:00,1240675,Viseu (Cidade),40.662738,-7.9039694,,2.2,,0,0.0,,98.0,,
2026-01-17 00:00:00,1240903,"Porto, Massarelos",41.15257,-8.62598,,6.2,,0,,,100.0,,
2026-01-17 00:00:00,1240971,"Madeira, Funchal, Lido",32.63655,-16.935592,0.0,16.4,0.0,0,0.0,0.0,54.0,,
2026-01-17 00:00:00,1259204,Seia/Senhora do Espinheiro,40.412775,-7.673406,0.4,0.4,,1,0.0,0.1,100.0,1016.0,N
2026-01-17 00:00:00,5210758,Alcochete / Campo Tiro,38.7627,-8.7825,4.7,6.2,,7,0.0,1.3,99.0,1015.3,W
2026-01-17 00:00:00,6210817,Ponte de Sôr / Aeródromo,39.21536,-8.05417,1.4,4.7,,5,,0.4,97.0,1014.9,S
2026-01-17 00:00:00,6210872,Loulé (CML),37.129946,-8.06523593,1.8,4.4,,3,,0.5,,1016.3,E
2026-01-17 00:00:00,6210879,Portimão (Praia da Rocha),37.11670461,-8.52946314,4.7,9.5,,8,0.0,1.3,86.0,,NW
2026-01-17 00:00:00,6211211,Monção - Guimil (CIM),42.042944,-8.421872,2.9,,0.5,8,,0.8,,1012.7,NW
2026-01-17 00:00:00,6211213,Paredes De Coura - Vascões (CIM),41.913444,-8.492111,2.5,2.1,0.8,2,,0.7,100.0,1014.9,NE
2026-01-17 00:00:00,6211216,Arcos De Valdevez - Heliporto (CIM),41.831,-8.44375,4.7,3.5,,8,0.0,1.3,98.0,1014.5,NW
2026-01-17 00:00:00,6211218,Ponte De Lima - Anais (CIM),41.698083,-8.522444,2.9,3.2,0.0,2,,0.8,95.0,1014.2,NE
2026-01-17 00:00:00,6212121,Terras de Bouro/Barral (CIM),41.70225278,-8.31808611,4.3,3.1,,4,0.0,1.2,95.0,1012.2,SE
2026-01-17 00:00:00,6212122,Amares Caldelas (CIM),41.66796389,-8.37977778,2.9,2.7,,2,0.0,0.8,95.0,1015.0,NE
2026-01-17 00:00:00,6212123,Vila Verde (CIM),41.64686111,-8.43398056,2.2,3.6,,5,,0.6,91.0,1014.7,S
2026-01-17 00:00:00,6212124,Braga (CIM),41.53568333,-8.42514722,5.4,4.9,,2,0.0,1.5,95.0,1015.0,NE
2026-01-17 00:00:00,6212125,Barcelos (CIM),41.529375,-8.62705278,6.1,5.9,,3,0.0,1.7,97.0,1015.8,E
2026-01-17 00:00:00,6212126,Esposende (CIM),41.52645556,-8.77984444,10.1,6.0,,3,0.1,2.8,98.0,1014.9,E
2026-01-17 00:00:00,6213012,Carregal do Sal (CIM),40.46718056,-7.92626389,2.2,4.3,,5,,0.6,99.0,,S
2026-01-17 00:00:00,6213013,Castro Daire / Mézio (CIM),40.98086111,-7.88318889,10.8,0.7,,8,,3.0,100.0,,NW
2026-01-17 00:00:00,6213014,Mangualde / Chãs de Tavares  (CIM),40.61096111,-7.60838889,5.8,2.0,,7,0.0,1.6,100.0,,W
2026-01-17 00:00:00,6213016,Oliveira de Frades (CIM),40.716925,-8.20133889,7.9,3.5,,4,,2.2,88.0,,SE
2026-01-17 00:00:00,6213017,Penalva do Castelo (CIM),40.65706389,-7.69655278,2.5,2.9,,5,0.0,0.7,100.0,,S
2026-01-17 00:00:00,6213020,Satão (CIM),40.76072778,-7.72019722,2.9,1.6,,8,0.0,0.8,100.0,,NW
2026-01-17 00:00:00,6213022,Vila Nova de Paiva (CIM),40.85595,-7.72716389,3.2,0.7,,7,0.0,0.9,,,W
2026-01-17 00:00:00,6213611,Arganil / Aeródromo (CIM),40.274578,-7.974399,1.1,3.8,,7,0.0,0.3,100.0,,W
2026-01-17 00:00:00,6213612,Cantanhede / Fonte Dom Pedro (CIM),40.341894,-8.577613,5.0,3.4,,4,0.0,1.4,96.0,,SE
2026-01-17 00:00:00,6213613,Coimbra / Mata de São Pedro (CIM),40.330787,-8.374887,4.0,3.9,,4,,1.1,100.0,,SE
2026-01-17 00:00:00,6213615,Mealhada / Quinta do Vale (CIM),40.373343,-8.4388429,6.1,2.8,,4,0.0,1.7,99.0,,SE
2026-01-17 00:00:00,6213616,Mortágua / Aeródromo (CIM),40.426239,-8.232142,1.1,2.6,,1,0.0,0.3,100.0,,N
2026-01-17 00:00:00,6213617,Penacova / Hombres (CIM),40.280921,-8.198685,5.4,,,5,0.0,1.5,100.0,,S
2026-01-17 00:00:00,6213619,Vila Nova de Poiares (CIM),40.211411,-8.241995,2.2,4.6,,2,0.0,0.6,96.0,,NE
2026-01-17 00:00:00,6213620,Oliveira do Hospital (CIM),40.413306,-7.867972,6.1,0.5,,3,0.0,1.7,99.0,,E
2026-01-17 00:00:00,6215302,"Lisboa, Carnide (CML)",38.7751,-9.1855,4.7,8.1,,4,0.1,1.3,90.0,1015.5,SE
2026-01-17 00:00:00,6215360,Oeiras / Vila Fria (CMO),38.7239536,-9.2939255,14.4,7.5,0.0,8,0.3,4.0,90.0,1016.7,NW
2026-01-17 00:00:00,7240919,"Lisboa, Amoreiras (LFCL)",38.7239,-9.1649,3.6,7.3,,8,0.1,1.0,99.0,1016.6,NW
2026-01-17 01:00:00,11217160,Santa Maria / Praia Formosa (DROTRH),36.9542,-25.0917,12.2,13.5,0.0,3,0.0,3.4,87.0,,E
2026-01-17 01:00:00,11217165,Santa Maria / Maia (DROTRH),36.9412,-25.0176,19.1,13.4,0.0,8,0.0,5.3,86.0,,NW
2026-01-17 01:00:00,11217217,São Miguel / Santana (DROTRH),37.8049,-25.5618,10.1,13.9,0.6,8,0.0,2.8,86.0,,NW
2026-01-17 01:00:00,11217225,São Miguel / Sete Cidades (DROTRH),37.8679,-25.772,13.7,12.4,15.0,7,0.1,3.8,87.0,,W
2026-01-17 01:00:00,11217255,São Miguel / Lagoa das Furnas (DROTRH),37.7619,-25.3291,7.2,11.7,1.5,5,0.0,2.0,90.0,,S
2026-01-17 01:00:00,11217370,Terceira / Ribeira das Nove (DROTRH),38.754,-27.3245,4.7,7.9,0.0,5,0.1,1.3,100.0,,S
2026-01-17 01:00:00,11217372,Terceira / Serra do Cume (DROTRH),38.7002,-27.1031,9.7,9.9,0.0,8,0.0,2.7,100.0,,NW
2026-01-17 01:00:00,11217430,Graciosa / Serra das Fontes (DROTRH),39.0672,-28.0038,25.2,12.4,0.0,9,0.0,7.0,89.0,,N
2026-01-17 01:00:00,11217510,São Jorge / Pico do Areeiro (DROTRH),38.6435,-28.0591,10.4,6.8,0.0,6,0.0,2.9,100.0,,SW
2026-01-17 01:00:00,11217645,Pico / Cabecinho (DROTRH),38.4338,-28.1141,12.6,9.5,0.0,8,0.0,3.5,94.0,,NW
2026-01-17 01:00:00,11217730,Faial / Cabeço Verde (DROTRH),38.5843,-28.7576,5.8,9.8,0.0,6,0.0,1.6,92.0,,SW
2026-01-17 01:00:00,1200501,Flores (Aeródromo),39.45819,-31.1301,4.7,13.4,0.0,6,0.0,1.3,72.0,1035.9,SW
2026-01-17 01:00:00,1200502,Corvo (Aeródromo),39.67389,-31.11362,33.5,14.8,0.0,7,0.0,9.3,68.0,1035.0,W
2026-01-17 01:00:00,1200504,Pico (Aeródromo),38.55219,-28.44137,5.8,14.1,0.0,7,0.0,1.6,71.0,1035.9,W
2026-01-17 01:00:00,1200505,Horta / Aeroporto,38.5211,-28.7128,7.6,14.2,,8,0.0,2.1,67.0,1035.6,NW
2026-01-17 01:00:00,1200506,Horta (Obs. Principe Alberto),38.540781,-28.63225,10.8,13.3,0.0,7,0.0,3.0,75.0,1036.2,W
2026-01-17 01:00:00,1200510,São Jorge,38.66,-28.17,9.4,13.7,0.0,8,0.0,2.6,75.0,1035.3,NW
2026-01-17 01:00:00,1200511,Angra do Heroísmo,38.6659435,-27.216567,10.1,13.4,0.0,7,0.0,2.8,77.0,1035.0,W
2026-01-17 01:00:00,1200512,P. Delgada (Aeródromo),37.74414,-25.6953048,11.5,13.2,0.0,9,0.0,3.2,80.0,1034.3,N
2026-01-17 01:00:00,1200515,Santa Maria (Aeródromo),36.967175,-25.1679,28.1,14.3,0.1,9,0.0,7.8,79.0,1034.4,N
2026-01-17 01:00:00,1200521,Santa Catarina (Aeródromo),32.69688,-16.77612,,15.6,0.0,0,0.0,,65.0,1025.5,
2026-01-17 01:00:00,1200522,Funchal,32.64786,-16.888,1.8,15.5,0.0,9,0.0,0.5,57.0,1025.6,N
2026-01-17 01:00:00,1200524,Porto Santo,33.074029,-16.34868,22.0,15.5,0.0,8,0.0,6.1,69.0,1024.6,NW
2026-01-17 01:00:00,1200531,Cabo Carvoeiro,39.38,-9.40737778,6.1,8.9,,8,0.1,1.7,90.0,1015.4,NW
2026-01-17 01:00:00,1200533,Sagres,37.012835,-8.949089,13.0,10.2,,9,0.0,3.6,74.0,1015.8,N
2026-01-17 01:00:00,1200535,Lisboa (Geofísico),38.71907778,-9.14972222,8.6,8.0,0.0,8,0.0,2.4,100.0,1015.7,NW
2026-01-17 01:00:00,1200541,Sines,37.954504,-8.838271,15.8,8.6,0.0,9,0.0,4.4,96.0,1015.6,N
2026-01-17 01:00:00,1200545,"Porto, Pedras Rubras (Aeródromo)",41.233502,-8.681332,13.7,5.2,0.0,3,0.1,3.8,99.0,1014.4,E
2026-01-17 01:00:00,1200548,Coimbra (Aeródromo),40.15006944,-8.46669167,5.0,6.0,0.0,5,0.1,1.4,99.0,1014.7,S
2026-01-17 01:00:00,1200551,"Viana Castelo, Chafé",41.648875,-8.804606,11.5,4.3,0.0,3,0.1,3.2,100.0,1014.2,E
2026-01-17 01:00:00,1200554,Faro (Aeródromo),37.016579,-7.971953,13.3,7.8,0.0,8,0.0,3.7,90.0,1015.4,NW
2026-01-17 01:00:00,1200558,Évora (C.Coordenação),38.53336389,-7.88338056,13.0,4.8,0.0,8,0.0,3.6,,1015.2,NW
2026-01-17 01:00:00,1200559,Viseu (Aeródromo),40.72645,-7.887472,1.8,1.0,,7,0.0,0.5,99.0,1015.7,W
2026-01-17 01:00:00,1200560,Viseu (C.Coordenação),40.71492222,-7.89592222,9.0,1.9,,7,0.0,2.5,100.0,1015.9,W
2026-01-17 01:00:00,1200562,Beja,38.02493056,-7.867275,13.7,5.3,0.0,7,0.0,3.8,100.0,1014.6,W
2026-01-17 01:00:00,1200567,Vila Real,41.27418611,-7.7171,2.2,2.3,0.0,6,0.0,0.6,100.0,1015.1,SW
2026-01-17 01:00:00,1200568,Penhas Douradas,40.41136667,-7.55865278,0.0,-1.1,0.0,0,,0.0,100.0,,
2026-01-17 01:00:00,1200570,Castelo Branco,39.83339444,-7.46678889,8.6,4.1,0.0,7,0.0,2.4,100.0,1013.7,W
2026-01-17 01:00:00,1200571,Portalegre,39.29546944,-7.41996944,13.0,3.0,0.0,8,0.0,3.6,100.0,1014.9,NW
2026-01-17 01:00:00,1200575,Bragança,41.80388889,-6.74283889,,0.1,,0,,,95.0,1015.4,
2026-01-17 01:00:00,1200576,Bragança (Aeródromo),41.85763611,-6.70796389,,-0.4,,0,0.0,,99.0,1015.0,
2026-01-17 01:00:00,1200843,Évora (Aeródromo),38.5296,-7.8916,12.2,4.4,,7,0.1,3.4,97.0,1014.9,W
2026-01-17 01:00:00,1210513,P. Delgada (Obs. A. Chaves),37.7464,-25.662283,1.8,13.7,0.8,9,0.0,0.5,75.0,,N
2026-01-17 01:00:00,1210517,Flores / Morro Alto,39.4633,-31.2207,49.0,6.1,,7,0.0,13.6,100.0,1033.2,W
2026-01-17 01:00:00,1210518,São Miguel - Pico Santos De Cima,37.819,-25.7512,46.4,7.3,,9,0.2,12.9,100.0,1034.1,N
2026-01-17 01:00:00,1210520,Ilhas selvagens,30.140595,-15.869153,34.9,16.2,0.1,1,0.0,9.7,73.0,1025.5,N
2026-01-17 01:00:00,1210550,Coruche / Cruz Do Leão,39.07101,-8.4,4.0,4.5,,7,0.0,1.1,100.0,1015.3,W
2026-01-17 01:00:00,1210553,Loulé / Cavalos De Caldeirão,37.3042,-7.9534,22.0,4.8,,8,0.0,6.1,100.0,1015.9,NW
2026-01-17 01:00:00,1210577,"Odemira, S.Teotónio",37.54710833,-8.72899167,2.9,7.4,0.0,8,0.0,0.8,94.0,,NW
2026-01-17 01:00:00,1210580,"Lisboa, Relógio",38.7618,-9.1254,,7.6,,0,0.1,,84.0,1016.1,
2026-01-17 01:00:00,1210604,V.N.Cerveira (Aeródromo),41.96673056,-8.66676111,4.3,5.6,0.0,5,0.1,1.2,100.0,1013.8,S
2026-01-17 01:00:00,1210605,"Monção, Valinha",42.06669,-8.383347,3.2,3.3,0.0,3,0.1,0.9,100.0,,E
2026-01-17 01:00:00,1210606,"Lamas de Mouro, P.Ribeiro",42.03333333,-8.18333333,2.2,-0.1,0.0,4,0.0,0.6,100.0,1016.2,SE
2026-01-17 01:00:00,1210611,Montalegre,41.82276667,-7.78797778,6.8,1.0,0.0,8,0.0,1.9,99.0,,NW
2026-01-17 01:00:00,1210612,Vinhais,41.8434,-7.0034416,9.4,0.4,,9,0.1,2.6,100.0,,N
2026-01-17 01:00:00,1210615,Ponte de Lima,41.75013889,-8.56671389,1.8,4.0,0.0,2,0.0,0.5,99.0,,NE
2026-01-17 01:00:00,1210616,Chaves (Aeródromo),41.72516667,-7.46540833,1.8,0.9,0.0,4,0.0,0.5,97.0,1014.9,SE
2026-01-17 01:00:00,1210619,Cabril,41.71666667,-8.01666667,5.0,3.0,,3,0.0,1.4,99.0,,E
2026-01-17 01:00:00,1210622,"Braga, Merelim",41.56678056,-8.45003056,2.2,3.0,0.3,3,0.0,0.6,100.0,1014.9,E
2026-01-17 01:00:00,1210625,Guimarães,41.4289,-8.3178,,3.6,0.0,0,,,96.0,1014.8,
2026-01-17 01:00:00,1210630,Cabeceiras de Basto,41.53333333,-7.96666667,3.2,3.4,0.0,7,0.0,0.9,100.0,,W
2026-01-17 01:00:00,1210632,Mirandela,41.51478611,-7.19083889,0.7,1.5,0.0,3,0.0,0.2,93.0,,E
2026-01-17 01:00:00,1210633,"Macedo Cavaleiros, Bagueixe",41.56666667,-6.78333333,8.3,1.1,,8,0.0,2.3,100.0,,NW
2026-01-17 01:00:00,1210635,Miranda do Douro,41.51666667,-6.28333333,3.6,2.9,,8,0.0,1.0,99.0,,NW
2026-01-17 01:00:00,1210637,Mogadouro,41.33333333,-6.73333333,7.9,2.0,0.0,7,0.0,2.2,99.0,,W
2026-01-17 01:00:00,1210643,Paços Ferreira,41.27365,-8.38012,3.6,2.3,,3,0.1,1.0,100.0,,E
2026-01-17 01:00:00,1210644,Carrazêda de Ansiães,41.23333333,-7.28333333,2.5,0.0,0.0,8,0.0,0.7,94.0,,NW
2026-01-17 01:00:00,1210654,Moncorvo,41.18333333,-7.01666667,1.1,1.9,0.0,7,0.0,0.3,90.0,1015.0,W
2026-01-17 01:00:00,1210655,"Pinhão, Santa Bárbara",41.172775,-7.5489722,1.8,3.6,,8,0.0,0.5,97.0,,NW
2026-01-17 01:00:00,1210657,Luzim,41.14585,-8.2490333,1.4,2.2,0.0,1,0.0,0.4,99.0,,N
2026-01-17 01:00:00,1210663,Moimenta da Beira,40.98333333,-7.6,4.3,1.2,0.0,4,0.0,1.2,94.0,,SE
2026-01-17 01:00:00,1210666,"Trancoso, Bandarra",40.78333333,-7.36666667,4.3,0.5,0.0,6,0.0,1.2,99.0,,SW
2026-01-17 01:00:00,1210669,Arouca,40.93333333,-8.25,1.1,3.0,0.0,3,0.0,0.3,99.0,,E
2026-01-17 01:00:00,1210671,"F. Castelo Rodrigo, V.Torpim",40.75,-6.88333333,2.5,1.4,0.0,7,0.0,0.7,99.0,,W
2026-01-17 01:00:00,1210683,Guarda,40.53333333,-7.26666667,13.7,0.6,0.3,8,0.0,3.8,100.0,,NW
2026-01-17 01:00:00,1210685,Nelas,40.51666667,-7.85,2.2,3.7,0.0,4,0.0,0.6,100.0,,SE
2026-01-17 01:00:00,1210686,"Pampilhosa da Serra, Fajão",40.145653,-7.92704,12.6,1.9,,8,0.0,3.5,100.0,,NW
2026-01-17 01:00:00,1210687,Covilhã (Aeródromo),40.264309,-7.482302,4.0,3.3,0.0,7,,1.1,96.0,,W
2026-01-17 01:00:00,1210690,Aldeia Souto (Q. Lageosa),40.35425833,-7.38931111,1.8,3.7,0.0,8,0.0,0.5,78.0,,NW
2026-01-17 01:00:00,1210697,Lousã (Aeródromo),40.143922,-8.244066,1.8,3.6,,1,0.0,0.5,100.0,,N
2026-01-17 01:00:00,1210698,Fundão,40.14063611,-7.55362778,5.8,4.7,0.0,7,0.0,1.6,84.0,,W
2026-01-17 01:00:00,1210702,Aveiro (Universidade),40.63529722,-8.65958333,5.8,5.8,0.0,4,0.0,1.6,99.0,1014.7,SE
2026-01-17 01:00:00,1210704,Dunas de Mira,40.445955,-8.76168055,0.7,4.0,0.0,6,0.0,0.2,99.0,,SW
2026-01-17 01:00:00,1210705,Anadia,40.438852,-8.439996,0.7,3.8,0.0,7,0.0,0.2,97.0,,W
2026-01-17 01:00:00,1210707,"Coimbra, Bencanta",40.2134694,-8.45515277,5.0,4.4,0.0,3,0.1,1.4,100.0,,E
2026-01-17 01:00:00,1210713,"Figueira da Foz, Vila Verde",40.139764,-8.805945,8.3,4.4,0.0,2,0.0,2.3,,,NE
2026-01-17 01:00:00,1210716,Ansião,39.9,-8.4,0.7,4.5,0.0,8,,0.2,98.0,,NW
2026-01-17 01:00:00,1210718,Leiria (Aeródromo),39.780553,-8.818166,3.2,4.7,0.0,4,0.0,0.9,100.0,1014.7,SE
2026-01-17 01:00:00,1210724,"Tomar, Valdonas",39.6,-8.36666667,2.2,2.1,219.1,4,0.0,0.6,100.0,,SE
2026-01-17 01:00:00,1210726,Alcobaça,39.51666667,-8.96666667,0.7,6.1,0.0,3,0.6,0.2,95.0,,E
2026-01-17 01:00:00,1210729,Rio Maior,39.35,-8.93333333,2.9,6.8,21.5,7,0.4,0.8,95.0,,W
2026-01-17 01:00:00,1210734,"Santarém, Fonte Boa",39.201216,-8.736656,11.2,6.6,0.0,8,0.0,3.1,92.0,1015.2,NW
2026-01-17 01:00:00,1210735,Chamusca / Chouto,39.27,-8.3508,0.0,2.1,,0,0.0,0.0,100.0,1015.4,
2026-01-17 01:00:00,1210739,"Torres Vedras, Dois Portos",39.04389444,-9.179,3.6,6.4,0.0,5,0.3,1.0,99.0,,S
2026-01-17 01:00:00,1210744,Coruche,38.94096667,-8.51073611,4.7,5.7,0.0,6,0.0,1.3,,,SW
2026-01-17 01:00:00,1210746,Santa Cruz (Aeródromo),39.12594166,-9.3790388,9.0,5.8,0.0,6,0.4,2.5,97.0,1015.6,SW
2026-01-17 01:00:00,1210750,Cabo da Roca,38.78171,-9.4975361,19.1,7.7,9.4,2,0.3,5.3,85.0,,NE
2026-01-17 01:00:00,1210752,Sintra/Tapada do Mouco,38.781669,-9.400398,6.1,4.4,,8,0.5,1.7,100.0,,NW
2026-01-17 01:00:00,1210762,"Lisboa, Tapada da Ajuda",38.70956111,-9.182825,6.5,7.9,0.0,8,0.2,1.8,89.0,,NW
2026-01-17 01:00:00,1210765,Cabo Raso,38.70900833,-9.48538333,11.2,7.9,,2,0.0,3.1,90.0,,NE
2026-01-17 01:00:00,1210766,"Barreiro, Lavradio",38.67448611,-9.04766111,10.4,10.0,0.0,8,0.0,2.9,80.0,,NW
2026-01-17 01:00:00,1210767,Pegões,38.65079,-8.63503,9.4,5.3,0.0,7,0.0,2.6,100.0,,W
2026-01-17 01:00:00,1210770,Setúbal,38.54846008,-8.89077058,13.0,8.6,0.0,8,0.0,3.6,82.0,,NW
2026-01-17 01:00:00,1210773,"Almada, P.Rainha",38.617111,-9.212804,5.0,,0.3,1,0.9,1.4,,,N
2026-01-17 01:00:00,1210776,"Alcácer do Sal, Barrosinha",38.36666667,-8.48333333,6.8,6.7,0.0,8,0.0,1.9,99.0,,NW
2026-01-17 01:00:00,1210783,Alvalade,37.946806,-8.394504,7.9,5.5,0.0,6,0.0,2.2,96.0,,SW
2026-01-17 01:00:00,1210785,Ourique / Santana Da Serra,37.5025,-8.3019,2.2,5.7,0.0,2,0.0,0.6,95.0,1016.0,NE
2026-01-17 01:00:00,1210789,Aljezur,37.31675278,-8.80001667,0.7,6.1,0.5,8,0.0,0.2,97.0,,NW
2026-01-17 01:00:00,1210790,Fóia,37.3143,-8.595733,36.4,3.0,0.0,9,0.0,10.1,,,N
2026-01-17 01:00:00,1210800,"Sabugal, Martim Rei",40.33918056,-7.03693333,6.5,0.9,0.0,2,0.0,1.8,99.0,,NE
2026-01-17 01:00:00,1210803,Zebreira,39.86666667,-7.01666667,11.2,3.9,0.0,7,0.0,3.1,91.0,,W
2026-01-17 01:00:00,1210806,"Proença-a-Nova, P.Moitas",39.73333333,-7.86666667,7.6,5.0,0.0,7,0.0,2.1,89.0,,W
2026-01-17 01:00:00,1210812,Alvega,39.46666667,-8.05,0.7,3.6,,6,0.0,0.2,100.0,,SW
2026-01-17 01:00:00,1210824,"Avis, Benavila",39.1,-7.86666667,8.3,5.2,0.0,7,0.0,2.3,99.0,,W
2026-01-17 01:00:00,1210826,Mora,38.94068,-8.16406,5.4,5.5,0.0,7,0.0,1.5,98.0,,W
2026-01-17 01:00:00,1210835,Elvas,38.8908,-7.13976111,16.2,5.9,0.0,8,0.0,4.5,93.0,,NW
2026-01-17 01:00:00,1210837,Estremoz,38.86666667,-7.51666667,7.6,4.3,0.0,7,0.0,2.1,100.0,,W
2026-01-17 01:00:00,1210846,Montemor-O-Novo,38.6451,-8.1991,6.5,5.3,,8,0.0,1.8,100.0,1016.2,NW
2026-01-17 01:00:00,1210847,Viana do Alentejo,38.3319194,-8.04553888,9.4,5.4,0.0,7,,2.6,,,W
2026-01-17 01:00:00,1210848,"Portel, Oriola",38.31666667,-7.86666667,5.0,5.2,,7,0.0,1.4,98.0,,W
2026-01-17 01:00:00,1210851,Amareleja,38.2007,-7.2261,1.4,,0.0,7,0.0,0.4,,1013.5,W
2026-01-17 01:00:00,1210863,"Mértola, Vale Formoso",37.75,-7.55,6.8,6.0,0.0,8,0.0,1.9,96.0,,NW
2026-01-17 01:00:00,1210864,"Castro Verde, N.Corvo",37.57655833,-7.97211389,7.6,5.9,0.0,7,0.0,2.1,99.0,,W
2026-01-17 01:00:00,1210865,"Alcoutim, Mart.Longo",37.43333333,-7.76666667,10.1,5.4,,7,0.0,2.8,97.0,1015.6,W
2026-01-17 01:00:00,1210866,Vila Real de S.António,37.1871055,-7.416325,,6.2,,0,0.0,,88.0,,
2026-01-17 01:00:00,1210867,Castro Marim (RN Sapal),37.21666667,-7.45,10.8,8.0,0.0,9,0.0,3.0,89.0,,N
2026-01-17 01:00:00,1210874,Albufeira,37.0935,-8.262,10.1,7.8,,7,0.0,2.8,88.0,,W
2026-01-17 01:00:00,1210878,Portimão (Aeródromo),37.149167,-8.581389,1.4,6.0,0.0,4,0.0,0.4,97.0,1015.7,SE
2026-01-17 01:00:00,1210881,"Olhão, EPPO",37.033,-7.821,6.5,7.8,0.0,7,,1.8,90.0,1016.0,W
2026-01-17 01:00:00,1210883,Tavira,37.12166968,-7.62050375,5.0,6.3,,8,0.0,1.4,93.0,1016.3,NW
2026-01-17 01:00:00,1210907,Faja / Ilha das Flores,39.45328,-31.2647,,14.7,,0,,,66.0,1036.5,
2026-01-17 01:00:00,1210932,"S. Miguel, Nordeste",37.83256,-25.150108,21.6,12.6,,8,1.2,6.0,95.0,,NW
2026-01-17 01:00:00,1210956,"Madeira, Porto Moniz",32.867477,-17.171373,,16.1,1.0,0,0.0,,70.0,,
2026-01-17 01:00:00,1210960,"Madeira, S. Jorge, Santana",32.83446944,-16.906219,28.1,14.0,0.0,7,0.0,7.8,76.0,1025.3,W
2026-01-17 01:00:00,1210965,"Madeira, Santana",32.808238,-16.8864166,,11.6,29.1,0,0.0,,85.0,,
2026-01-17 01:00:00,1210967,"Madeira, São Vicente",32.8001833,-17.044722,,15.2,0.0,0,0.0,,74.0,,
2026-01-17 01:00:00,1210972,"Madeira, Pico Alto",32.693491,-16.903955,6.1,6.6,0.0,2,,1.7,,,NE
2026-01-17 01:00:00,1210973,"Madeira, Areeiro",32.71666667,-16.91666667,12.6,3.1,13.0,1,0.0,3.5,100.0,,N
2026-01-17 01:00:00,1210974,"Madeira, Pico do Areeiro",32.735107,-16.928271,,1.4,,0,0.2,,100.0,,
2026-01-17 01:00:00,1210975,"Madeira, Santo da Serra",32.7258972,-16.816822,,9.3,0.0,0,0.0,,96.0,,
2026-01-17 01:00:00,1210976,"Madeira, Monte",32.675833,-16.906944,2.2,10.8,0.2,2,0.0,0.6,75.0,,NE
2026-01-17 01:00:00,1210977,"Madeira, Cancela",32.64500556,-16.86575,2.5,13.1,0.0,2,0.0,0.7,73.0,,NE
2026-01-17 01:00:00,1210978,"Madeira, S. Lourenço",32.747,-16.706,25.2,15.6,0.0,2,0.0,7.0,75.0,,NE
2026-01-17 01:00:00,1210984,"Madeira, Quinta Grande",32.6629722,-17.01503611,,11.7,0.0,0,0.1,,65.0,,
2026-01-17 01:00:00,1210986,Ponta do Sol/Lugar de Baixo,32.681502,-17.104167,14.4,16.0,0.0,6,0.0,4.0,63.0,,SW
2026-01-17 01:00:00,1210987,Prazeres (Calheta),32.757205,-17.201551,24.1,10.2,0.0,9,0.0,6.7,92.0,,N
2026-01-17 01:00:00,1240546,"Porto, Serra do Pilar",41.1385194,-8.6025,10.8,5.3,2696.9,4,0.0,3.0,100.0,1014.1,SE
2026-01-17 01:00:00,1240566,Vila Real (Cidade),41.30898056,-7.740522,3.2,2.1,,3,0.0,0.9,99.0,,E
2026-01-17 01:00:00,1240610,Viana do Castelo,41.695,-8.82916,,6.0,,0,0.0,,99.0,,
2026-01-17 01:00:00,1240675,Viseu (Cidade),40.662738,-7.9039694,,1.7,,0,0.0,,99.0,,
2026-01-17 01:00:00,1240903,"Porto, Massarelos",41.15257,-8.62598,,5.9,,0,,,100.0,,
2026-01-17 01:00:00,1240971,"Madeira, Funchal, Lido",32.63655,-16.935592,0.0,16.1,0.0,0,0.0,0.0,57.0,,
2026-01-17 01:00:00,1259204,Seia/Senhora do Espinheiro,40.412775,-7.673406,1.1,1.0,,9,0.0,0.3,99.0,1015.6,N
2026-01-17 01:00:00,5210758,Alcochete / Campo Tiro,38.7627,-8.7825,4.0,6.1,,6,0.0,1.1,100.0,1015.1,SW
2026-01-17 01:00:00,6210817,Ponte de Sôr / Aeródromo,39.21536,-8.05417,5.4,3.5,,6,,1.5,97.0,1014.9,SW
2026-01-17 01:00:00,6210872,Loulé (CML),37.129946,-8.06523593,3.2,4.2,,8,,0.9,,1015.9,NW
2026-01-17 01:00:00,6210879,Portimão (Praia da Rocha),37.11670461,-8.52946314,4.0,9.2,,1,0.0,1.1,87.0,,N
2026-01-17 01:00:00,6211211,Monção - Guimil (CIM),42.042944,-8.421872,3.2,,0.7,6,,0.9,,1011.9,SW
2026-01-17 01:00:00,6211213,Paredes De Coura - Vascões (CIM),41.913444,-8.492111,3.2,1.9,0.6,2,,0.9,100.0,1014.9,NE
2026-01-17 01:00:00,6211216,Arcos De Valdevez - Heliporto (CIM),41.831,-8.44375,3.2,3.0,,2,0.1,0.9,99.0,1014.6,NE
2026-01-17 01:00:00,6211218,Ponte De Lima - Anais (CIM),41.698083,-8.522444,2.9,2.7,0.0,3,,0.8,96.0,1014.1,E
2026-01-17 01:00:00,6212121,Terras de Bouro/Barral (CIM),41.70225278,-8.31808611,2.5,3.3,,4,0.0,0.7,95.0,1012.0,SE
2026-01-17 01:00:00,6212122,Amares Caldelas (CIM),41.66796389,-8.37977778,2.9,2.7,,2,0.0,0.8,95.0,1014.6,NE
2026-01-17 01:00:00,6212123,Vila Verde (CIM),41.64686111,-8.43398056,2.2,3.5,,4,,0.6,91.0,1014.0,SE
2026-01-17 01:00:00,6212124,Braga (CIM),41.53568333,-8.42514722,3.2,4.3,,2,0.0,0.9,97.0,1014.7,NE
2026-01-17 01:00:00,6212125,Barcelos (CIM),41.529375,-8.62705278,5.8,5.6,0.0,3,0.0,1.6,97.0,1015.5,E
2026-01-17 01:00:00,6212126,Esposende (CIM),41.52645556,-8.77984444,11.9,5.5,,3,0.0,3.3,98.0,1014.7,E
2026-01-17 01:00:00,6213012,Carregal do Sal (CIM),40.46718056,-7.92626389,4.7,4.0,,4,,1.3,99.0,,SE
2026-01-17 01:00:00,6213013,Castro Daire / Mézio (CIM),40.98086111,-7.88318889,7.6,1.4,,2,,2.1,98.0,,NE
2026-01-17 01:00:00,6213014,Mangualde / Chãs de Tavares  (CIM),40.61096111,-7.60838889,9.0,1.3,,7,0.0,2.5,100.0,,W
2026-01-17 01:00:00,6213016,Oliveira de Frades (CIM),40.716925,-8.20133889,7.2,3.3,,5,,2.0,89.0,,S
2026-01-17 01:00:00,6213017,Penalva do Castelo (CIM),40.65706389,-7.69655278,2.9,2.6,,7,0.0,0.8,100.0,,W
2026-01-17 01:00:00,6213020,Satão (CIM),40.76072778,-7.72019722,5.8,1.4,,7,0.0,1.6,100.0,,W
2026-01-17 01:00:00,6213022,Vila Nova de Paiva (CIM),40.85595,-7.72716389,1.8,0.4,,8,0.0,0.5,,,NW
2026-01-17 01:00:00,6213611,Arganil / Aeródromo (CIM),40.274578,-7.974399,1.8,3.5,,2,0.0,0.5,100.0,,NE
2026-01-17 01:00:00,6213612,Cantanhede / Fonte Dom Pedro (CIM),40.341894,-8.577613,7.2,3.2,,5,0.0,2.0,96.0,,S
2026-01-17 01:00:00,6213613,Coimbra / Mata de São Pedro (CIM),40.330787,-8.374887,4.7,3.7,,3,,1.3,100.0,,E
2026-01-17 01:00:00,6213615,Mealhada / Quinta do Vale (CIM),40.373343,-8.4388429,1.4,2.9,,4,0.0,0.4,99.0,,SE
2026-01-17 01:00:00,6213616,Mortágua / Aeródromo (CIM),40.426239,-8.232142,3.6,2.9,,1,0.0,1.0,100.0,,N
2026-01-17 01:00:00,6213617,Penacova / Hombres (CIM),40.280921,-8.198685,3.2,,,5,0.0,0.9,100.0,,S
2026-01-17 01:00:00,6213619,Vila Nova de Poiares (CIM),40.211411,-8.241995,0.7,4.0,,8,0.0,0.2,96.0,,NW
2026-01-17 01:00:00,6213620,Oliveira do Hospital (CIM),40.413306,-7.867972,4.7,1.4,,2,0.0,1.3,99.0,,NE
2026-01-17 01:00:00,6215302,"Lisboa, Carnide (CML)",38.7751,-9.1855,3.6,7.8,,7,0.2,1.0,90.0,1015.3,W
2026-01-17 01:00:00,6215360,Oeiras / Vila Fria (CMO),38.7239536,-9.2939255,9.7,7.4,0.0,8,0.2,2.7,91.0,1016.5,NW
2026-01-17 01:00:00,7240919,"Lisboa, Amoreiras (LFCL)",38.7239,-9.1649,1.8,7.0,,2,0.1,0.5,100.0,1016.4,NE
2026-01-17 02:00:00,11217160,Santa Maria / Praia Formosa (DROTRH),36.9542,-25.0917,15.8,13.4,0.0,3,0.0,4.4,90.0,,E
2026-01-17 02:00:00,11217165,Santa Maria / Maia (DROTRH),36.9412,-25.0176,16.9,13.2,0.0,8,0.0,4.7,86.0,,NW
2026-01-17 02:00:00,11217217,São Miguel / Santana (DROTRH),37.8049,-25.5618,8.3,13.5,0.0,8,0.0,2.3,88.0,,NW
2026-01-17 02:00:00,11217225,São Miguel / Sete Cidades (DROTRH),37.8679,-25.772,6.8,12.2,6.3,7,0.0,1.9,90.0,,W
2026-01-17 02:00:00,11217255,São Miguel / Lagoa das Furnas (DROTRH),37.7619,-25.3291,8.3,11.5,0.0,6,0.5,2.3,90.0,,SW
2026-01-17 02:00:00,11217370,Terceira / Ribeira das Nove (DROTRH),38.754,-27.3245,4.3,8.0,0.0,6,0.0,1.2,100.0,,SW
2026-01-17 02:00:00,11217372,Terceira / Serra do Cume (DROTRH),38.7002,-27.1031,11.5,10.0,0.0,8,0.0,3.2,99.0,,NW
2026-01-17 02:00:00,11217430,Graciosa / Serra das Fontes (DROTRH),39.0672,-28.0038,23.0,12.5,0.0,8,0.0,6.4,86.0,,NW
2026-01-17 02:00:00,11217510,São Jorge / Pico do Areeiro (DROTRH),38.6435,-28.0591,14.0,6.8,0.0,6,0.0,3.9,100.0,,SW
2026-01-17 02:00:00,11217645,Pico / Cabecinho (DROTRH),38.4338,-28.1141,10.8,9.4,0.0,8,0.0,3.0,90.0,,NW
2026-01-17 02:00:00,11217730,Faial / Cabeço Verde (DROTRH),38.5843,-28.7576,5.0,9.7,0.0,6,0.0,1.4,92.0,,SW
2026-01-17 02:00:00,1200501,Flores (Aeródromo),39.45819,-31.1301,4.3,13.6,0.0,4,0.0,1.2,71.0,1035.7,SE
2026-01-17 02:00:00,1200502,Corvo (Aeródromo),39.67389,-31.11362,34.6,14.9,0.0,7,0.0,9.6,68.0,1034.9,W
2026-01-17 02:00:00,1200504,Pico (Aeródromo),38.55219,-28.44137,9.4,13.9,0.0,7,0.0,2.6,73.0,1035.3,W
2026-01-17 02:00:00,1200505,Horta / Aeroporto,38.5211,-28.7128,10.4,14.1,,8,0.0,2.9,68.0,1035.1,NW
2026-01-17 02:00:00,1200506,Horta (Obs. Principe Alberto),38.540781,-28.63225,14.0,12.8,0.0,7,0.0,3.9,76.0,1035.7,W
2026-01-17 02:00:00,1200510,São Jorge,38.66,-28.17,15.8,13.8,0.0,8,0.0,4.4,73.0,1034.7,NW
2026-01-17 02:00:00,1200511,Angra do Heroísmo,38.6659435,-27.216567,13.7,13.5,0.0,7,0.0,3.8,74.0,1034.4,W
2026-01-17 02:00:00,1200512,P. Delgada (Aeródromo),37.74414,-25.6953048,10.4,13.4,0.0,8,0.0,2.9,78.0,1033.8,NW
2026-01-17 02:00:00,1200515,Santa Maria (Aeródromo),36.967175,-25.1679,25.2,14.1,0.0,9,0.0,7.0,81.0,1033.9,N
2026-01-17 02:00:00,1200521,Santa Catarina (Aeródromo),32.69688,-16.77612,,15.3,0.0,0,0.0,,64.0,1024.5,
2026-01-17 02:00:00,1200522,Funchal,32.64786,-16.888,3.2,15.2,0.0,9,0.0,0.9,59.0,1024.7,N
2026-01-17 02:00:00,1200524,Porto Santo,33.074029,-16.34868,31.0,15.4,0.1,8,0.2,8.6,72.0,1023.8,NW
2026-01-17 02:00:00,1200531,Cabo Carvoeiro,39.38,-9.40737778,8.3,10.0,,7,0.0,2.3,86.0,1014.9,W
2026-01-17 02:00:00,1200533,Sagres,37.012835,-8.949089,12.6,10.1,,9,0.0,3.5,70.0,1015.6,N
2026-01-17 02:00:00,1200535,Lisboa (Geofísico),38.71907778,-9.14972222,6.1,7.7,0.0,7,0.0,1.7,100.0,1015.2,W
2026-01-17 02:00:00,1200541,Sines,37.954504,-8.838271,19.1,8.9,0.0,8,0.0,5.3,92.0,1015.3,NW
2026-01-17 02:00:00,1200545,"Porto, Pedras Rubras (Aeródromo)",41.233502,-8.681332,13.3,4.9,0.0,3,0.0,3.7,99.0,1014.1,E
2026-01-17 02:00:00,1200548,Coimbra (Aeródromo),40.15006944,-8.46669167,3.6,5.9,0.0,6,0.0,1.0,99.0,1014.5,SW
2026-01-17 02:00:00,1200551,"Viana Castelo, Chafé",41.648875,-8.804606,10.8,4.4,0.0,3,0.0,3.0,100.0,1013.8,E
2026-01-17 02:00:00,1200554,Faro (Aeródromo),37.016579,-7.971953,11.5,7.5,0.0,8,0.0,3.2,91.0,1015.1,NW
2026-01-17 02:00:00,1200558,Évora (C.Coordenação),38.53336389,-7.88338056,11.5,5.1,0.0,8,0.0,3.2,,1014.9,NW
2026-01-17 02:00:00,1200559,Viseu (Aeródromo),40.72645,-7.887472,2.9,0.7,,7,0.0,0.8,98.0,1015.4,W
2026-01-17 02:00:00,1200560,Viseu (C.Coordenação),40.71492222,-7.89592222,8.3,2.3,,7,0.1,2.3,100.0,1015.4,W
2026-01-17 02:00:00,1200562,Beja,38.02493056,-7.867275,13.7,5.0,0.0,7,0.0,3.8,100.0,1014.4,W
2026-01-17 02:00:00,1200567,Vila Real,41.27418611,-7.7171,1.1,1.5,0.0,4,0.0,0.3,100.0,1015.1,SE
2026-01-17 02:00:00,1200568,Penhas Douradas,40.41136667,-7.55865278,0.0,-1.1,0.0,0,,0.0,100.0,,
2026-01-17 02:00:00,1200570,Castelo Branco,39.83339444,-7.46678889,8.3,3.8,0.0,7,0.0,2.3,100.0,1013.5,W
2026-01-17 02:00:00,1200571,Portalegre,39.29546944,-7.41996944,14.8,2.8,0.0,8,0.0,4.1,100.0,1014.8,NW
2026-01-17 02:00:00,1200576,Bragança (Aeródromo),41.85763611,-6.70796389,,-1.3,,0,0.0,,99.0,1015.0,
2026-01-17 02:00:00,1200843,Évora (Aeródromo),38.5296,-7.8916,7.6,4.6,,7,0.0,2.1,94.0,1014.7,W
2026-01-17 02:00:00,1210513,P. Delgada (Obs. A. Chaves),37.7464,-25.662283,2.5,13.5,2.0,8,0.0,0.7,78.0,,NW
2026-01-17 02:00:00,1210517,Flores / Morro Alto,39.4633,-31.2207,46.4,6.1,,7,0.0,12.9,100.0,1032.4,W
2026-01-17 02:00:00,1210518,São Miguel - Pico Santos De Cima,37.819,-25.7512,52.2,7.2,,9,0.3,14.5,100.0,1033.5,N
2026-01-17 02:00:00,1210520,Ilhas selvagens,30.140595,-15.869153,30.2,16.1,0.0,1,0.0,8.4,74.0,1024.8,N
2026-01-17 02:00:00,1210550,Coruche / Cruz Do Leão,39.07101,-8.4,4.3,4.2,,7,0.0,1.2,100.0,1015.0,W
2026-01-17 02:00:00,1210553,Loulé / Cavalos De Caldeirão,37.3042,-7.9534,24.1,4.5,,8,0.0,6.7,98.0,1015.7,NW
2026-01-17 02:00:00,1210577,"Odemira, S.Teotónio",37.54710833,-8.72899167,6.1,7.4,0.0,8,0.1,1.7,92.0,,NW
2026-01-17 02:00:00,1210580,"Lisboa, Relógio",38.7618,-9.1254,,7.0,,0,0.0,,85.0,1015.6,
2026-01-17 02:00:00,1210604,V.N.Cerveira (Aeródromo),41.96673056,-8.66676111,1.8,5.0,0.0,7,0.0,0.5,100.0,1013.7,W
2026-01-17 02:00:00,1210605,"Monção, Valinha",42.06669,-8.383347,1.4,3.1,0.0,2,0.0,0.4,100.0,,NE
2026-01-17 02:00:00,1210606,"Lamas de Mouro, P.Ribeiro",42.03333333,-8.18333333,1.8,-0.1,0.0,1,0.0,0.5,100.0,1015.9,N
2026-01-17 02:00:00,1210611,Montalegre,41.82276667,-7.78797778,6.5,0.9,0.0,7,0.0,1.8,99.0,,W
2026-01-17 02:00:00,1210612,Vinhais,41.8434,-7.0034416,4.7,0.7,,8,0.0,1.3,98.0,,NW
2026-01-17 02:00:00,1210615,Ponte de Lima,41.75013889,-8.56671389,1.8,3.9,0.0,4,0.1,0.5,99.0,,SE
2026-01-17 02:00:00,1210616,Chaves (Aeródromo),41.72516667,-7.46540833,0.7,1.4,0.0,5,0.0,0.2,97.0,1014.6,S
2026-01-17 02:00:00,1210619,Cabril,41.71666667,-8.01666667,2.2,2.7,,3,0.0,0.6,99.0,,E
2026-01-17 02:00:00,1210622,"Braga, Merelim",41.56678056,-8.45003056,2.5,2.9,0.0,7,0.0,0.7,100.0,1014.6,W
2026-01-17 02:00:00,1210625,Guimarães,41.4289,-8.3178,,3.2,0.0,0,,,96.0,1014.6,
2026-01-17 02:00:00,1210630,Cabeceiras de Basto,41.53333333,-7.96666667,1.8,3.4,0.0,7,0.0,0.5,100.0,,W
2026-01-17 02:00:00,1210632,Mirandela,41.51478611,-7.19083889,0.7,0.4,0.0,2,0.0,0.2,94.0,,NE
2026-01-17 02:00:00,1210633,"Macedo Cavaleiros, Bagueixe",41.56666667,-6.78333333,10.4,0.3,,8,0.0,2.9,100.0,,NW
2026-01-17 02:00:00,1210635,Miranda do Douro,41.51666667,-6.28333333,1.8,2.2,,7,0.0,0.5,99.0,,W
2026-01-17 02:00:00,1210637,Mogadouro,41.33333333,-6.73333333,11.9,1.6,0.0,7,0.0,3.3,99.0,,W
2026-01-17 02:00:00,1210643,Paços Ferreira,41.27365,-8.38012,2.5,1.8,,4,0.0,0.7,100.0,,SE
2026-01-17 02:00:00,1210644,Carrazêda de Ansiães,41.23333333,-7.28333333,0.7,0.9,0.0,8,0.0,0.2,93.0,,NW
2026-01-17 02:00:00,1210654,Moncorvo,41.18333333,-7.01666667,3.2,2.4,0.0,4,0.0,0.9,89.0,1014.6,SE
2026-01-17 02:00:00,1210655,"Pinhão, Santa Bárbara",41.172775,-7.5489722,3.2,3.3,,3,0.0,0.9,97.0,,E
2026-01-17 02:00:00,1210657,Luzim,41.14585,-8.2490333,2.9,2.1,0.0,4,0.0,0.8,100.0,,SE
2026-01-17 02:00:00,1210663,Moimenta da Beira,40.98333333,-7.6,7.9,0.4,0.0,7,0.0,2.2,98.0,,W
2026-01-17 02:00:00,1210666,"Trancoso, Bandarra",40.78333333,-7.36666667,5.0,0.2,0.0,7,0.0,1.4,99.0,,W
2026-01-17 02:00:00,1210669,Arouca,40.93333333,-8.25,0.7,2.3,0.0,1,0.0,0.2,99.0,,N
2026-01-17 02:00:00,1210671,"F. Castelo Rodrigo, V.Torpim",40.75,-6.88333333,4.3,0.5,0.0,7,0.0,1.2,99.0,,W
2026-01-17 02:00:00,1210683,Guarda,40.53333333,-7.26666667,14.8,0.5,2.1,8,0.0,4.1,100.0,,NW
2026-01-17 02:00:00,1210685,Nelas,40.51666667,-7.85,0.7,3.4,0.0,4,0.0,0.2,100.0,,SE
2026-01-17 02:00:00,1210686,"Pampilhosa da Serra, Fajão",40.145653,-7.92704,10.4,1.8,,8,0.0,2.9,100.0,,NW
2026-01-17 02:00:00,1210687,Covilhã (Aeródromo),40.264309,-7.482302,0.7,3.0,0.0,6,,0.2,95.0,,SW
2026-01-17 02:00:00,1210690,Aldeia Souto (Q. Lageosa),40.35425833,-7.38931111,2.2,2.5,0.0,5,0.0,0.6,83.0,,S
2026-01-17 02:00:00,1210697,Lousã (Aeródromo),40.143922,-8.244066,1.1,3.1,,3,0.0,0.3,100.0,,E
2026-01-17 02:00:00,1210698,Fundão,40.14063611,-7.55362778,7.6,4.7,0.0,6,0.0,2.1,85.0,,SW
2026-01-17 02:00:00,1210702,Aveiro (Universidade),40.63529722,-8.65958333,6.8,5.5,0.0,5,0.0,1.9,99.0,1014.5,S
2026-01-17 02:00:00,1210704,Dunas de Mira,40.445955,-8.76168055,1.1,2.9,0.0,6,0.0,0.3,99.0,,SW
2026-01-17 02:00:00,1210705,Anadia,40.438852,-8.439996,2.2,3.2,0.0,7,0.0,0.6,97.0,,W
2026-01-17 02:00:00,1210707,"Coimbra, Bencanta",40.2134694,-8.45515277,1.1,4.1,0.0,2,0.0,0.3,100.0,,NE
2026-01-17 02:00:00,1210713,"Figueira da Foz, Vila Verde",40.139764,-8.805945,9.0,3.8,0.0,2,0.0,2.5,,,NE
2026-01-17 02:00:00,1210716,Ansião,39.9,-8.4,0.0,4.1,0.0,0,,0.0,99.0,,
2026-01-17 02:00:00,1210718,Leiria (Aeródromo),39.780553,-8.818166,5.0,4.2,0.0,3,0.0,1.4,100.0,1014.4,E
2026-01-17 02:00:00,1210724,"Tomar, Valdonas",39.6,-8.36666667,2.5,1.5,226.7,8,0.0,0.7,100.0,,NW
2026-01-17 02:00:00,1210726,Alcobaça,39.51666667,-8.96666667,0.4,5.2,0.0,4,0.0,0.1,95.0,,SE
2026-01-17 02:00:00,1210729,Rio Maior,39.35,-8.93333333,1.4,6.0,9.6,6,0.0,0.4,97.0,,SW
2026-01-17 02:00:00,1210734,"Santarém, Fonte Boa",39.201216,-8.736656,8.6,6.6,0.0,8,0.0,2.4,92.0,1014.7,NW
2026-01-17 02:00:00,1210735,Chamusca / Chouto,39.27,-8.3508,0.0,1.4,,0,0.0,0.0,100.0,1015.0,
2026-01-17 02:00:00,1210739,"Torres Vedras, Dois Portos",39.04389444,-9.179,4.7,5.8,0.0,5,0.0,1.3,99.0,,S
2026-01-17 02:00:00,1210744,Coruche,38.94096667,-8.51073611,4.0,4.8,0.0,6,0.0,1.1,,,SW
2026-01-17 02:00:00,1210746,Santa Cruz (Aeródromo),39.12594166,-9.3790388,1.8,6.4,0.0,9,1.3,0.5,95.0,1015.1,N
2026-01-17 02:00:00,1210750,Cabo da Roca,38.78171,-9.4975361,10.4,8.2,8.8,1,0.3,2.9,78.0,,N
2026-01-17 02:00:00,1210752,Sintra/Tapada do Mouco,38.781669,-9.400398,7.2,4.4,,8,0.7,2.0,100.0,,NW
2026-01-17 02:00:00,1210762,"Lisboa, Tapada da Ajuda",38.70956111,-9.182825,5.0,7.2,0.0,8,0.0,1.4,92.0,,NW
2026-01-17 02:00:00,1210765,Cabo Raso,38.70900833,-9.48538333,13.7,8.7,,8,0.6,3.8,89.0,,NW
2026-01-17 02:00:00,1210766,"Barreiro, Lavradio",38.67448611,-9.04766111,9.7,9.8,0.0,7,0.0,2.7,78.0,,W
2026-01-17 02:00:00,1210767,Pegões,38.65079,-8.63503,4.3,6.0,0.0,8,0.1,1.2,100.0,,NW
2026-01-17 02:00:00,1210770,Setúbal,38.54846008,-8.89077058,8.6,8.2,0.0,8,0.0,2.4,83.0,,NW
2026-01-17 02:00:00,1210773,"Almada, P.Rainha",38.617111,-9.212804,4.3,,0.0,1,0.1,1.2,,,N
2026-01-17 02:00:00,1210776,"Alcácer do Sal, Barrosinha",38.36666667,-8.48333333,4.7,5.2,0.0,2,0.0,1.3,98.0,,NE
2026-01-17 02:00:00,1210783,Alvalade,37.946806,-8.394504,5.8,5.0,0.0,6,0.0,1.6,97.0,,SW
2026-01-17 02:00:00,1210785,Ourique / Santana Da Serra,37.5025,-8.3019,4.3,6.0,0.0,6,0.0,1.2,93.0,1015.6,SW
2026-01-17 02:00:00,1210789,Aljezur,37.31675278,-8.80001667,0.4,4.9,0.0,9,0.0,0.1,98.0,,N
2026-01-17 02:00:00,1210790,Fóia,37.3143,-8.595733,40.3,2.9,0.0,9,0.0,11.2,,,N
2026-01-17 02:00:00,1210800,"Sabugal, Martim Rei",40.33918056,-7.03693333,9.0,0.5,0.0,9,0.0,2.5,99.0,,N
2026-01-17 02:00:00,1210803,Zebreira,39.86666667,-7.01666667,8.3,3.3,0.0,7,0.0,2.3,95.0,,W
2026-01-17 02:00:00,1210806,"Proença-a-Nova, P.Moitas",39.73333333,-7.86666667,5.4,4.1,0.0,6,0.0,1.5,92.0,,SW
2026-01-17 02:00:00,1210812,Alvega,39.46666667,-8.05,1.4,3.6,,5,0.1,0.4,100.0,,S
2026-01-17 02:00:00,1210824,"Avis, Benavila",39.1,-7.86666667,8.3,5.4,0.0,7,0.1,2.3,99.0,,W
2026-01-17 02:00:00,1210826,Mora,38.94068,-8.16406,5.8,5.3,0.0,6,0.0,1.6,97.0,,SW
2026-01-17 02:00:00,1210835,Elvas,38.8908,-7.13976111,10.8,5.5,0.0,8,0.0,3.0,95.0,,NW
2026-01-17 02:00:00,1210837,Estremoz,38.86666667,-7.51666667,6.5,4.0,0.0,7,0.0,1.8,100.0,,W
2026-01-17 02:00:00,1210846,Montemor-O-Novo,38.6451,-8.1991,6.1,4.8,,7,0.1,1.7,100.0,1016.1,W
2026-01-17 02:00:00,1210847,Viana do Alentejo,38.3319194,-8.04553888,7.2,5.1,0.0,8,,2.0,,,NW
2026-01-17 02:00:00,1210848,"Portel, Oriola",38.31666667,-7.86666667,5.8,4.9,,7,0.0,1.6,98.0,,W
2026-01-17 02:00:00,1210851,Amareleja,38.2007,-7.2261,0.7,,0.0,9,0.1,0.2,,1013.4,N
2026-01-17 02:00:00,1210863,"Mértola, Vale Formoso",37.75,-7.55,4.7,5.4,0.0,8,0.0,1.3,97.0,,NW
2026-01-17 02:00:00,1210864,"Castro Verde, N.Corvo",37.57655833,-7.97211389,8.3,5.5,0.0,7,0.0,2.3,99.0,,W
2026-01-17 02:00:00,1210865,"Alcoutim, Mart.Longo",37.43333333,-7.76666667,10.1,5.5,,7,0.0,2.8,95.0,1015.3,W
2026-01-17 02:00:00,1210866,Vila Real de S.António,37.1871055,-7.416325,,5.2,,0,0.0,,91.0,,
2026-01-17 02:00:00,1210867,Castro Marim (RN Sapal),37.21666667,-7.45,8.6,7.1,0.0,8,0.0,2.4,92.0,,NW
2026-01-17 02:00:00,1210874,Albufeira,37.0935,-8.262,11.2,7.4,,8,0.0,3.1,89.0,,NW
2026-01-17 02:00:00,1210878,Portimão (Aeródromo),37.149167,-8.581389,2.5,4.9,0.0,5,0.0,0.7,97.0,1015.5,S
2026-01-17 02:00:00,1210881,"Olhão, EPPO",37.033,-7.821,3.6,7.4,0.0,7,,1.0,92.0,1015.6,W
2026-01-17 02:00:00,1210883,Tavira,37.12166968,-7.62050375,4.3,6.3,,8,0.0,1.2,94.0,1016.0,NW
2026-01-17 02:00:00,1210907,Faja / Ilha das Flores,39.45328,-31.2647,,14.7,,0,,,67.0,1036.4,
2026-01-17 02:00:00,1210932,"S. Miguel, Nordeste",37.83256,-25.150108,17.6,12.5,,8,0.0,4.9,89.0,,NW
2026-01-17 02:00:00,1210956,"Madeira, Porto Moniz",32.867477,-17.171373,,16.8,5.1,0,0.1,,69.0,,
2026-01-17 02:00:00,1210960,"Madeira, S. Jorge, Santana",32.83446944,-16.906219,32.4,13.6,0.0,8,0.0,9.0,79.0,1024.3,NW
2026-01-17 02:00:00,1210965,"Madeira, Santana",32.808238,-16.8864166,,11.5,27.2,0,0.0,,85.0,,
2026-01-17 02:00:00,1210967,"Madeira, São Vicente",32.8001833,-17.044722,,15.0,0.0,0,0.0,,75.0,,
2026-01-17 02:00:00,1210972,"Madeira, Pico Alto",32.693491,-16.903955,3.6,6.5,0.0,3,,1.0,,,E
2026-01-17 02:00:00,1210973,"Madeira, Areeiro",32.71666667,-16.91666667,15.8,3.4,6.5,1,0.0,4.4,100.0,,N
2026-01-17 02:00:00,1210974,"Madeira, Pico do Areeiro",32.735107,-16.928271,,1.6,,0,0.1,,100.0,,
2026-01-17 02:00:00,1210975,"Madeira, Santo da Serra",32.7258972,-16.816822,,9.2,0.0,0,0.0,,91.0,,
2026-01-17 02:00:00,1210976,"Madeira, Monte",32.675833,-16.906944,1.8,10.7,0.7,2,0.0,0.5,76.0,,NE
2026-01-17 02:00:00,1210977,"Madeira, Cancela",32.64500556,-16.86575,4.7,12.8,0.0,2,0.0,1.3,76.0,,NE
2026-01-17 02:00:00,1210978,"Madeira, S. Lourenço",32.747,-16.706,10.8,15.4,0.0,7,0.0,3.0,75.0,,W
2026-01-17 02:00:00,1210984,"Madeira, Quinta Grande",32.6629722,-17.01503611,,11.2,0.0,0,0.0,,70.0,,
2026-01-17 02:00:00,1210986,Ponta do Sol/Lugar de Baixo,32.681502,-17.104167,8.6,16.0,0.0,6,0.0,2.4,65.0,,SW
2026-01-17 02:00:00,1210987,Prazeres (Calheta),32.757205,-17.201551,27.7,10.4,0.3,8,0.0,7.7,92.0,,NW
2026-01-17 02:00:00,1240546,"Porto, Serra do Pilar",41.1385194,-8.6025,14.4,5.0,2251.0,4,0.0,4.0,100.0,1013.8,SE
2026-01-17 02:00:00,1240566,Vila Real (Cidade),41.30898056,-7.740522,4.0,1.8,,3,0.0,1.1,100.0,,E
2026-01-17 02:00:00,1240610,Viana do Castelo,41.695,-8.82916,,5.9,,0,0.0,,99.0,,
2026-01-17 02:00:00,1240675,Viseu (Cidade),40.662738,-7.9039694,,1.0,,0,0.0,,99.0,,
2026-01-17 02:00:00,1240903,"Porto, Massarelos",41.15257,-8.62598,,5.6,,0,,,100.0,,
2026-01-17 02:00:00,1240971,"Madeira, Funchal, Lido",32.63655,-16.935592,0.0,15.4,0.0,0,0.0,0.0,64.0,,
2026-01-17 02:00:00,1259204,Seia/Senhora do Espinheiro,40.412775,-7.673406,2.2,0.8,,1,0.0,0.6,97.0,1015.2,N
2026-01-17 02:00:00,5210758,Alcochete / Campo Tiro,38.7627,-8.7825,5.4,6.0,,7,0.0,1.5,99.0,1014.6,W
2026-01-17 02:00:00,6210817,Ponte de Sôr / Aeródromo,39.21536,-8.05417,3.2,3.1,,5,,0.9,98.0,1014.7,S
2026-01-17 02:00:00,6210872,Loulé (CML),37.129946,-8.06523593,6.5,5.2,,8,,1.8,,1015.5,NW
2026-01-17 02:00:00,6210879,Portimão (Praia da Rocha),37.11670461,-8.52946314,5.4,8.4,,8,0.0,1.5,89.0,,NW
2026-01-17 02:00:00,6211211,Monção - Guimil (CIM),42.042944,-8.421872,4.3,,0.4,5,,1.2,,1011.9,S
2026-01-17 02:00:00,6211213,Paredes De Coura - Vascões (CIM),41.913444,-8.492111,2.5,2.1,2.4,2,,0.7,100.0,1014.1,NE
2026-01-17 02:00:00,6211216,Arcos De Valdevez - Heliporto (CIM),41.831,-8.44375,2.5,3.0,,2,0.0,0.7,99.0,1014.6,NE
2026-01-17 02:00:00,6211217,Viana Do Castelo - Fonte Louçã (CIM),41.745722,-8.815306,,,0.0,0,0.1,,,1010.9,
2026-01-17 02:00:00,6211218,Ponte De Lima - Anais (CIM),41.698083,-8.522444,5.8,3.1,2.8,3,,1.6,96.0,1014.0,E
2026-01-17 02:00:00,6212121,Terras de Bouro/Barral (CIM),41.70225278,-8.31808611,1.8,3.6,,5,0.1,0.5,95.0,1012.0,S
2026-01-17 02:00:00,6212122,Amares Caldelas (CIM),41.66796389,-8.37977778,2.2,2.9,,7,0.0,0.6,95.0,1014.3,W
2026-01-17 02:00:00,6212123,Vila Verde (CIM),41.64686111,-8.43398056,1.1,3.1,,1,,0.3,91.0,1014.0,N
2026-01-17 02:00:00,6212124,Braga (CIM),41.53568333,-8.42514722,4.0,4.2,,3,0.1,1.1,98.0,1014.3,E
2026-01-17 02:00:00,6212125,Barcelos (CIM),41.529375,-8.62705278,4.3,4.7,0.0,3,0.0,1.2,97.0,1015.2,E
2026-01-17 02:00:00,6212126,Esposende (CIM),41.52645556,-8.77984444,10.1,5.3,,3,0.0,2.8,98.0,1014.4,E
2026-01-17 02:00:00,6213012,Carregal do Sal (CIM),40.46718056,-7.92626389,3.6,3.7,,5,,1.0,99.0,,S
2026-01-17 02:00:00,6213013,Castro Daire / Mézio (CIM),40.98086111,-7.88318889,6.8,1.0,,2,,1.9,98.0,,NE
2026-01-17 02:00:00,6213014,Mangualde / Chãs de Tavares  (CIM),40.61096111,-7.60838889,5.8,0.8,,7,0.0,1.6,100.0,,W
2026-01-17 02:00:00,6213016,Oliveira de Frades (CIM),40.716925,-8.20133889,5.4,3.5,,4,,1.5,87.0,,SE
2026-01-17 02:00:00,6213017,Penalva do Castelo (CIM),40.65706389,-7.69655278,2.9,2.2,,5,0.0,0.8,100.0,,S
2026-01-17 02:00:00,6213020,Satão (CIM),40.76072778,-7.72019722,5.8,1.3,,7,0.0,1.6,100.0,,W
2026-01-17 02:00:00,6213022,Vila Nova de Paiva (CIM),40.85595,-7.72716389,3.6,0.4,,7,0.0,1.0,,,W
2026-01-17 02:00:00,6213611,Arganil / Aeródromo (CIM),40.274578,-7.974399,2.5,3.0,,2,0.0,0.7,100.0,,NE
2026-01-17 02:00:00,6213612,Cantanhede / Fonte Dom Pedro (CIM),40.341894,-8.577613,5.0,2.6,,5,0.1,1.4,96.0,,S
2026-01-17 02:00:00,6213613,Coimbra / Mata de São Pedro (CIM),40.330787,-8.374887,3.6,3.7,,3,,1.0,100.0,,E
2026-01-17 02:00:00,6213615,Mealhada / Quinta do Vale (CIM),40.373343,-8.4388429,1.8,2.0,,3,0.0,0.5,99.0,,E
2026-01-17 02:00:00,6213616,Mortágua / Aeródromo (CIM),40.426239,-8.232142,4.3,3.1,,2,0.1,1.2,100.0,,NE
2026-01-17 02:00:00,6213617,Penacova / Hombres (CIM),40.280921,-8.198685,4.7,,,5,0.1,1.3,100.0,,S
2026-01-17 02:00:00,6213619,Vila Nova de Poiares (CIM),40.211411,-8.241995,2.9,3.6,,2,0.0,0.8,96.0,,NE
2026-01-17 02:00:00,6213620,Oliveira do Hospital (CIM),40.413306,-7.867972,1.8,2.7,,5,0.0,0.5,99.0,,S
2026-01-17 02:00:00,6215302,"Lisboa, Carnide (CML)",38.7751,-9.1855,6.8,7.2,,7,0.1,1.9,92.0,1014.8,W
2026-01-17 02:00:00,6215360,Oeiras / Vila Fria (CMO),38.7239536,-9.2939255,11.5,7.2,0.0,8,0.5,3.2,93.0,1016.0,NW
2026-01-17 02:00:00,7240919,"Lisboa, Amoreiras (LFCL)",38.7239,-9.1649,2.5,6.5,,9,0.0,0.7,100.0,1015.9,N
2026-01-17 03:00:00,11217160,Santa Maria / Praia Formosa (DROTRH),36.9542,-25.0917,19.8,12.8,0.6,3,0.1,5.5,92.0,,E
2026-01-17 03:00:00,11217165,Santa Maria / Maia (DROTRH),36.9412,-25.0176,20.2,12.8,0.0,7,0.0,5.6,86.0,,W
2026-01-17 03:00:00,11217217,São Miguel / Santana (DROTRH),37.8049,-25.5618,9.0,13.5,0.0,7,0.0,2.5,85.0,,W
2026-01-17 03:00:00,11217225,São Miguel / Sete Cidades (DROTRH),37.8679,-25.772,13.0,12.3,1.7,8,0.0,3.6,85.0,,NW
2026-01-17 03:00:00,11217255,São Miguel / Lagoa das Furnas (DROTRH),37.7619,-25.3291,12.6,11.3,1.5,5,0.3,3.5,91.0,,S
2026-01-17 03:00:00,11217370,Terceira / Ribeira das Nove (DROTRH),38.754,-27.3245,5.8,8.0,0.0,6,0.0,1.6,100.0,,SW
2026-01-17 03:00:00,11217372,Terceira / Serra do Cume (DROTRH),38.7002,-27.1031,14.4,10.2,0.0,8,0.0,4.0,99.0,,NW
2026-01-17 03:00:00,11217430,Graciosa / Serra das Fontes (DROTRH),39.0672,-28.0038,27.7,12.3,0.0,8,0.0,7.7,86.0,,NW
2026-01-17 03:00:00,11217510,São Jorge / Pico do Areeiro (DROTRH),38.6435,-28.0591,19.1,6.6,0.0,6,0.0,5.3,100.0,,SW
2026-01-17 03:00:00,11217645,Pico / Cabecinho (DROTRH),38.4338,-28.1141,14.8,9.3,0.0,8,0.0,4.1,89.0,,NW
2026-01-17 03:00:00,11217730,Faial / Cabeço Verde (DROTRH),38.5843,-28.7576,4.3,9.7,0.0,7,0.0,1.2,92.0,,W
2026-01-17 03:00:00,1200501,Flores (Aeródromo),39.45819,-31.1301,5.4,13.9,0.0,8,0.0,1.5,70.0,1035.4,NW
2026-01-17 03:00:00,1200502,Corvo (Aeródromo),39.67389,-31.11362,36.4,15.0,0.0,7,0.0,10.1,69.0,1034.5,W
2026-01-17 03:00:00,1200504,Pico (Aeródromo),38.55219,-28.44137,11.5,13.7,0.0,7,0.0,3.2,73.0,1034.8,W
2026-01-17 03:00:00,1200505,Horta / Aeroporto,38.5211,-28.7128,13.0,14.1,,7,0.0,3.6,67.0,1034.6,W
2026-01-17 03:00:00,1200506,Horta (Obs. Principe Alberto),38.540781,-28.63225,14.4,12.4,0.0,7,0.0,4.0,78.0,1035.2,W
2026-01-17 03:00:00,1200510,São Jorge,38.66,-28.17,15.1,13.8,0.0,8,0.0,4.2,71.0,1034.3,NW
2026-01-17 03:00:00,1200511,Angra do Heroísmo,38.6659435,-27.216567,14.0,13.7,0.0,7,0.0,3.9,74.0,1033.9,W
2026-01-17 03:00:00,1200512,P. Delgada (Aeródromo),37.74414,-25.6953048,15.5,13.4,0.0,8,0.0,4.3,76.0,1033.3,NW
2026-01-17 03:00:00,1200515,Santa Maria (Aeródromo),36.967175,-25.1679,28.1,13.4,2.8,9,0.0,7.8,86.0,1033.4,N
2026-01-17 03:00:00,1200521,Santa Catarina (Aeródromo),32.69688,-16.77612,,15.6,0.0,0,0.0,,64.0,1023.8,
2026-01-17 03:00:00,1200522,Funchal,32.64786,-16.888,5.8,15.4,0.0,2,0.0,1.6,61.0,1024.0,NE
2026-01-17 03:00:00,1200524,Porto Santo,33.074029,-16.34868,32.8,14.1,0.8,8,2.1,9.1,83.0,1023.3,NW
2026-01-17 03:00:00,1200531,Cabo Carvoeiro,39.38,-9.40737778,23.0,10.4,,8,0.2,6.4,83.0,1014.7,NW
2026-01-17 03:00:00,1200533,Sagres,37.012835,-8.949089,12.2,8.9,,8,1.4,3.4,77.0,1015.7,NW
2026-01-17 03:00:00,1200535,Lisboa (Geofísico),38.71907778,-9.14972222,6.1,7.6,0.0,6,0.0,1.7,100.0,1014.8,SW
2026-01-17 03:00:00,1200541,Sines,37.954504,-8.838271,14.0,8.8,0.0,8,0.0,3.9,90.0,1015.1,NW
2026-01-17 03:00:00,1200545,"Porto, Pedras Rubras (Aeródromo)",41.233502,-8.681332,18.0,4.8,0.0,3,0.0,5.0,100.0,1013.8,E
2026-01-17 03:00:00,1200548,Coimbra (Aeródromo),40.15006944,-8.46669167,5.4,5.2,0.0,5,0.0,1.5,100.0,1014.6,S
2026-01-17 03:00:00,1200551,"Viana Castelo, Chafé",41.648875,-8.804606,12.6,4.4,0.0,3,0.0,3.5,100.0,1013.6,E
2026-01-17 03:00:00,1200554,Faro (Aeródromo),37.016579,-7.971953,7.6,7.0,0.0,8,0.0,2.1,91.0,1015.3,NW
2026-01-17 03:00:00,1200558,Évora (C.Coordenação),38.53336389,-7.88338056,4.0,4.0,0.0,7,0.0,1.1,,1015.0,W
2026-01-17 03:00:00,1200559,Viseu (Aeródromo),40.72645,-7.887472,4.0,0.7,,6,0.0,1.1,98.0,1015.4,SW
2026-01-17 03:00:00,1200560,Viseu (C.Coordenação),40.71492222,-7.89592222,4.0,1.9,,6,0.0,1.1,100.0,1015.5,SW
2026-01-17 03:00:00,1200562,Beja,38.02493056,-7.867275,16.6,5.1,0.0,7,0.0,4.6,100.0,1014.4,W
2026-01-17 03:00:00,1200567,Vila Real,41.27418611,-7.7171,2.5,1.3,0.0,4,0.0,0.7,100.0,1015.1,SE
2026-01-17 03:00:00,1200568,Penhas Douradas,40.41136667,-7.55865278,0.0,-1.2,0.0,0,,0.0,100.0,,
2026-01-17 03:00:00,1200570,Castelo Branco,39.83339444,-7.46678889,10.1,3.2,0.0,7,0.0,2.8,100.0,1013.5,W
2026-01-17 03:00:00,1200571,Portalegre,39.29546944,-7.41996944,12.6,3.4,0.0,8,0.1,3.5,100.0,1014.5,NW
2026-01-17 03:00:00,1200576,Bragança (Aeródromo),41.85763611,-6.70796389,,-1.7,,0,0.0,,99.0,1015.0,
2026-01-17 03:00:00,1200843,Évora (Aeródromo),38.5296,-7.8916,2.9,4.2,,7,0.0,0.8,95.0,1014.6,W
2026-01-17 03:00:00,1210513,P. Delgada (Obs. A. Chaves),37.7464,-25.662283,2.9,13.3,1.7,9,0.0,0.8,77.0,,N
2026-01-17 03:00:00,1210517,Flores / Morro Alto,39.4633,-31.2207,47.2,,,7,0.0,13.1,,1031.4,W
2026-01-17 03:00:00,1210518,São Miguel - Pico Santos De Cima,37.819,-25.7512,54.0,6.9,,9,0.0,15.0,100.0,1033.0,N
2026-01-17 03:00:00,1210520,Ilhas selvagens,30.140595,-15.869153,27.0,16.1,1.1,1,0.0,7.5,72.0,1024.3,N
2026-01-17 03:00:00,1210550,Coruche / Cruz Do Leão,39.07101,-8.4,5.8,3.8,,7,0.0,1.6,100.0,1014.7,W
2026-01-17 03:00:00,1210553,Loulé / Cavalos De Caldeirão,37.3042,-7.9534,24.1,4.1,,8,0.0,6.7,95.0,1015.7,NW
2026-01-17 03:00:00,1210577,"Odemira, S.Teotónio",37.54710833,-8.72899167,9.4,6.9,0.0,8,0.0,2.6,93.0,,NW
2026-01-17 03:00:00,1210580,"Lisboa, Relógio",38.7618,-9.1254,,7.1,,0,0.0,,82.0,1015.3,
2026-01-17 03:00:00,1210604,V.N.Cerveira (Aeródromo),41.96673056,-8.66676111,6.5,4.9,0.0,1,0.4,1.8,100.0,1014.2,N
2026-01-17 03:00:00,1210605,"Monção, Valinha",42.06669,-8.383347,1.8,3.4,0.0,2,0.0,0.5,100.0,,NE
2026-01-17 03:00:00,1210606,"Lamas de Mouro, P.Ribeiro",42.03333333,-8.18333333,2.9,0.0,0.0,3,0.0,0.8,100.0,1015.8,E
2026-01-17 03:00:00,1210611,Montalegre,41.82276667,-7.78797778,9.4,0.7,0.0,7,0.0,2.6,99.0,,W
2026-01-17 03:00:00,1210612,Vinhais,41.8434,-7.0034416,8.3,0.2,,8,0.0,2.3,100.0,,NW
2026-01-17 03:00:00,1210615,Ponte de Lima,41.75013889,-8.56671389,2.5,4.2,0.0,3,0.0,0.7,99.0,,E
2026-01-17 03:00:00,1210616,Chaves (Aeródromo),41.72516667,-7.46540833,1.8,1.7,0.0,5,0.0,0.5,97.0,1014.5,S
2026-01-17 03:00:00,1210619,Cabril,41.71666667,-8.01666667,1.4,2.6,,4,0.0,0.4,99.0,,SE
2026-01-17 03:00:00,1210622,"Braga, Merelim",41.56678056,-8.45003056,1.4,2.8,0.0,1,0.1,0.4,100.0,1014.6,N
2026-01-17 03:00:00,1210625,Guimarães,41.4289,-8.3178,,2.9,0.0,0,,,96.0,1014.5,
2026-01-17 03:00:00,1210630,Cabeceiras de Basto,41.53333333,-7.96666667,1.8,3.7,0.0,3,0.0,0.5,100.0,,E
2026-01-17 03:00:00,1210632,Mirandela,41.51478611,-7.19083889,0.0,-0.4,0.0,0,0.0,0.0,96.0,,
2026-01-17 03:00:00,1210633,"Macedo Cavaleiros, Bagueixe",41.56666667,-6.78333333,10.8,0.1,,8,0.1,3.0,100.0,,NW
2026-01-17 03:00:00,1210635,Miranda do Douro,41.51666667,-6.28333333,0.7,1.6,,7,0.0,0.2,99.0,,W
2026-01-17 03:00:00,1210637,Mogadouro,41.33333333,-6.73333333,10.1,1.1,0.0,7,0.1,2.8,99.0,,W
2026-01-17 03:00:00,1210643,Paços Ferreira,41.27365,-8.38012,4.0,1.6,,3,0.0,1.1,100.0,,E
2026-01-17 03:00:00,1210644,Carrazêda de Ansiães,41.23333333,-7.28333333,1.4,0.5,0.0,8,0.0,0.4,93.0,,NW
2026-01-17 03:00:00,1210654,Moncorvo,41.18333333,-7.01666667,1.1,2.0,0.0,4,0.1,0.3,89.0,1014.6,SE
2026-01-17 03:00:00,1210655,"Pinhão, Santa Bárbara",41.172775,-7.5489722,3.2,3.8,,5,0.0,0.9,97.0,,S
2026-01-17 03:00:00,1210657,Luzim,41.14585,-8.2490333,1.1,1.4,0.0,9,0.1,0.3,100.0,,N
2026-01-17 03:00:00,1210663,Moimenta da Beira,40.98333333,-7.6,5.0,0.3,0.0,7,0.0,1.4,97.0,,W
2026-01-17 03:00:00,1210666,"Trancoso, Bandarra",40.78333333,-7.36666667,9.0,0.3,0.0,7,0.0,2.5,99.0,,W
2026-01-17 03:00:00,1210669,Arouca,40.93333333,-8.25,1.4,1.6,0.0,5,0.1,0.4,99.0,,S
2026-01-17 03:00:00,1210671,"F. Castelo Rodrigo, V.Torpim",40.75,-6.88333333,4.7,0.3,0.0,6,0.0,1.3,99.0,,SW
2026-01-17 03:00:00,1210683,Guarda,40.53333333,-7.26666667,18.0,0.3,1.8,8,0.0,5.0,100.0,,NW
2026-01-17 03:00:00,1210685,Nelas,40.51666667,-7.85,1.1,3.0,0.0,6,0.0,0.3,100.0,,SW
2026-01-17 03:00:00,1210686,"Pampilhosa da Serra, Fajão",40.145653,-7.92704,15.1,1.5,,8,0.0,4.2,100.0,,NW
2026-01-17 03:00:00,1210687,Covilhã (Aeródromo),40.264309,-7.482302,3.6,1.9,0.0,5,,1.0,98.0,,S
2026-01-17 03:00:00,1210690,Aldeia Souto (Q. Lageosa),40.35425833,-7.38931111,1.8,2.1,0.0,8,0.0,0.5,86.0,,NW
2026-01-17 03:00:00,1210697,Lousã (Aeródromo),40.143922,-8.244066,1.4,3.0,,6,0.0,0.4,100.0,,SW
2026-01-17 03:00:00,1210698,Fundão,40.14063611,-7.55362778,11.5,4.6,0.0,7,0.0,3.2,83.0,,W
2026-01-17 03:00:00,1210702,Aveiro (Universidade),40.63529722,-8.65958333,6.5,5.4,0.0,4,0.1,1.8,99.0,1014.4,SE
2026-01-17 03:00:00,1210704,Dunas de Mira,40.445955,-8.76168055,2.5,3.7,0.7,6,0.9,0.7,100.0,,SW
2026-01-17 03:00:00,1210705,Anadia,40.438852,-8.439996,1.4,3.4,0.0,3,0.0,0.4,97.0,,E
2026-01-17 03:00:00,1210707,"Coimbra, Bencanta",40.2134694,-8.45515277,7.2,3.6,0.0,4,0.0,2.0,100.0,,SE
2026-01-17 03:00:00,1210713,"Figueira da Foz, Vila Verde",40.139764,-8.805945,6.8,3.9,0.0,2,0.0,1.9,,,NE
2026-01-17 03:00:00,1210716,Ansião,39.9,-8.4,2.5,3.8,0.0,6,,0.7,99.0,,SW
2026-01-17 03:00:00,1210718,Leiria (Aeródromo),39.780553,-8.818166,4.7,3.6,1.1,3,0.0,1.3,100.0,1014.5,E
2026-01-17 03:00:00,1210724,"Tomar, Valdonas",39.6,-8.36666667,1.4,1.1,242.9,5,0.0,0.4,100.0,,S
2026-01-17 03:00:00,1210726,Alcobaça,39.51666667,-8.96666667,1.1,4.2,0.0,3,0.0,0.3,95.0,,E
2026-01-17 03:00:00,1210729,Rio Maior,39.35,-8.93333333,2.5,4.6,9.1,5,0.0,0.7,98.0,,S
2026-01-17 03:00:00,1210734,"Santarém, Fonte Boa",39.201216,-8.736656,11.9,6.2,0.0,8,0.0,3.3,93.0,1014.7,NW
2026-01-17 03:00:00,1210735,Chamusca / Chouto,39.27,-8.3508,4.0,0.7,,9,0.0,1.1,100.0,1014.8,N
2026-01-17 03:00:00,1210739,"Torres Vedras, Dois Portos",39.04389444,-9.179,0.4,5.2,0.0,8,0.0,0.1,99.0,,NW
2026-01-17 03:00:00,1210744,Coruche,38.94096667,-8.51073611,6.5,3.8,0.0,6,0.0,1.8,,,SW
2026-01-17 03:00:00,1210746,Santa Cruz (Aeródromo),39.12594166,-9.3790388,3.6,5.3,0.0,6,0.1,1.0,96.0,1014.7,SW
2026-01-17 03:00:00,1210750,Cabo da Roca,38.78171,-9.4975361,2.5,8.2,0.6,8,0.0,0.7,82.0,,NW
2026-01-17 03:00:00,1210752,Sintra/Tapada do Mouco,38.781669,-9.400398,5.0,3.7,,8,0.0,1.4,100.0,,NW
2026-01-17 03:00:00,1210762,"Lisboa, Tapada da Ajuda",38.70956111,-9.182825,7.9,6.9,0.0,7,0.0,2.2,90.0,,W
2026-01-17 03:00:00,1210765,Cabo Raso,38.70900833,-9.48538333,10.1,10.4,,7,0.0,2.8,85.0,,W
2026-01-17 03:00:00,1210766,"Barreiro, Lavradio",38.67448611,-9.04766111,9.0,9.6,0.0,7,0.0,2.5,81.0,,W
2026-01-17 03:00:00,1210767,Pegões,38.65079,-8.63503,4.3,5.1,0.0,8,0.0,1.2,100.0,,NW
2026-01-17 03:00:00,1210770,Setúbal,38.54846008,-8.89077058,9.4,7.3,0.0,8,0.0,2.6,84.0,,NW
2026-01-17 03:00:00,1210773,"Almada, P.Rainha",38.617111,-9.212804,3.2,,0.0,3,0.0,0.9,,,E
2026-01-17 03:00:00,1210776,"Alcácer do Sal, Barrosinha",38.36666667,-8.48333333,5.4,4.4,0.0,5,0.0,1.5,99.0,,S
2026-01-17 03:00:00,1210783,Alvalade,37.946806,-8.394504,8.6,4.4,0.0,6,0.1,2.4,98.0,,SW
2026-01-17 03:00:00,1210785,Ourique / Santana Da Serra,37.5025,-8.3019,0.0,5.4,0.0,0,0.0,0.0,94.0,1015.5,
2026-01-17 03:00:00,1210789,Aljezur,37.31675278,-8.80001667,1.1,4.5,0.0,2,0.0,0.3,99.0,,NE
2026-01-17 03:00:00,1210790,Fóia,37.3143,-8.595733,36.0,3.1,0.0,8,0.0,10.0,,,NW
2026-01-17 03:00:00,1210800,"Sabugal, Martim Rei",40.33918056,-7.03693333,6.5,0.5,0.0,9,0.0,1.8,99.0,,N
2026-01-17 03:00:00,1210803,Zebreira,39.86666667,-7.01666667,7.6,3.1,0.0,7,0.0,2.1,96.0,,W
2026-01-17 03:00:00,1210806,"Proença-a-Nova, P.Moitas",39.73333333,-7.86666667,10.1,4.3,0.0,8,0.0,2.8,93.0,,NW
2026-01-17 03:00:00,1210812,Alvega,39.46666667,-8.05,1.8,3.5,,4,0.0,0.5,100.0,,SE
2026-01-17 03:00:00,1210824,"Avis, Benavila",39.1,-7.86666667,3.6,4.9,0.0,6,0.0,1.0,99.0,,SW
2026-01-17 03:00:00,1210826,Mora,38.94068,-8.16406,5.4,5.0,0.0,6,0.0,1.5,97.0,,SW
2026-01-17 03:00:00,1210835,Elvas,38.8908,-7.13976111,13.7,5.1,0.0,8,0.0,3.8,95.0,,NW
2026-01-17 03:00:00,1210837,Estremoz,38.86666667,-7.51666667,10.4,3.9,0.0,7,0.1,2.9,100.0,,W
2026-01-17 03:00:00,1210846,Montemor-O-Novo,38.6451,-8.1991,6.1,4.2,,7,0.0,1.7,100.0,1015.8,W
2026-01-17 03:00:00,1210847,Viana do Alentejo,38.3319194,-8.04553888,5.8,5.0,0.0,8,,1.6,,,NW
2026-01-17 03:00:00,1210848,"Portel, Oriola",38.31666667,-7.86666667,3.2,4.9,,7,0.1,0.9,99.0,,W
2026-01-17 03:00:00,1210851,Amareleja,38.2007,-7.2261,4.7,,0.0,3,0.0,1.3,,1013.4,E
2026-01-17 03:00:00,1210863,"Mértola, Vale Formoso",37.75,-7.55,8.3,4.7,0.0,8,0.0,2.3,98.0,,NW
2026-01-17 03:00:00,1210864,"Castro Verde, N.Corvo",37.57655833,-7.97211389,7.2,5.2,0.0,7,0.0,2.0,99.0,,W
2026-01-17 03:00:00,1210865,"Alcoutim, Mart.Longo",37.43333333,-7.76666667,9.4,4.7,,7,0.0,2.6,96.0,1015.4,W
2026-01-17 03:00:00,1210866,Vila Real de S.António,37.1871055,-7.416325,,4.4,,0,0.1,,92.0,,
2026-01-17 03:00:00,1210867,Castro Marim (RN Sapal),37.21666667,-7.45,4.7,6.4,0.0,1,0.0,1.3,95.0,,N
2026-01-17 03:00:00,1210874,Albufeira,37.0935,-8.262,11.9,7.2,,7,0.0,3.3,89.0,,W
2026-01-17 03:00:00,1210878,Portimão (Aeródromo),37.149167,-8.581389,1.4,4.4,0.0,8,0.0,0.4,98.0,1015.5,NW
2026-01-17 03:00:00,1210881,"Olhão, EPPO",37.033,-7.821,5.4,7.1,0.0,7,,1.5,94.0,1015.9,W
2026-01-17 03:00:00,1210883,Tavira,37.12166968,-7.62050375,6.1,6.1,,8,0.1,1.7,95.0,1016.1,NW
2026-01-17 03:00:00,1210907,Faja / Ilha das Flores,39.45328,-31.2647,,14.8,,0,,,68.0,1036.0,
2026-01-17 03:00:00,1210932,"S. Miguel, Nordeste",37.83256,-25.150108,16.2,12.4,,8,0.1,4.5,90.0,,NW
2026-01-17 03:00:00,1210956,"Madeira, Porto Moniz",32.867477,-17.171373,,15.0,6.3,0,1.4,,79.0,,
2026-01-17 03:00:00,1210960,"Madeira, S. Jorge, Santana",32.83446944,-16.906219,25.2,12.9,32.9,7,0.0,7.0,89.0,1023.6,W
2026-01-17 03:00:00,1210965,"Madeira, Santana",32.808238,-16.8864166,,11.3,27.0,0,0.6,,94.0,,
2026-01-17 03:00:00,1210967,"Madeira, São Vicente",32.8001833,-17.044722,,14.4,0.0,0,0.2,,83.0,,
2026-01-17 03:00:00,1210972,"Madeira, Pico Alto",32.693491,-16.903955,15.8,6.4,0.0,2,,4.4,,,NE
2026-01-17 03:00:00,1210973,"Madeira, Areeiro",32.71666667,-16.91666667,12.6,4.2,8.2,2,1.2,3.5,99.0,,NE
2026-01-17 03:00:00,1210974,"Madeira, Pico do Areeiro",32.735107,-16.928271,,2.5,,0,1.3,,100.0,,
2026-01-17 03:00:00,1210975,"Madeira, Santo da Serra",32.7258972,-16.816822,,9.6,0.0,0,0.2,,94.0,,
2026-01-17 03:00:00,1210976,"Madeira, Monte",32.675833,-16.906944,5.0,10.6,0.8,2,0.4,1.4,82.0,,NE
2026-01-17 03:00:00,1210977,"Madeira, Cancela",32.64500556,-16.86575,6.5,13.7,0.2,3,0.0,1.8,74.0,,E
2026-01-17 03:00:00,1210978,"Madeira, S. Lourenço",32.747,-16.706,17.3,14.6,0.2,2,0.2,4.8,84.0,,NE
2026-01-17 03:00:00,1210984,"Madeira, Quinta Grande",32.6629722,-17.01503611,,11.6,1.0,0,0.0,,68.0,,
2026-01-17 03:00:00,1210986,Ponta do Sol/Lugar de Baixo,32.681502,-17.104167,5.8,15.2,0.0,4,0.0,1.6,70.0,,SE
2026-01-17 03:00:00,1210987,Prazeres (Calheta),32.757205,-17.201551,32.0,10.0,0.6,1,2.6,8.9,97.0,,N
2026-01-17 03:00:00,1240546,"Porto, Serra do Pilar",41.1385194,-8.6025,16.6,4.6,1561.9,4,0.0,4.6,100.0,1013.6,SE
2026-01-17 03:00:00,1240566,Vila Real (Cidade),41.30898056,-7.740522,3.2,1.1,,3,0.0,0.9,100.0,,E
2026-01-17 03:00:00,1240610,Viana do Castelo,41.695,-8.82916,,5.6,,0,0.0,,99.0,,
2026-01-17 03:00:00,1240675,Viseu (Cidade),40.662738,-7.9039694,,0.7,,0,0.1,,99.0,,
2026-01-17 03:00:00,1240903,"Porto, Massarelos",41.15257,-8.62598,,5.2,,0,,,100.0,,
2026-01-17 03:00:00,1240971,"Madeira, Funchal, Lido",32.63655,-16.935592,0.0,15.6,0.0,0,0.0,0.0,65.0,,
2026-01-17 03:00:00,1259204,Seia/Senhora do Espinheiro,40.412775,-7.673406,1.4,1.2,,3,0.0,0.4,96.0,1015.1,E
2026-01-17 03:00:00,5210758,Alcochete / Campo Tiro,38.7627,-8.7825,4.7,5.5,,7,0.1,1.3,99.0,1014.5,W
2026-01-17 03:00:00,6210817,Ponte de Sôr / Aeródromo,39.21536,-8.05417,3.6,2.0,,1,,1.0,98.0,1014.5,N
2026-01-17 03:00:00,6210872,Loulé (CML),37.129946,-8.06523593,1.1,4.7,,4,,0.3,,1015.6,SE
2026-01-17 03:00:00,6210879,Portimão (Praia da Rocha),37.11670461,-8.52946314,3.2,8.2,,9,0.0,0.9,90.0,,N
2026-01-17 03:00:00,6211211,Monção - Guimil (CIM),42.042944,-8.421872,2.9,,0.3,5,,0.8,,1011.9,S
2026-01-17 03:00:00,6211213,Paredes De Coura - Vascões (CIM),41.913444,-8.492111,2.2,1.9,0.8,2,,0.6,100.0,1013.8,NE
2026-01-17 03:00:00,6211216,Arcos De Valdevez - Heliporto (CIM),41.831,-8.44375,5.8,2.6,,1,0.0,1.6,99.0,1014.5,N
2026-01-17 03:00:00,6211217,Viana Do Castelo - Fonte Louçã (CIM),41.745722,-8.815306,,,0.0,0,0.0,,,1011.1,
2026-01-17 03:00:00,6211218,Ponte De Lima - Anais (CIM),41.698083,-8.522444,4.0,3.3,0.2,3,,1.1,95.0,1014.0,E
2026-01-17 03:00:00,6212121,Terras de Bouro/Barral (CIM),41.70225278,-8.31808611,3.6,3.3,,3,0.0,1.0,95.0,1012.0,E
2026-01-17 03:00:00,6212122,Amares Caldelas (CIM),41.66796389,-8.37977778,1.8,2.3,,5,0.0,0.5,95.0,1014.3,S
2026-01-17 03:00:00,6212123,Vila Verde (CIM),41.64686111,-8.43398056,1.4,2.9,,1,,0.4,91.0,1014.0,N
2026-01-17 03:00:00,6212124,Braga (CIM),41.53568333,-8.42514722,3.6,4.3,,2,0.0,1.0,97.0,1014.2,NE
2026-01-17 03:00:00,6212125,Barcelos (CIM),41.529375,-8.62705278,6.1,4.4,0.0,3,0.0,1.7,97.0,1015.1,E
2026-01-17 03:00:00,6212126,Esposende (CIM),41.52645556,-8.77984444,10.8,5.0,,3,0.0,3.0,98.0,1014.1,E
2026-01-17 03:00:00,6213012,Carregal do Sal (CIM),40.46718056,-7.92626389,1.8,3.8,,4,,0.5,99.0,,SE
2026-01-17 03:00:00,6213013,Castro Daire / Mézio (CIM),40.98086111,-7.88318889,7.2,0.9,,9,,2.0,100.0,,N
2026-01-17 03:00:00,6213014,Mangualde / Chãs de Tavares  (CIM),40.61096111,-7.60838889,5.4,1.2,,7,0.0,1.5,100.0,,W
2026-01-17 03:00:00,6213016,Oliveira de Frades (CIM),40.716925,-8.20133889,8.3,3.7,,4,,2.3,87.0,,SE
2026-01-17 03:00:00,6213017,Penalva do Castelo (CIM),40.65706389,-7.69655278,2.2,2.1,,4,0.1,0.6,100.0,,SE
2026-01-17 03:00:00,6213020,Satão (CIM),40.76072778,-7.72019722,5.0,1.2,,6,0.0,1.4,100.0,,SW
2026-01-17 03:00:00,6213022,Vila Nova de Paiva (CIM),40.85595,-7.72716389,1.8,0.0,,7,0.0,0.5,,,W
2026-01-17 03:00:00,6213611,Arganil / Aeródromo (CIM),40.274578,-7.974399,3.2,2.8,,6,0.0,0.9,100.0,,SW
2026-01-17 03:00:00,6213612,Cantanhede / Fonte Dom Pedro (CIM),40.341894,-8.577613,4.3,2.8,,5,0.0,1.2,96.0,,S
2026-01-17 03:00:00,6213613,Coimbra / Mata de São Pedro (CIM),40.330787,-8.374887,5.0,3.4,,4,,1.4,100.0,,SE
2026-01-17 03:00:00,6213615,Mealhada / Quinta do Vale (CIM),40.373343,-8.4388429,1.4,1.8,,4,0.1,0.4,99.0,,SE
2026-01-17 03:00:00,6213616,Mortágua / Aeródromo (CIM),40.426239,-8.232142,4.0,3.3,,1,0.0,1.1,100.0,,N
2026-01-17 03:00:00,6213617,Penacova / Hombres (CIM),40.280921,-8.198685,3.6,,,6,0.0,1.0,100.0,,SW
2026-01-17 03:00:00,6213619,Vila Nova de Poiares (CIM),40.211411,-8.241995,1.8,3.5,,4,0.0,0.5,96.0,,SE
2026-01-17 03:00:00,6213620,Oliveira do Hospital (CIM),40.413306,-7.867972,5.4,3.4,,3,0.0,1.5,99.0,,E
2026-01-17 03:00:00,6215302,"Lisboa, Carnide (CML)",38.7751,-9.1855,5.0,7.2,,7,0.0,1.4,90.0,1014.5,W
2026-01-17 03:00:00,6215360,Oeiras / Vila Fria (CMO),38.7239536,-9.2939255,13.7,7.1,0.0,8,0.0,3.8,89.0,1015.7,NW
2026-01-17 03:00:00,7240919,"Lisboa, Amoreiras (LFCL)",38.7239,-9.1649,2.5,6.4,,7,0.0,0.7,100.0,1015.6,W
2026-01-17 04:00:00,11217160,Santa Maria / Praia Formosa (DROTRH),36.9542,-25.0917,19.8,12.8,2.7,3,0.0,5.5,85.0,,E
2026-01-17 04:00:00,11217165,Santa Maria / Maia (DROTRH),36.9412,-25.0176,9.7,12.6,0.0,8,0.0,2.7,86.0,,NW
2026-01-17 04:00:00,11217217,São Miguel / Santana (DROTRH),37.8049,-25.5618,8.6,14.1,0.0,7,0.0,2.4,79.0,,W
2026-01-17 04:00:00,11217225,São Miguel / Sete Cidades (DROTRH),37.8679,-25.772,14.4,12.5,0.0,7,0.0,4.0,83.0,,W
2026-01-17 04:00:00,11217255,São Miguel / Lagoa das Furnas (DROTRH),37.7619,-25.3291,10.1,11.3,0.6,4,0.0,2.8,91.0,,SE
2026-01-17 04:00:00,11217370,Terceira / Ribeira das Nove (DROTRH),38.754,-27.3245,7.2,7.8,0.0,6,0.0,2.0,100.0,,SW
2026-01-17 04:00:00,11217372,Terceira / Serra do Cume (DROTRH),38.7002,-27.1031,13.0,10.2,0.0,8,0.0,3.6,98.0,,NW
2026-01-17 04:00:00,11217430,Graciosa / Serra das Fontes (DROTRH),39.0672,-28.0038,30.2,12.3,0.0,9,0.0,8.4,87.0,,N
2026-01-17 04:00:00,11217510,São Jorge / Pico do Areeiro (DROTRH),38.6435,-28.0591,16.6,6.5,0.0,6,0.0,4.6,100.0,,SW
2026-01-17 04:00:00,11217645,Pico / Cabecinho (DROTRH),38.4338,-28.1141,15.1,9.3,0.0,8,0.0,4.2,89.0,,NW
2026-01-17 04:00:00,11217730,Faial / Cabeço Verde (DROTRH),38.5843,-28.7576,7.6,9.7,0.0,7,0.0,2.1,91.0,,W
2026-01-17 04:00:00,1200501,Flores (Aeródromo),39.45819,-31.1301,9.0,14.2,0.0,7,0.0,2.5,70.0,1035.1,W
2026-01-17 04:00:00,1200502,Corvo (Aeródromo),39.67389,-31.11362,34.6,15.0,0.0,7,0.0,9.6,70.0,1034.1,W
2026-01-17 04:00:00,1200504,Pico (Aeródromo),38.55219,-28.44137,10.4,13.8,0.0,7,0.0,2.9,72.0,1034.7,W
2026-01-17 04:00:00,1200505,Horta / Aeroporto,38.5211,-28.7128,13.7,14.1,,8,0.0,3.8,67.0,1034.4,NW
2026-01-17 04:00:00,1200506,Horta (Obs. Principe Alberto),38.540781,-28.63225,7.2,12.3,0.0,9,0.0,2.0,78.0,1035.0,N
2026-01-17 04:00:00,1200510,São Jorge,38.66,-28.17,12.6,13.6,0.0,8,0.0,3.5,71.0,1034.1,NW
2026-01-17 04:00:00,1200511,Angra do Heroísmo,38.6659435,-27.216567,16.6,13.7,0.0,7,0.0,4.6,72.0,1033.5,W
2026-01-17 04:00:00,1200512,P. Delgada (Aeródromo),37.74414,-25.6953048,26.3,13.8,0.0,8,0.0,7.3,76.0,1032.7,NW
2026-01-17 04:00:00,1200515,Santa Maria (Aeródromo),36.967175,-25.1679,37.1,13.8,0.0,8,0.0,10.3,80.0,1032.9,NW
2026-01-17 04:00:00,1200521,Santa Catarina (Aeródromo),32.69688,-16.77612,,15.8,0.1,0,0.2,,66.0,1023.3,
2026-01-17 04:00:00,1200522,Funchal,32.64786,-16.888,5.8,15.1,0.0,3,0.0,1.6,68.0,1023.1,E
2026-01-17 04:00:00,1200524,Porto Santo,33.074029,-16.34868,42.1,14.8,3.6,8,0.0,11.7,83.0,1022.5,NW
2026-01-17 04:00:00,1200531,Cabo Carvoeiro,39.38,-9.40737778,6.8,10.8,,8,0.1,1.9,72.0,1014.4,NW
2026-01-17 04:00:00,1200533,Sagres,37.012835,-8.949089,14.4,9.0,,8,0.0,4.0,78.0,1015.4,NW
2026-01-17 04:00:00,1200535,Lisboa (Geofísico),38.71907778,-9.14972222,5.0,7.1,0.0,8,0.0,1.4,100.0,1014.8,NW
2026-01-17 04:00:00,1200541,Sines,37.954504,-8.838271,18.4,9.1,0.0,9,0.0,5.1,87.0,1014.9,N
2026-01-17 04:00:00,1200545,"Porto, Pedras Rubras (Aeródromo)",41.233502,-8.681332,15.5,4.5,0.0,3,0.0,4.3,100.0,1013.8,E
2026-01-17 04:00:00,1200548,Coimbra (Aeródromo),40.15006944,-8.46669167,6.1,6.2,0.0,4,0.1,1.7,100.0,1014.3,SE
2026-01-17 04:00:00,1200551,"Viana Castelo, Chafé",41.648875,-8.804606,10.8,4.6,0.0,3,1.0,3.0,100.0,1013.7,E
2026-01-17 04:00:00,1200554,Faro (Aeródromo),37.016579,-7.971953,9.7,6.3,0.0,8,0.0,2.7,94.0,1015.1,NW
2026-01-17 04:00:00,1200558,Évora (C.Coordenação),38.53336389,-7.88338056,6.5,3.5,0.0,8,0.0,1.8,,1014.9,NW
2026-01-17 04:00:00,1200559,Viseu (Aeródromo),40.72645,-7.887472,2.5,0.5,,5,0.0,0.7,98.0,1015.2,S
2026-01-17 04:00:00,1200560,Viseu (C.Coordenação),40.71492222,-7.89592222,4.3,2.1,,6,0.0,1.2,100.0,1015.2,SW
2026-01-17 04:00:00,1200562,Beja,38.02493056,-7.867275,13.7,5.1,0.0,7,0.0,3.8,100.0,1014.2,W
2026-01-17 04:00:00,1200567,Vila Real,41.27418611,-7.7171,1.4,0.9,0.0,6,0.0,0.4,100.0,1014.9,SW
2026-01-17 04:00:00,1200568,Penhas Douradas,40.41136667,-7.55865278,0.0,-1.3,0.0,0,,0.0,100.0,,
2026-01-17 04:00:00,1200570,Castelo Branco,39.83339444,-7.46678889,8.3,3.3,0.0,7,0.0,2.3,100.0,1013.3,W
2026-01-17 04:00:00,1200571,Portalegre,39.29546944,-7.41996944,18.7,3.2,0.0,8,0.0,5.2,100.0,1014.4,NW
2026-01-17 04:00:00,1200575,Bragança,41.80388889,-6.74283889,2.2,,,4,,0.6,,,SE
2026-01-17 04:00:00,1200576,Bragança (Aeródromo),41.85763611,-6.70796389,,-2.3,,0,0.0,,99.0,1015.1,
2026-01-17 04:00:00,1200843,Évora (Aeródromo),38.5296,-7.8916,6.1,3.9,,7,0.0,1.7,96.0,1014.6,W
2026-01-17 04:00:00,1210513,P. Delgada (Obs. A. Chaves),37.7464,-25.662283,2.9,13.7,2.6,5,0.0,0.8,71.0,,S
2026-01-17 04:00:00,1210517,Flores / Morro Alto,39.4633,-31.2207,49.7,6.4,,7,0.0,13.8,100.0,1032.2,W
2026-01-17 04:00:00,1210518,São Miguel - Pico Santos De Cima,37.819,-25.7512,55.8,7.1,,8,0.1,15.5,100.0,1032.5,NW
2026-01-17 04:00:00,1210520,Ilhas selvagens,30.140595,-15.869153,25.9,16.1,0.1,9,0.0,7.2,72.0,1024.0,N
2026-01-17 04:00:00,1210550,Coruche / Cruz Do Leão,39.07101,-8.4,5.4,3.8,,7,0.0,1.5,100.0,1014.8,W
2026-01-17 04:00:00,1210553,Loulé / Cavalos De Caldeirão,37.3042,-7.9534,22.0,4.3,,8,0.0,6.1,95.0,1015.6,NW
2026-01-17 04:00:00,1210577,"Odemira, S.Teotónio",37.54710833,-8.72899167,3.2,6.8,0.0,8,0.0,0.9,91.0,,NW
2026-01-17 04:00:00,1210580,"Lisboa, Relógio",38.7618,-9.1254,,6.7,,0,0.0,,83.0,1015.3,
2026-01-17 04:00:00,1210604,V.N.Cerveira (Aeródromo),41.96673056,-8.66676111,6.8,5.5,0.0,6,3.5,1.9,100.0,1014.0,SW
2026-01-17 04:00:00,1210605,"Monção, Valinha",42.06669,-8.383347,1.1,3.6,0.0,2,1.3,0.3,100.0,,NE
2026-01-17 04:00:00,1210606,"Lamas de Mouro, P.Ribeiro",42.03333333,-8.18333333,2.2,0.3,0.0,4,0.0,0.6,100.0,1015.5,SE
2026-01-17 04:00:00,1210611,Montalegre,41.82276667,-7.78797778,5.4,0.7,0.0,6,0.0,1.5,99.0,,SW
2026-01-17 04:00:00,1210612,Vinhais,41.8434,-7.0034416,6.8,-0.3,,8,0.0,1.9,100.0,,NW
2026-01-17 04:00:00,1210615,Ponte de Lima,41.75013889,-8.56671389,6.5,4.1,0.0,4,0.3,1.8,99.0,,SE
2026-01-17 04:00:00,1210616,Chaves (Aeródromo),41.72516667,-7.46540833,1.4,1.8,0.0,6,0.0,0.4,97.0,1014.4,SW
2026-01-17 04:00:00,1210619,Cabril,41.71666667,-8.01666667,4.7,2.4,,4,0.0,1.3,99.0,,SE
2026-01-17 04:00:00,1210622,"Braga, Merelim",41.56678056,-8.45003056,1.4,2.1,0.0,9,0.0,0.4,100.0,1014.5,N
2026-01-17 04:00:00,1210625,Guimarães,41.4289,-8.3178,,3.2,0.0,0,,,96.0,1014.1,
2026-01-17 04:00:00,1210630,Cabeceiras de Basto,41.53333333,-7.96666667,1.1,3.8,0.0,5,0.0,0.3,100.0,,S
2026-01-17 04:00:00,1210632,Mirandela,41.51478611,-7.19083889,0.0,-0.4,0.0,0,0.0,0.0,97.0,,
2026-01-17 04:00:00,1210633,"Macedo Cavaleiros, Bagueixe",41.56666667,-6.78333333,5.8,0.1,,8,0.0,1.6,100.0,,NW
2026-01-17 04:00:00,1210635,Miranda do Douro,41.51666667,-6.28333333,2.2,1.6,,7,0.0,0.6,99.0,,W
2026-01-17 04:00:00,1210637,Mogadouro,41.33333333,-6.73333333,10.1,1.0,0.0,7,0.0,2.8,99.0,,W
2026-01-17 04:00:00,1210643,Paços Ferreira,41.27365,-8.38012,1.4,1.4,,3,0.0,0.4,100.0,,E
2026-01-17 04:00:00,1210644,Carrazêda de Ansiães,41.23333333,-7.28333333,0.0,-0.2,0.0,0,0.0,0.0,93.0,,
2026-01-17 04:00:00,1210654,Moncorvo,41.18333333,-7.01666667,3.2,1.2,0.0,6,0.0,0.9,90.0,1014.7,SW
2026-01-17 04:00:00,1210655,"Pinhão, Santa Bárbara",41.172775,-7.5489722,5.8,3.7,,4,0.0,1.6,98.0,,SE
2026-01-17 04:00:00,1210657,Luzim,41.14585,-8.2490333,4.0,0.7,0.0,8,0.0,1.1,100.0,,NW
2026-01-17 04:00:00,1210663,Moimenta da Beira,40.98333333,-7.6,6.5,0.4,0.0,7,0.0,1.8,97.0,,W
2026-01-17 04:00:00,1210666,"Trancoso, Bandarra",40.78333333,-7.36666667,2.5,0.3,0.0,6,0.0,0.7,99.0,,SW
2026-01-17 04:00:00,1210669,Arouca,40.93333333,-8.25,2.2,1.0,0.0,6,0.0,0.6,99.0,,SW
2026-01-17 04:00:00,1210671,"F. Castelo Rodrigo, V.Torpim",40.75,-6.88333333,4.0,0.3,0.0,6,0.0,1.1,99.0,,SW
2026-01-17 04:00:00,1210683,Guarda,40.53333333,-7.26666667,15.8,-0.1,0.1,8,0.0,4.4,100.0,,NW
2026-01-17 04:00:00,1210685,Nelas,40.51666667,-7.85,0.4,2.6,0.0,4,0.1,0.1,100.0,,SE
2026-01-17 04:00:00,1210686,"Pampilhosa da Serra, Fajão",40.145653,-7.92704,13.0,1.4,,9,0.0,3.6,100.0,,N
2026-01-17 04:00:00,1210687,Covilhã (Aeródromo),40.264309,-7.482302,2.5,1.6,0.0,6,,0.7,99.0,,SW
2026-01-17 04:00:00,1210690,Aldeia Souto (Q. Lageosa),40.35425833,-7.38931111,2.9,2.4,0.0,3,0.0,0.8,84.0,,E
2026-01-17 04:00:00,1210697,Lousã (Aeródromo),40.143922,-8.244066,3.6,2.9,,8,0.0,1.0,100.0,,NW
2026-01-17 04:00:00,1210698,Fundão,40.14063611,-7.55362778,6.5,4.7,0.0,7,0.0,1.8,83.0,,W
2026-01-17 04:00:00,1210702,Aveiro (Universidade),40.63529722,-8.65958333,7.6,5.4,0.0,4,0.0,2.1,98.0,1014.1,SE
2026-01-17 04:00:00,1210704,Dunas de Mira,40.445955,-8.76168055,1.8,4.1,0.0,9,0.2,0.5,99.0,,N
2026-01-17 04:00:00,1210705,Anadia,40.438852,-8.439996,6.1,3.7,0.0,3,0.0,1.7,97.0,,E
2026-01-17 04:00:00,1210707,"Coimbra, Bencanta",40.2134694,-8.45515277,5.4,4.1,0.0,4,0.6,1.5,100.0,,SE
2026-01-17 04:00:00,1210713,"Figueira da Foz, Vila Verde",40.139764,-8.805945,9.0,3.8,0.0,2,0.1,2.5,,,NE
2026-01-17 04:00:00,1210716,Ansião,39.9,-8.4,4.7,3.9,0.0,7,,1.3,99.0,,W
2026-01-17 04:00:00,1210718,Leiria (Aeródromo),39.780553,-8.818166,4.3,4.4,0.8,3,0.8,1.2,100.0,1014.4,E
2026-01-17 04:00:00,1210724,"Tomar, Valdonas",39.6,-8.36666667,1.8,0.4,252.2,5,0.1,0.5,100.0,,S
2026-01-17 04:00:00,1210726,Alcobaça,39.51666667,-8.96666667,3.6,5.0,0.0,5,1.1,1.0,96.0,,S
2026-01-17 04:00:00,1210729,Rio Maior,39.35,-8.93333333,11.5,4.8,22.5,8,0.2,3.2,99.0,,NW
2026-01-17 04:00:00,1210734,"Santarém, Fonte Boa",39.201216,-8.736656,10.4,6.2,0.0,8,0.0,2.9,93.0,1014.9,NW
2026-01-17 04:00:00,1210735,Chamusca / Chouto,39.27,-8.3508,0.0,0.2,,0,0.0,0.0,100.0,1015.0,
2026-01-17 04:00:00,1210739,"Torres Vedras, Dois Portos",39.04389444,-9.179,4.0,4.8,0.0,6,0.2,1.1,99.0,,SW
2026-01-17 04:00:00,1210744,Coruche,38.94096667,-8.51073611,5.4,3.0,0.0,6,0.0,1.5,,,SW
2026-01-17 04:00:00,1210746,Santa Cruz (Aeródromo),39.12594166,-9.3790388,12.2,7.2,1.5,8,1.2,3.4,89.0,1014.8,NW
2026-01-17 04:00:00,1210750,Cabo da Roca,38.78171,-9.4975361,7.9,8.9,0.3,8,0.0,2.2,86.0,,NW
2026-01-17 04:00:00,1210752,Sintra/Tapada do Mouco,38.781669,-9.400398,8.3,3.7,,8,0.0,2.3,100.0,,NW
2026-01-17 04:00:00,1210762,"Lisboa, Tapada da Ajuda",38.70956111,-9.182825,5.8,5.4,0.0,8,0.0,1.6,98.0,,NW
2026-01-17 04:00:00,1210765,Cabo Raso,38.70900833,-9.48538333,13.3,10.7,,8,0.0,3.7,84.0,,NW
2026-01-17 04:00:00,1210766,"Barreiro, Lavradio",38.67448611,-9.04766111,6.8,8.9,0.0,7,0.0,1.9,85.0,,W
2026-01-17 04:00:00,1210767,Pegões,38.65079,-8.63503,3.2,4.9,0.0,7,0.0,0.9,100.0,,W
2026-01-17 04:00:00,1210770,Setúbal,38.54846008,-8.89077058,5.8,7.7,0.0,8,0.0,1.6,78.0,,NW
2026-01-17 04:00:00,1210773,"Almada, P.Rainha",38.617111,-9.212804,5.0,,0.0,1,0.0,1.4,,,N
2026-01-17 04:00:00,1210776,"Alcácer do Sal, Barrosinha",38.36666667,-8.48333333,1.8,3.4,0.0,3,0.1,0.5,99.0,,E
2026-01-17 04:00:00,1210783,Alvalade,37.946806,-8.394504,5.0,4.0,0.0,6,0.0,1.4,98.0,,SW
2026-01-17 04:00:00,1210785,Ourique / Santana Da Serra,37.5025,-8.3019,,3.8,,0,,,97.0,1015.5,
2026-01-17 04:00:00,1210789,Aljezur,37.31675278,-8.80001667,1.1,4.2,0.0,8,0.0,0.3,99.0,,NW
2026-01-17 04:00:00,1210790,Fóia,37.3143,-8.595733,35.3,3.1,0.0,8,0.1,9.8,,,NW
2026-01-17 04:00:00,1210800,"Sabugal, Martim Rei",40.33918056,-7.03693333,7.6,0.1,0.0,9,0.0,2.1,99.0,,N
2026-01-17 04:00:00,1210803,Zebreira,39.86666667,-7.01666667,9.0,2.7,0.0,7,0.0,2.5,97.0,,W
2026-01-17 04:00:00,1210806,"Proença-a-Nova, P.Moitas",39.73333333,-7.86666667,10.1,4.5,0.0,8,0.0,2.8,91.0,,NW
2026-01-17 04:00:00,1210812,Alvega,39.46666667,-8.05,0.7,3.1,,6,0.0,0.2,100.0,,SW
2026-01-17 04:00:00,1210824,"Avis, Benavila",39.1,-7.86666667,1.8,4.4,0.0,6,0.0,0.5,99.0,,SW
2026-01-17 04:00:00,1210826,Mora,38.94068,-8.16406,5.4,4.7,0.0,6,0.0,1.5,98.0,,SW
2026-01-17 04:00:00,1210835,Elvas,38.8908,-7.13976111,10.1,5.0,0.0,8,0.0,2.8,94.0,,NW
2026-01-17 04:00:00,1210837,Estremoz,38.86666667,-7.51666667,8.3,3.9,0.0,7,0.0,2.3,100.0,,W
2026-01-17 04:00:00,1210846,Montemor-O-Novo,38.6451,-8.1991,1.4,3.9,,7,0.0,0.4,100.0,1015.8,W
2026-01-17 04:00:00,1210847,Viana do Alentejo,38.3319194,-8.04553888,4.3,4.9,0.0,7,,1.2,,,W
2026-01-17 04:00:00,1210848,"Portel, Oriola",38.31666667,-7.86666667,2.9,4.0,,7,0.0,0.8,99.0,,W
2026-01-17 04:00:00,1210851,Amareleja,38.2007,-7.2261,2.9,,0.0,2,0.0,0.8,,1013.3,NE
2026-01-17 04:00:00,1210863,"Mértola, Vale Formoso",37.75,-7.55,6.1,4.7,0.0,8,0.0,1.7,98.0,,NW
2026-01-17 04:00:00,1210864,"Castro Verde, N.Corvo",37.57655833,-7.97211389,6.1,4.9,0.0,7,0.0,1.7,99.0,,W
2026-01-17 04:00:00,1210865,"Alcoutim, Mart.Longo",37.43333333,-7.76666667,8.6,4.4,,7,0.0,2.4,96.0,1015.3,W
2026-01-17 04:00:00,1210866,Vila Real de S.António,37.1871055,-7.416325,,4.6,,0,0.0,,94.0,,
2026-01-17 04:00:00,1210867,Castro Marim (RN Sapal),37.21666667,-7.45,3.6,5.8,0.0,1,0.0,1.0,97.0,,N
2026-01-17 04:00:00,1210874,Albufeira,37.0935,-8.262,11.2,7.4,,7,0.0,3.1,86.0,,W
2026-01-17 04:00:00,1210878,Portimão (Aeródromo),37.149167,-8.581389,1.4,4.5,0.0,3,0.0,0.4,98.0,1015.3,E
2026-01-17 04:00:00,1210881,"Olhão, EPPO",37.033,-7.821,7.2,6.9,0.0,7,,2.0,93.0,1015.7,W
2026-01-17 04:00:00,1210883,Tavira,37.12166968,-7.62050375,8.3,6.1,,7,0.0,2.3,94.0,1015.9,W
2026-01-17 04:00:00,1210907,Faja / Ilha das Flores,39.45328,-31.2647,,14.8,,0,,,67.0,1035.8,
2026-01-17 04:00:00,1210932,"S. Miguel, Nordeste",37.83256,-25.150108,21.2,12.0,,8,0.5,5.9,94.0,,NW
2026-01-17 04:00:00,1210956,"Madeira, Porto Moniz",32.867477,-17.171373,,15.9,0.6,0,0.1,,80.0,,
2026-01-17 04:00:00,1210960,"Madeira, S. Jorge, Santana",32.83446944,-16.906219,49.7,12.5,6.7,9,0.4,13.8,92.0,1023.5,N
2026-01-17 04:00:00,1210965,"Madeira, Santana",32.808238,-16.8864166,,11.1,26.4,0,0.2,,96.0,,
2026-01-17 04:00:00,1210967,"Madeira, São Vicente",32.8001833,-17.044722,,14.4,0.0,0,0.3,,83.0,,
2026-01-17 04:00:00,1210972,"Madeira, Pico Alto",32.693491,-16.903955,10.1,6.5,0.0,6,,2.8,,,SW
2026-01-17 04:00:00,1210973,"Madeira, Areeiro",32.71666667,-16.91666667,21.2,3.5,8.1,2,1.4,5.9,100.0,,NE
2026-01-17 04:00:00,1210974,"Madeira, Pico do Areeiro",32.735107,-16.928271,,1.8,,0,1.5,,100.0,,
2026-01-17 04:00:00,1210975,"Madeira, Santo da Serra",32.7258972,-16.816822,,9.3,0.0,0,0.2,,99.0,,
2026-01-17 04:00:00,1210976,"Madeira, Monte",32.675833,-16.906944,5.0,10.2,1.7,2,0.1,1.4,89.0,,NE
2026-01-17 04:00:00,1210977,"Madeira, Cancela",32.64500556,-16.86575,5.8,13.2,0.0,2,0.0,1.6,81.0,,NE
2026-01-17 04:00:00,1210978,"Madeira, S. Lourenço",32.747,-16.706,50.0,14.3,2.7,9,0.6,13.9,90.0,,N
2026-01-17 04:00:00,1210984,"Madeira, Quinta Grande",32.6629722,-17.01503611,,12.3,0.0,0,0.0,,60.0,,
2026-01-17 04:00:00,1210986,Ponta do Sol/Lugar de Baixo,32.681502,-17.104167,3.2,14.7,0.0,8,0.0,0.9,73.0,,NW
2026-01-17 04:00:00,1210987,Prazeres (Calheta),32.757205,-17.201551,31.7,10.3,1.0,1,0.6,8.8,92.0,,N
2026-01-17 04:00:00,1240546,"Porto, Serra do Pilar",41.1385194,-8.6025,15.1,4.4,2358.0,4,0.0,4.2,100.0,1013.5,SE
2026-01-17 04:00:00,1240566,Vila Real (Cidade),41.30898056,-7.740522,3.2,0.9,,5,0.1,0.9,100.0,,S
2026-01-17 04:00:00,1240610,Viana do Castelo,41.695,-8.82916,,5.5,,0,1.8,,100.0,,
2026-01-17 04:00:00,1240675,Viseu (Cidade),40.662738,-7.9039694,,0.6,,0,0.0,,99.0,,
2026-01-17 04:00:00,1240903,"Porto, Massarelos",41.15257,-8.62598,,4.9,,0,,,100.0,,
2026-01-17 04:00:00,1240971,"Madeira, Funchal, Lido",32.63655,-16.935592,0.0,14.6,0.0,0,0.0,0.0,74.0,,
2026-01-17 04:00:00,1259204,Seia/Senhora do Espinheiro,40.412775,-7.673406,1.8,0.9,,6,0.0,0.5,97.0,1015.0,SW
2026-01-17 04:00:00,5210758,Alcochete / Campo Tiro,38.7627,-8.7825,,4.4,,0,0.0,,99.0,1014.5,
2026-01-17 04:00:00,6210817,Ponte de Sôr / Aeródromo,39.21536,-8.05417,4.3,1.5,,4,,1.2,98.0,1014.6,SE
2026-01-17 04:00:00,6210872,Loulé (CML),37.129946,-8.06523593,3.2,2.1,,3,,0.9,,1015.7,E
2026-01-17 04:00:00,6210879,Portimão (Praia da Rocha),37.11670461,-8.52946314,5.0,8.2,,7,0.0,1.4,90.0,,W
2026-01-17 04:00:00,6211211,Monção - Guimil (CIM),42.042944,-8.421872,10.1,,1.5,4,,2.8,,1011.9,SE
2026-01-17 04:00:00,6211213,Paredes De Coura - Vascões (CIM),41.913444,-8.492111,4.7,1.9,2.2,7,,1.3,100.0,1014.0,W
2026-01-17 04:00:00,6211216,Arcos De Valdevez - Heliporto (CIM),41.831,-8.44375,9.4,2.9,,8,1.1,2.6,99.0,1014.8,NW
2026-01-17 04:00:00,6211217,Viana Do Castelo - Fonte Louçã (CIM),41.745722,-8.815306,,,1.0,0,6.0,,,1011.1,
2026-01-17 04:00:00,6211218,Ponte De Lima - Anais (CIM),41.698083,-8.522444,12.6,3.2,1.5,8,,3.5,96.0,1014.0,NW
2026-01-17 04:00:00,6212121,Terras de Bouro/Barral (CIM),41.70225278,-8.31808611,1.8,2.8,,8,0.0,0.5,95.0,1011.5,NW
2026-01-17 04:00:00,6212122,Amares Caldelas (CIM),41.66796389,-8.37977778,2.5,1.6,,7,0.1,0.7,95.0,1014.1,W
2026-01-17 04:00:00,6212123,Vila Verde (CIM),41.64686111,-8.43398056,2.2,2.8,,4,,0.6,91.0,1014.0,SE
2026-01-17 04:00:00,6212124,Braga (CIM),41.53568333,-8.42514722,2.5,4.2,,3,0.0,0.7,97.0,1014.1,E
2026-01-17 04:00:00,6212125,Barcelos (CIM),41.529375,-8.62705278,3.2,4.1,0.0,3,0.0,0.9,97.0,1015.0,E
2026-01-17 04:00:00,6212126,Esposende (CIM),41.52645556,-8.77984444,7.2,5.1,,4,0.7,2.0,98.0,1014.2,SE
2026-01-17 04:00:00,6213012,Carregal do Sal (CIM),40.46718056,-7.92626389,3.6,3.9,,9,,1.0,99.0,,N
2026-01-17 04:00:00,6213013,Castro Daire / Mézio (CIM),40.98086111,-7.88318889,6.5,1.1,,8,,1.8,99.0,,NW
2026-01-17 04:00:00,6213014,Mangualde / Chãs de Tavares  (CIM),40.61096111,-7.60838889,5.8,1.0,,7,0.0,1.6,100.0,,W
2026-01-17 04:00:00,6213016,Oliveira de Frades (CIM),40.716925,-8.20133889,10.4,3.2,,4,,2.9,89.0,,SE
2026-01-17 04:00:00,6213017,Penalva do Castelo (CIM),40.65706389,-7.69655278,5.0,1.8,,7,0.0,1.4,100.0,,W
2026-01-17 04:00:00,6213020,Satão (CIM),40.76072778,-7.72019722,5.0,0.9,,6,0.0,1.4,100.0,,SW
2026-01-17 04:00:00,6213022,Vila Nova de Paiva (CIM),40.85595,-7.72716389,2.5,-0.3,,6,0.0,0.7,,,SW
2026-01-17 04:00:00,6213611,Arganil / Aeródromo (CIM),40.274578,-7.974399,2.5,2.5,,3,0.1,0.7,100.0,,E
2026-01-17 04:00:00,6213612,Cantanhede / Fonte Dom Pedro (CIM),40.341894,-8.577613,8.6,3.8,,5,0.2,2.4,96.0,,S
2026-01-17 04:00:00,6213613,Coimbra / Mata de São Pedro (CIM),40.330787,-8.374887,5.4,3.3,,3,,1.5,100.0,,E
2026-01-17 04:00:00,6213615,Mealhada / Quinta do Vale (CIM),40.373343,-8.4388429,1.8,2.4,,6,0.0,0.5,99.0,,SW
2026-01-17 04:00:00,6213616,Mortágua / Aeródromo (CIM),40.426239,-8.232142,4.7,3.2,,1,0.0,1.3,100.0,,N
2026-01-17 04:00:00,6213617,Penacova / Hombres (CIM),40.280921,-8.198685,4.0,,,5,0.0,1.1,100.0,,S
2026-01-17 04:00:00,6213619,Vila Nova de Poiares (CIM),40.211411,-8.241995,3.2,3.5,,1,0.1,0.9,96.0,,N
2026-01-17 04:00:00,6213620,Oliveira do Hospital (CIM),40.413306,-7.867972,4.3,3.5,,4,0.0,1.2,99.0,,SE
2026-01-17 04:00:00,6215302,"Lisboa, Carnide (CML)",38.7751,-9.1855,2.5,6.5,,6,0.0,0.7,91.0,1014.5,SW
2026-01-17 04:00:00,6215360,Oeiras / Vila Fria (CMO),38.7239536,-9.2939255,4.3,6.6,0.0,9,0.0,1.2,88.0,1015.6,N
2026-01-17 04:00:00,7240919,"Lisboa, Amoreiras (LFCL)",38.7239,-9.1649,2.9,5.9,,3,0.0,0.8,100.0,1015.5,E
2026-01-17 05:00:00,11217160,Santa Maria / Praia Formosa (DROTRH),36.9542,-25.0917,22.7,12.7,0.0,3,0.0,6.3,92.0,,E
2026-01-17 05:00:00,11217165,Santa Maria / Maia (DROTRH),36.9412,-25.0176,17.6,12.8,0.0,8,0.0,4.9,86.0,,NW
2026-01-17 05:00:00,11217217,São Miguel / Santana (DROTRH),37.8049,-25.5618,10.8,14.2,0.0,6,0.0,3.0,79.0,,SW
2026-01-17 05:00:00,11217225,São Miguel / Sete Cidades (DROTRH),37.8679,-25.772,17.6,12.3,0.0,6,0.0,4.9,85.0,,SW
2026-01-17 05:00:00,11217255,São Miguel / Lagoa das Furnas (DROTRH),37.7619,-25.3291,8.3,11.6,0.8,4,0.0,2.3,85.0,,SE
2026-01-17 05:00:00,11217370,Terceira / Ribeira das Nove (DROTRH),38.754,-27.3245,8.6,8.0,0.0,6,0.0,2.4,100.0,,SW
2026-01-17 05:00:00,11217372,Terceira / Serra do Cume (DROTRH),38.7002,-27.1031,16.6,10.3,0.0,8,0.0,4.6,98.0,,NW
2026-01-17 05:00:00,11217430,Graciosa / Serra das Fontes (DROTRH),39.0672,-28.0038,30.2,12.3,0.0,9,0.0,8.4,88.0,,N
2026-01-17 05:00:00,11217510,São Jorge / Pico do Areeiro (DROTRH),38.6435,-28.0591,11.5,6.7,0.0,6,0.0,3.2,99.0,,SW
2026-01-17 05:00:00,11217645,Pico / Cabecinho (DROTRH),38.4338,-28.1141,15.1,9.4,0.0,8,0.0,4.2,88.0,,NW
2026-01-17 05:00:00,11217730,Faial / Cabeço Verde (DROTRH),38.5843,-28.7576,7.6,9.7,0.0,6,0.0,2.1,92.0,,SW
2026-01-17 05:00:00,1200501,Flores (Aeródromo),39.45819,-31.1301,9.0,14.2,0.0,9,0.0,2.5,70.0,1034.7,N
2026-01-17 05:00:00,1200502,Corvo (Aeródromo),39.67389,-31.11362,39.6,15.1,0.0,7,0.0,11.0,71.0,1033.8,W
2026-01-17 05:00:00,1200504,Pico (Aeródromo),38.55219,-28.44137,11.5,14.0,0.0,7,0.0,3.2,72.0,1034.6,W
2026-01-17 05:00:00,1200505,Horta / Aeroporto,38.5211,-28.7128,14.4,14.1,,8,0.0,4.0,67.0,1034.2,NW
2026-01-17 05:00:00,1200506,Horta (Obs. Principe Alberto),38.540781,-28.63225,3.6,12.5,0.0,2,0.0,1.0,76.0,1034.8,NE
2026-01-17 05:00:00,1200510,São Jorge,38.66,-28.17,20.2,13.8,0.0,8,0.0,5.6,71.0,1033.9,NW
2026-01-17 05:00:00,1200511,Angra do Heroísmo,38.6659435,-27.216567,20.2,13.7,0.0,7,0.0,5.6,74.0,1033.1,W
2026-01-17 05:00:00,1200512,P. Delgada (Aeródromo),37.74414,-25.6953048,22.0,13.7,0.0,8,0.0,6.1,77.0,1032.3,NW
2026-01-17 05:00:00,1200515,Santa Maria (Aeródromo),36.967175,-25.1679,38.9,13.6,0.0,8,0.0,10.8,83.0,1032.5,NW
2026-01-17 05:00:00,1200521,Santa Catarina (Aeródromo),32.69688,-16.77612,,15.7,0.1,0,0.2,,68.0,1023.0,
2026-01-17 05:00:00,1200522,Funchal,32.64786,-16.888,3.6,14.8,0.0,9,0.1,1.0,70.0,1023.1,N
2026-01-17 05:00:00,1200524,Porto Santo,33.074029,-16.34868,36.4,14.7,0.1,9,0.0,10.1,77.0,1022.4,N
2026-01-17 05:00:00,1200531,Cabo Carvoeiro,39.38,-9.40737778,7.6,10.8,,8,0.0,2.1,74.0,1014.2,NW
2026-01-17 05:00:00,1200533,Sagres,37.012835,-8.949089,11.9,8.6,,8,0.0,3.3,75.0,1015.0,NW
2026-01-17 05:00:00,1200535,Lisboa (Geofísico),38.71907778,-9.14972222,9.4,7.4,0.0,7,0.0,2.6,100.0,1014.8,W
2026-01-17 05:00:00,1200541,Sines,37.954504,-8.838271,12.6,9.1,0.0,8,0.0,3.5,88.0,1014.7,NW
2026-01-17 05:00:00,1200545,"Porto, Pedras Rubras (Aeródromo)",41.233502,-8.681332,13.0,4.5,0.0,3,0.1,3.6,100.0,1013.5,E
2026-01-17 05:00:00,1200548,Coimbra (Aeródromo),40.15006944,-8.46669167,4.7,6.1,0.0,5,0.0,1.3,99.0,1013.8,S
2026-01-17 05:00:00,1200551,"Viana Castelo, Chafé",41.648875,-8.804606,7.2,5.2,0.0,4,1.6,2.0,100.0,1013.5,SE
2026-01-17 05:00:00,1200554,Faro (Aeródromo),37.016579,-7.971953,7.6,5.9,0.0,8,0.1,2.1,94.0,1014.8,NW
2026-01-17 05:00:00,1200558,Évora (C.Coordenação),38.53336389,-7.88338056,5.8,3.3,0.0,7,0.1,1.6,,1014.7,W
2026-01-17 05:00:00,1200559,Viseu (Aeródromo),40.72645,-7.887472,2.2,0.3,,1,0.0,0.6,98.0,1015.0,N
2026-01-17 05:00:00,1200560,Viseu (C.Coordenação),40.71492222,-7.89592222,7.6,1.9,,7,0.1,2.1,100.0,1015.0,W
2026-01-17 05:00:00,1200562,Beja,38.02493056,-7.867275,10.4,4.7,0.0,7,0.1,2.9,100.0,1014.1,W
2026-01-17 05:00:00,1200567,Vila Real,41.27418611,-7.7171,2.2,1.2,0.0,4,0.0,0.6,100.0,1014.6,SE
2026-01-17 05:00:00,1200568,Penhas Douradas,40.41136667,-7.55865278,0.0,-1.3,0.0,0,,0.0,100.0,,
2026-01-17 05:00:00,1200570,Castelo Branco,39.83339444,-7.46678889,5.8,3.1,0.0,7,0.0,1.6,100.0,1013.0,W
2026-01-17 05:00:00,1200571,Portalegre,39.29546944,-7.41996944,21.6,3.0,0.0,8,0.0,6.0,100.0,1014.1,NW
2026-01-17 05:00:00,1200575,Bragança,41.80388889,-6.74283889,2.5,-2.7,0.0,7,0.0,0.7,95.0,1015.5,W
2026-01-17 05:00:00,1200576,Bragança (Aeródromo),41.85763611,-6.70796389,,-2.9,,0,0.0,,99.0,1015.0,
2026-01-17 05:00:00,1200843,Évora (Aeródromo),38.5296,-7.8916,5.4,4.2,,7,0.1,1.5,93.0,1014.4,W
2026-01-17 05:00:00,1210513,P. Delgada (Obs. A. Chaves),37.7464,-25.662283,5.4,14.0,1.5,8,0.0,1.5,71.0,,NW
2026-01-17 05:00:00,1210517,Flores / Morro Alto,39.4633,-31.2207,50.4,6.3,,7,0.0,14.0,100.0,1031.8,W
2026-01-17 05:00:00,1210518,São Miguel - Pico Santos De Cima,37.819,-25.7512,57.2,7.1,,8,0.4,15.9,100.0,1032.0,NW
2026-01-17 05:00:00,1210520,Ilhas selvagens,30.140595,-15.869153,20.5,15.6,0.1,9,0.1,5.7,78.0,1023.4,N
2026-01-17 05:00:00,1210550,Coruche / Cruz Do Leão,39.07101,-8.4,5.4,3.9,,7,0.0,1.5,100.0,1014.5,W
2026-01-17 05:00:00,1210553,Loulé / Cavalos De Caldeirão,37.3042,-7.9534,19.1,4.2,,8,0.0,5.3,96.0,1015.4,NW
2026-01-17 05:00:00,1210577,"Odemira, S.Teotónio",37.54710833,-8.72899167,0.0,6.5,0.0,0,0.0,0.0,92.0,,
2026-01-17 05:00:00,1210580,"Lisboa, Relógio",38.7618,-9.1254,,6.9,,0,0.2,,83.0,1015.2,
2026-01-17 05:00:00,1210604,V.N.Cerveira (Aeródromo),41.96673056,-8.66676111,3.6,5.8,0.0,2,0.1,1.0,100.0,1013.6,NE
2026-01-17 05:00:00,1210605,"Monção, Valinha",42.06669,-8.383347,2.9,3.8,0.0,2,0.0,0.8,100.0,,NE
2026-01-17 05:00:00,1210606,"Lamas de Mouro, P.Ribeiro",42.03333333,-8.18333333,2.5,0.7,0.0,3,0.0,0.7,100.0,1015.0,E
2026-01-17 05:00:00,1210611,Montalegre,41.82276667,-7.78797778,3.6,1.0,0.0,7,0.0,1.0,99.0,,W
2026-01-17 05:00:00,1210612,Vinhais,41.8434,-7.0034416,12.6,-0.3,,8,0.0,3.5,100.0,,NW
2026-01-17 05:00:00,1210615,Ponte de Lima,41.75013889,-8.56671389,10.4,5.1,0.0,4,4.0,2.9,99.0,,SE
2026-01-17 05:00:00,1210616,Chaves (Aeródromo),41.72516667,-7.46540833,1.4,2.0,0.0,5,0.0,0.4,97.0,1014.1,S
2026-01-17 05:00:00,1210619,Cabril,41.71666667,-8.01666667,1.8,2.4,,1,0.0,0.5,99.0,,N
2026-01-17 05:00:00,1210622,"Braga, Merelim",41.56678056,-8.45003056,9.4,2.6,0.1,3,2.5,2.6,100.0,1014.6,E
2026-01-17 05:00:00,1210625,Guimarães,41.4289,-8.3178,,3.2,0.0,0,,,96.0,1014.0,
2026-01-17 05:00:00,1210630,Cabeceiras de Basto,41.53333333,-7.96666667,1.4,3.9,0.0,5,0.0,0.4,100.0,,S
