obs_datetime,station_id,station_name,lat,lon,intensidadeVentoKM,temperatura,radiacao,idDireccVento,precAcumulada,intensidadeVento,humidade,pressao,direccVento_txt
2026-01-20 00:00:00,11217160,Santa Maria / Praia Formosa (DROTRH),36.9542,-25.0917,6.1,11.3,0.0,2,0.0,1.7,80.0,,NE
2026-01-20 00:00:00,11217165,Santa Maria / Maia (DROTRH),36.9412,-25.0176,10.1,11.5,0.0,7,0.0,2.8,78.0,,W
2026-01-20 00:00:00,11217217,São Miguel / Santana (DROTRH),37.8049,-25.5618,7.6,11.3,0.0,7,0.0,2.1,82.0,,W
2026-01-20 00:00:00,11217225,São Miguel / Sete Cidades (DROTRH),37.8679,-25.772,3.6,7.9,0.0,5,0.0,1.0,99.0,,S
2026-01-20 00:00:00,11217255,São Miguel / Lagoa das Furnas (DROTRH),37.7619,-25.3291,1.8,8.6,0.0,3,0.0,0.5,91.0,,E
2026-01-20 00:00:00,11217370,Terceira / Ribeira das Nove (DROTRH),38.754,-27.3245,4.7,9.4,0.0,6,0.0,1.3,74.0,,SW
2026-01-20 00:00:00,11217372,Terceira / Serra do Cume (DROTRH),38.7002,-27.1031,22.0,9.9,0.0,7,0.0,6.1,100.0,,W
2026-01-20 00:00:00,11217430,Graciosa / Serra das Fontes (DROTRH),39.0672,-28.0038,22.3,12.2,0.0,8,0.0,6.2,93.0,,NW
2026-01-20 00:00:00,11217510,São Jorge / Pico do Areeiro (DROTRH),38.6435,-28.0591,28.8,8.3,0.0,6,0.0,8.0,95.0,,SW
2026-01-20 00:00:00,11217645,Pico / Cabecinho (DROTRH),38.4338,-28.1141,8.6,9.4,0.0,7,0.0,2.4,81.0,,W
2026-01-20 00:00:00,11217710,Faial / Alto do Cabouco (DROTRH),38.587,-28.6992,,8.8,0.0,3,0.0,,99.0,,E
2026-01-20 00:00:00,11217730,Faial / Cabeço Verde (DROTRH),38.5843,-28.7576,11.9,10.2,0.0,5,0.0,3.3,99.0,,S
2026-01-20 00:00:00,1200501,Flores (Aeródromo),39.45819,-31.1301,10.4,16.2,0.0,4,0.1,2.9,92.0,1028.0,SE
2026-01-20 00:00:00,1200502,Corvo (Aeródromo),39.67389,-31.11362,28.4,16.2,0.0,7,0.0,7.9,95.0,1027.4,W
2026-01-20 00:00:00,1200504,Pico (Aeródromo),38.55219,-28.44137,15.5,13.2,0.0,6,0.0,4.3,81.0,1029.7,SW
2026-01-20 00:00:00,1200505,Horta / Aeroporto,38.5211,-28.7128,17.3,14.8,,7,0.0,4.8,78.0,1030.0,W
2026-01-20 00:00:00,1200506,Horta (Obs. Principe Alberto),38.540781,-28.63225,28.1,14.2,0.0,6,0.0,7.8,83.0,1030.2,SW
2026-01-20 00:00:00,1200510,São Jorge,38.66,-28.17,9.4,13.1,0.0,7,0.0,2.6,88.0,1029.9,W
2026-01-20 00:00:00,1200511,Angra do Heroísmo,38.6659435,-27.216567,14.0,13.5,0.0,7,0.0,3.9,82.0,1029.6,W
2026-01-20 00:00:00,1200512,P. Delgada (Aeródromo),37.74414,-25.6953048,18.0,13.4,0.0,7,0.0,5.0,73.0,1029.9,W
2026-01-20 00:00:00,1200515,Santa Maria (Aeródromo),36.967175,-25.1679,12.6,13.3,0.0,7,0.0,3.5,70.0,1030.5,W
2026-01-20 00:00:00,1200521,Santa Catarina (Aeródromo),32.69688,-16.77612,,15.1,0.0,0,0.0,,67.0,1027.9,
2026-01-20 00:00:00,1200522,Funchal,32.64786,-16.888,5.0,16.0,0.0,2,0.0,1.4,64.0,1027.9,NE
2026-01-20 00:00:00,1200524,Porto Santo,33.074029,-16.34868,12.2,14.6,0.2,9,0.0,3.4,85.0,1027.7,N
2026-01-20 00:00:00,1200531,Cabo Carvoeiro,39.38,-9.40737778,19.1,12.5,,9,0.0,5.3,72.0,1021.9,N
2026-01-20 00:00:00,1200533,Sagres,37.012835,-8.949089,9.7,11.5,,1,0.0,2.7,73.0,1022.1,N
2026-01-20 00:00:00,1200535,Lisboa (Geofísico),38.71907778,-9.14972222,5.0,9.4,0.0,6,0.0,1.4,100.0,1022.1,SW
2026-01-20 00:00:00,1200541,Sines,37.954504,-8.838271,6.5,8.8,0.0,3,0.0,1.8,100.0,1022.0,E
2026-01-20 00:00:00,1200545,"Porto, Pedras Rubras (Aeródromo)",41.233502,-8.681332,9.0,5.5,0.0,3,0.0,2.5,97.0,1022.1,E
2026-01-20 00:00:00,1200548,Coimbra (Aeródromo),40.15006944,-8.46669167,1.8,6.8,0.0,4,0.0,0.5,100.0,1022.3,SE
2026-01-20 00:00:00,1200551,"Viana Castelo, Chafé",41.648875,-8.804606,10.4,3.6,0.0,3,0.0,2.9,100.0,1022.1,E
2026-01-20 00:00:00,1200554,Faro (Aeródromo),37.016579,-7.971953,9.4,9.8,0.0,8,0.0,2.6,85.0,1021.6,NW
2026-01-20 00:00:00,1200558,Évora (C.Coordenação),38.53336389,-7.88338056,2.9,6.7,0.0,2,0.0,0.8,,1021.7,NE
2026-01-20 00:00:00,1200559,Viseu (Aeródromo),40.72645,-7.887472,5.4,2.3,,9,0.0,1.5,99.0,1023.0,N
2026-01-20 00:00:00,1200560,Viseu (C.Coordenação),40.71492222,-7.89592222,11.9,2.8,,8,0.0,3.3,97.0,1023.2,NW
2026-01-20 00:00:00,1200562,Beja,38.02493056,-7.867275,9.7,6.8,0.0,7,0.0,2.7,100.0,1021.3,W
2026-01-20 00:00:00,1200567,Vila Real,41.27418611,-7.7171,1.8,3.1,0.0,2,0.0,0.5,100.0,1023.1,NE
2026-01-20 00:00:00,1200568,Penhas Douradas,40.41136667,-7.55865278,16.2,-0.1,0.0,7,,4.5,97.0,,W
2026-01-20 00:00:00,1200570,Castelo Branco,39.83339444,-7.46678889,5.0,5.8,0.0,7,0.0,1.4,100.0,1020.9,W
2026-01-20 00:00:00,1200571,Portalegre,39.29546944,-7.41996944,12.6,5.4,0.0,9,0.0,3.5,90.0,1021.6,N
2026-01-20 00:00:00,1200575,Bragança,41.80388889,-6.74283889,7.9,0.9,0.0,8,0.0,2.2,87.0,1023.3,NW
2026-01-20 00:00:00,1200576,Bragança (Aeródromo),41.85763611,-6.70796389,,-0.4,,0,0.0,,92.0,1023.2,
2026-01-20 00:00:00,1200843,Évora (Aeródromo),38.5296,-7.8916,0.0,7.2,,0,0.0,0.0,90.0,1021.4,
2026-01-20 00:00:00,1210513,P. Delgada (Obs. A. Chaves),37.7464,-25.662283,2.5,10.8,0.2,2,0.0,0.7,78.0,,NE
2026-01-20 00:00:00,1210517,Flores / Morro Alto,39.4633,-31.2207,52.2,,,6,0.9,14.5,,1024.7,SW
2026-01-20 00:00:00,1210518,São Miguel - Pico Santos De Cima,37.819,-25.7512,19.4,6.2,,8,0.0,5.4,100.0,1030.8,NW
2026-01-20 00:00:00,1210520,Ilhas selvagens,30.140595,-15.869153,26.3,15.4,0.0,2,0.0,7.3,73.0,1026.3,NE
2026-01-20 00:00:00,1210550,Coruche / Cruz Do Leão,39.07101,-8.4,4.7,5.4,,8,0.0,1.3,100.0,1022.1,NW
2026-01-20 00:00:00,1210553,Loulé / Cavalos De Caldeirão,37.3042,-7.9534,24.5,6.6,,9,0.0,6.8,100.0,1022.8,N
2026-01-20 00:00:00,1210577,"Odemira, S.Teotónio",37.54710833,-8.72899167,2.2,9.1,0.0,3,0.0,0.6,94.0,,E
2026-01-20 00:00:00,1210580,"Lisboa, Relógio",38.7618,-9.1254,,9.0,,0,0.0,,87.0,1022.5,
2026-01-20 00:00:00,1210604,V.N.Cerveira (Aeródromo),41.96673056,-8.66676111,4.7,2.9,0.0,4,0.0,1.3,100.0,1021.6,SE
2026-01-20 00:00:00,1210605,"Monção, Valinha",42.06669,-8.383347,1.4,3.7,0.0,2,0.0,0.4,99.0,,NE
2026-01-20 00:00:00,1210606,"Lamas de Mouro, P.Ribeiro",42.03333333,-8.18333333,3.2,-0.9,0.0,3,0.0,0.9,100.0,1025.0,E
2026-01-20 00:00:00,1210611,Montalegre,41.82276667,-7.78797778,2.9,0.2,0.0,6,0.0,0.8,99.0,,SW
2026-01-20 00:00:00,1210612,Vinhais,41.8434,-7.0034416,5.0,1.5,,0,0.0,1.4,85.0,,
2026-01-20 00:00:00,1210615,Ponte de Lima,41.75013889,-8.56671389,0.7,3.2,0.0,3,0.0,0.2,99.0,,E
2026-01-20 00:00:00,1210616,Chaves (Aeródromo),41.72516667,-7.46540833,2.5,1.3,0.0,6,0.0,0.7,94.0,1022.8,SW
2026-01-20 00:00:00,1210619,Cabril,41.71666667,-8.01666667,2.5,3.3,,1,0.0,0.7,92.0,,N
2026-01-20 00:00:00,1210622,"Braga, Merelim",41.56678056,-8.45003056,2.5,3.1,0.0,6,0.0,0.7,100.0,1022.5,SW
2026-01-20 00:00:00,1210625,Guimarães,41.4289,-8.3178,,3.6,0.0,0,,,95.0,1022.6,
2026-01-20 00:00:00,1210630,Cabeceiras de Basto,41.53333333,-7.96666667,1.8,2.2,0.0,7,0.0,0.5,100.0,,W
2026-01-20 00:00:00,1210632,Mirandela,41.51478611,-7.19083889,2.5,2.0,0.0,7,0.0,0.7,90.0,,W
2026-01-20 00:00:00,1210633,"Macedo Cavaleiros, Bagueixe",41.56666667,-6.78333333,4.0,-0.6,,8,0.0,1.1,97.0,,NW
2026-01-20 00:00:00,1210635,Miranda do Douro,41.51666667,-6.28333333,1.1,-0.2,,2,0.0,0.3,99.0,,NE
2026-01-20 00:00:00,1210637,Mogadouro,41.33333333,-6.73333333,1.4,3.4,0.0,6,0.0,0.4,88.0,,SW
2026-01-20 00:00:00,1210643,Paços Ferreira,41.27365,-8.38012,1.8,1.3,,7,0.0,0.5,100.0,,W
2026-01-20 00:00:00,1210644,Carrazêda de Ansiães,41.23333333,-7.28333333,0.4,0.7,0.0,7,0.0,0.1,91.0,,W
2026-01-20 00:00:00,1210654,Moncorvo,41.18333333,-7.01666667,0.7,3.1,0.0,6,0.0,0.2,84.0,1022.5,SW
2026-01-20 00:00:00,1210655,"Pinhão, Santa Bárbara",41.172775,-7.5489722,9.0,5.8,,9,0.0,2.5,90.0,,N
2026-01-20 00:00:00,1210657,Luzim,41.14585,-8.2490333,3.2,3.7,0.0,8,0.0,0.9,99.0,,NW
2026-01-20 00:00:00,1210663,Moimenta da Beira,40.98333333,-7.6,7.6,2.4,0.0,8,0.0,2.1,93.0,,NW
2026-01-20 00:00:00,1210666,"Trancoso, Bandarra",40.78333333,-7.36666667,2.2,2.3,0.0,8,0.0,0.6,95.0,,NW
2026-01-20 00:00:00,1210669,Arouca,40.93333333,-8.25,1.4,2.8,0.0,4,0.0,0.4,99.0,,SE
2026-01-20 00:00:00,1210671,"F. Castelo Rodrigo, V.Torpim",40.75,-6.88333333,0.7,3.4,0.0,5,0.0,0.2,97.0,,S
2026-01-20 00:00:00,1210683,Guarda,40.53333333,-7.26666667,10.4,1.5,0.0,8,0.0,2.9,96.0,,NW
2026-01-20 00:00:00,1210685,Nelas,40.51666667,-7.85,0.0,3.8,0.0,0,0.0,0.0,99.0,,
2026-01-20 00:00:00,1210686,"Pampilhosa da Serra, Fajão",40.145653,-7.92704,21.2,2.7,,9,0.0,5.9,94.0,,N
2026-01-20 00:00:00,1210687,Covilhã (Aeródromo),40.264309,-7.482302,5.4,3.6,0.0,9,,1.5,84.0,,N
2026-01-20 00:00:00,1210690,Aldeia Souto (Q. Lageosa),40.35425833,-7.38931111,3.6,4.8,0.0,7,0.0,1.0,71.0,,W
2026-01-20 00:00:00,1210697,Lousã (Aeródromo),40.143922,-8.244066,5.4,5.6,,4,0.0,1.5,100.0,,SE
2026-01-20 00:00:00,1210698,Fundão,40.14063611,-7.55362778,3.6,5.9,0.0,6,0.0,1.0,79.0,,SW
2026-01-20 00:00:00,1210702,Aveiro (Universidade),40.63529722,-8.65958333,0.7,5.7,0.0,4,0.0,0.2,99.0,1022.5,SE
2026-01-20 00:00:00,1210704,Dunas de Mira,40.445955,-8.76168055,2.2,4.1,0.0,6,0.0,0.6,99.0,,SW
2026-01-20 00:00:00,1210705,Anadia,40.438852,-8.439996,1.8,4.8,0.0,2,0.0,0.5,97.0,,NE
2026-01-20 00:00:00,1210707,"Coimbra, Bencanta",40.2134694,-8.45515277,3.6,4.2,0.0,7,0.0,1.0,100.0,,W
2026-01-20 00:00:00,1210713,"Figueira da Foz, Vila Verde",40.139764,-8.805945,8.3,3.5,0.0,2,0.0,2.3,,,NE
2026-01-20 00:00:00,1210716,Ansião,39.9,-8.4,4.7,5.6,0.0,9,0.0,1.3,99.0,,N
2026-01-20 00:00:00,1210718,Leiria (Aeródromo),39.780553,-8.818166,2.5,4.8,0.0,4,0.0,0.7,100.0,1022.5,SE
2026-01-20 00:00:00,1210724,"Tomar, Valdonas",39.6,-8.36666667,5.8,5.1,470.1,8,0.0,1.6,98.0,,NW
2026-01-20 00:00:00,1210726,Alcobaça,39.51666667,-8.96666667,0.7,5.5,0.0,6,0.0,0.2,95.0,,SW
2026-01-20 00:00:00,1210729,Rio Maior,39.35,-8.93333333,4.3,5.3,12.7,9,0.0,1.2,99.0,,N
2026-01-20 00:00:00,1210734,"Santarém, Fonte Boa",39.201216,-8.736656,7.6,7.3,0.0,4,0.0,2.1,92.0,1022.0,SE
2026-01-20 00:00:00,1210735,Chamusca / Chouto,39.27,-8.3508,5.8,3.7,,8,0.0,1.6,100.0,1022.2,NW
2026-01-20 00:00:00,1210739,"Torres Vedras, Dois Portos",39.04389444,-9.179,0.0,5.8,0.0,0,0.0,0.0,99.0,,
2026-01-20 00:00:00,1210744,Coruche,38.94096667,-8.51073611,2.2,4.0,0.0,7,0.0,0.6,,,W
2026-01-20 00:00:00,1210746,Santa Cruz (Aeródromo),39.12594166,-9.3790388,2.2,6.4,0.0,4,0.0,0.6,94.0,1021.9,SE
2026-01-20 00:00:00,1210750,Cabo da Roca,38.78171,-9.4975361,13.3,10.8,0.0,2,0.0,3.7,81.0,,NE
2026-01-20 00:00:00,1210752,Sintra/Tapada do Mouco,38.781669,-9.400398,6.8,6.5,,8,0.0,1.9,99.0,,NW
2026-01-20 00:00:00,1210762,"Lisboa, Tapada da Ajuda",38.70956111,-9.182825,2.5,7.2,0.0,6,0.0,0.7,99.0,,SW
2026-01-20 00:00:00,1210765,Cabo Raso,38.70900833,-9.48538333,3.2,8.7,,3,0.0,0.9,86.0,,E
2026-01-20 00:00:00,1210766,"Barreiro, Lavradio",38.67448611,-9.04766111,7.2,10.5,0.0,8,0.0,2.0,84.0,,NW
2026-01-20 00:00:00,1210767,Pegões,38.65079,-8.63503,2.2,5.8,0.0,9,0.0,0.6,100.0,,N
2026-01-20 00:00:00,1210770,Setúbal,38.54846008,-8.89077058,4.3,8.3,0.0,9,0.0,1.2,90.0,,N
2026-01-20 00:00:00,1210773,"Almada, P.Rainha",38.617111,-9.212804,4.7,,0.0,2,0.0,1.3,,,NE
2026-01-20 00:00:00,1210776,"Alcácer do Sal, Barrosinha",38.36666667,-8.48333333,4.3,7.5,0.0,8,0.0,1.2,96.0,,NW
2026-01-20 00:00:00,1210783,Alvalade,37.946806,-8.394504,7.9,5.5,0.0,6,0.0,2.2,98.0,,SW
2026-01-20 00:00:00,1210785,Ourique / Santana Da Serra,37.5025,-8.3019,4.7,7.1,0.0,3,0.0,1.3,98.0,1022.6,E
2026-01-20 00:00:00,1210789,Aljezur,37.31675278,-8.80001667,1.8,9.3,0.7,3,0.0,0.5,94.0,,E
2026-01-20 00:00:00,1210790,Fóia,37.3143,-8.595733,34.2,4.8,0.1,9,0.1,9.5,,,N
2026-01-20 00:00:00,1210800,"Sabugal, Martim Rei",40.33918056,-7.03693333,6.5,1.2,0.0,2,0.0,1.8,97.0,,NE
2026-01-20 00:00:00,1210803,Zebreira,39.86666667,-7.01666667,9.0,5.3,0.0,8,0.0,2.5,84.0,,NW
2026-01-20 00:00:00,1210806,"Proença-a-Nova, P.Moitas",39.73333333,-7.86666667,5.4,5.5,0.0,8,0.0,1.5,81.0,,NW
2026-01-20 00:00:00,1210812,Alvega,39.46666667,-8.05,2.2,2.9,,4,0.0,0.6,100.0,,SE
2026-01-20 00:00:00,1210824,"Avis, Benavila",39.1,-7.86666667,6.8,6.7,0.0,7,0.0,1.9,99.0,,W
2026-01-20 00:00:00,1210826,Mora,38.94068,-8.16406,4.3,6.9,0.0,8,0.0,1.2,97.0,,NW
2026-01-20 00:00:00,1210835,Elvas,38.8908,-7.13976111,11.2,7.4,0.0,8,0.0,3.1,86.0,,NW
2026-01-20 00:00:00,1210837,Estremoz,38.86666667,-7.51666667,5.4,5.4,0.0,7,0.0,1.5,100.0,,W
2026-01-20 00:00:00,1210840,"Reguengos, S. P. do Corval",38.484866,-7.4729166,13.3,6.0,0.0,8,0.0,3.7,97.0,,NW
2026-01-20 00:00:00,1210846,Montemor-O-Novo,38.6451,-8.1991,8.6,6.4,,8,0.0,2.4,100.0,1022.9,NW
2026-01-20 00:00:00,1210847,Viana do Alentejo,38.3319194,-8.04553888,5.8,6.5,0.0,9,,1.6,,,N
2026-01-20 00:00:00,1210848,"Portel, Oriola",38.31666667,-7.86666667,1.8,6.5,,7,0.0,0.5,96.0,,W
2026-01-20 00:00:00,1210851,Amareleja,38.2007,-7.2261,5.8,,0.0,3,0.0,1.6,,1021.2,E
2026-01-20 00:00:00,1210863,"Mértola, Vale Formoso",37.75,-7.55,2.5,6.8,0.0,7,0.0,0.7,96.0,,W
2026-01-20 00:00:00,1210864,"Castro Verde, N.Corvo",37.57655833,-7.97211389,6.5,8.0,0.0,7,0.0,1.8,99.0,,W
2026-01-20 00:00:00,1210865,"Alcoutim, Mart.Longo",37.43333333,-7.76666667,10.4,8.2,,7,0.0,2.9,96.0,1022.3,W
2026-01-20 00:00:00,1210866,Vila Real de S.António,37.1871055,-7.416325,,9.7,,0,0.0,,86.0,,
2026-01-20 00:00:00,1210867,Castro Marim (RN Sapal),37.21666667,-7.45,12.6,9.1,0.0,8,0.0,3.5,91.0,,NW
2026-01-20 00:00:00,1210874,Albufeira,37.0935,-8.262,23.0,9.1,,9,0.0,6.4,94.0,,N
2026-01-20 00:00:00,1210878,Portimão (Aeródromo),37.149167,-8.581389,2.9,9.7,0.0,9,0.0,0.8,86.0,1021.9,N
2026-01-20 00:00:00,1210881,"Olhão, EPPO",37.033,-7.821,2.5,11.2,0.0,3,0.0,0.7,79.0,1022.1,E
2026-01-20 00:00:00,1210883,Tavira,37.12166968,-7.62050375,4.7,10.1,,2,0.0,1.3,83.0,1022.7,NE
2026-01-20 00:00:00,1210907,Faja / Ilha das Flores,39.45328,-31.2647,,16.3,,0,,,98.0,1029.0,
2026-01-20 00:00:00,1210932,"S. Miguel, Nordeste",37.83256,-25.150108,5.8,10.1,,7,0.0,1.6,82.0,,W
2026-01-20 00:00:00,1210956,"Madeira, Porto Moniz",32.867477,-17.171373,,15.5,0.1,0,0.0,,70.0,,
2026-01-20 00:00:00,1210960,"Madeira, S. Jorge, Santana",32.83446944,-16.906219,6.8,13.1,0.0,7,0.0,1.9,81.0,1028.4,W
2026-01-20 00:00:00,1210965,"Madeira, Santana",32.808238,-16.8864166,,10.9,29.8,0,0.0,,87.0,,
2026-01-20 00:00:00,1210967,"Madeira, São Vicente",32.8001833,-17.044722,,11.9,0.0,0,0.0,,86.0,,
2026-01-20 00:00:00,1210972,"Madeira, Pico Alto",32.693491,-16.903955,7.9,6.2,0.0,2,,2.2,,,NE
2026-01-20 00:00:00,1210973,"Madeira, Areeiro",32.71666667,-16.91666667,3.2,4.2,0.0,2,0.0,0.9,59.0,,NE
2026-01-20 00:00:00,1210974,"Madeira, Pico do Areeiro",32.735107,-16.928271,,5.0,,0,0.0,,19.0,,
2026-01-20 00:00:00,1210975,"Madeira, Santo da Serra",32.7258972,-16.816822,,8.5,0.0,0,0.0,,98.0,,
2026-01-20 00:00:00,1210976,"Madeira, Monte",32.675833,-16.906944,6.5,10.4,0.1,2,0.0,1.8,79.0,,NE
2026-01-20 00:00:00,1210977,"Madeira, Cancela",32.64500556,-16.86575,4.7,13.8,0.0,2,0.0,1.3,84.0,,NE
2026-01-20 00:00:00,1210978,"Madeira, S. Lourenço",32.747,-16.706,22.0,14.9,0.0,9,0.0,6.1,83.0,,N
2026-01-20 00:00:00,1210984,"Madeira, Quinta Grande",32.6629722,-17.01503611,,11.1,0.0,0,0.0,,66.0,,
2026-01-20 00:00:00,1210986,Ponta do Sol/Lugar de Baixo,32.681502,-17.104167,7.2,16.2,0.0,2,0.0,2.0,65.0,,NE
2026-01-20 00:00:00,1210987,Prazeres (Calheta),32.757205,-17.201551,10.4,10.2,0.0,3,0.0,2.9,78.0,,E
2026-01-20 00:00:00,1240546,"Porto, Serra do Pilar",41.1385194,-8.6025,10.4,5.1,1321.9,4,0.0,2.9,100.0,1021.8,SE
2026-01-20 00:00:00,1240566,Vila Real (Cidade),41.30898056,-7.740522,2.9,3.5,,3,0.0,0.8,94.0,,E
2026-01-20 00:00:00,1240610,Viana do Castelo,41.695,-8.82916,,6.6,,0,0.0,,90.0,,
2026-01-20 00:00:00,1240903,"Porto, Massarelos",41.15257,-8.62598,,6.3,,0,,,100.0,,
2026-01-20 00:00:00,1240971,"Madeira, Funchal, Lido",32.63655,-16.935592,0.0,16.7,0.0,0,0.0,0.0,66.0,,
2026-01-20 00:00:00,1259201,Lousã/Trevim,40.09328521,-8.17904215,11.2,0.2,,8,0.0,3.1,100.0,,NW
2026-01-20 00:00:00,1259202,Lousã/Candal,40.08090803,-8.20484533,,8.0,,0,,,72.0,,
2026-01-20 00:00:00,1259203,Seia/Aeródromo,40.45517056,-7.68614846,0.4,-0.7,,9,0.0,0.1,99.0,1023.6,N
2026-01-20 00:00:00,1259204,Seia/Senhora do Espinheiro,40.412775,-7.673406,2.9,1.2,,4,0.0,0.8,92.0,1023.3,SE
2026-01-20 00:00:00,5210758,Alcochete / Campo Tiro,38.7627,-8.7825,,5.3,,0,0.0,,99.0,1021.9,
2026-01-20 00:00:00,6210872,Loulé (CML),37.129946,-8.06523593,15.1,9.5,,1,,4.2,88.0,1021.7,N
2026-01-20 00:00:00,6210879,Portimão (Praia da Rocha),37.11670461,-8.52946314,10.1,11.3,,1,0.0,2.8,82.0,,N
2026-01-20 00:00:00,6211211,Monção - Guimil (CIM),42.042944,-8.421872,2.9,,0.0,5,,0.8,,1020.2,S
2026-01-20 00:00:00,6211213,Paredes De Coura - Vascões (CIM),41.913444,-8.492111,2.5,2.5,1.5,7,,0.7,99.0,1022.3,W
2026-01-20 00:00:00,6211216,Arcos De Valdevez - Heliporto (CIM),41.831,-8.44375,2.5,4.5,,4,0.0,0.7,92.0,1022.7,SE
2026-01-20 00:00:00,6211218,Ponte De Lima - Anais (CIM),41.698083,-8.522444,2.2,4.5,0.0,2,,0.6,89.0,1022.1,NE
2026-01-20 00:00:00,6212121,Terras de Bouro/Barral (CIM),41.70225278,-8.31808611,1.8,3.7,,3,0.0,0.5,94.0,1020.0,E
2026-01-20 00:00:00,6212122,Amares Caldelas (CIM),41.66796389,-8.37977778,2.2,3.4,,2,0.0,0.6,95.0,1022.4,NE
2026-01-20 00:00:00,6212123,Vila Verde (CIM),41.64686111,-8.43398056,1.8,3.0,,8,,0.5,91.0,1022.0,NW
2026-01-20 00:00:00,6212124,Braga (CIM),41.53568333,-8.42514722,3.6,6.5,,4,0.0,1.0,88.0,1022.4,SE
2026-01-20 00:00:00,6212125,Barcelos (CIM),41.529375,-8.62705278,1.8,4.3,,4,0.0,0.5,97.0,1023.2,SE
2026-01-20 00:00:00,6212126,Esposende (CIM),41.52645556,-8.77984444,6.1,4.5,,4,0.0,1.7,98.0,1022.6,SE
2026-01-20 00:00:00,6213012,Carregal do Sal (CIM),40.46718056,-7.92626389,2.2,3.0,,7,,0.6,98.0,,W
2026-01-20 00:00:00,6213013,Castro Daire / Mézio (CIM),40.98086111,-7.88318889,7.2,0.5,,2,,2.0,98.0,,NE
2026-01-20 00:00:00,6213014,Mangualde / Chãs de Tavares  (CIM),40.61096111,-7.60838889,7.6,3.3,,6,0.0,2.1,94.0,,SW
2026-01-20 00:00:00,6213016,Oliveira de Frades (CIM),40.716925,-8.20133889,4.0,4.5,,6,,1.1,85.0,,SW
2026-01-20 00:00:00,6213017,Penalva do Castelo (CIM),40.65706389,-7.69655278,5.0,1.2,,7,0.0,1.4,100.0,,W
2026-01-20 00:00:00,6213020,Satão (CIM),40.76072778,-7.72019722,2.9,2.3,,8,0.0,0.8,93.0,,NW
2026-01-20 00:00:00,6213022,Vila Nova de Paiva (CIM),40.85595,-7.72716389,8.3,1.4,,8,0.0,2.3,,,NW
2026-01-20 00:00:00,6213611,Arganil / Aeródromo (CIM),40.274578,-7.974399,1.1,2.2,,3,0.0,0.3,100.0,,E
2026-01-20 00:00:00,6213612,Cantanhede / Fonte Dom Pedro (CIM),40.341894,-8.577613,5.4,2.6,,5,0.2,1.5,96.0,,S
2026-01-20 00:00:00,6213613,Coimbra / Mata de São Pedro (CIM),40.330787,-8.374887,1.4,4.3,,7,,0.4,100.0,,W
2026-01-20 00:00:00,6213615,Mealhada / Quinta do Vale (CIM),40.373343,-8.4388429,3.2,3.2,,4,0.0,0.9,99.0,,SE
2026-01-20 00:00:00,6213616,Mortágua / Aeródromo (CIM),40.426239,-8.232142,3.6,3.8,,2,0.0,1.0,99.0,,NE
2026-01-20 00:00:00,6213617,Penacova / Hombres (CIM),40.280921,-8.198685,2.2,,,4,0.1,0.6,100.0,,SE
2026-01-20 00:00:00,6213619,Vila Nova de Poiares (CIM),40.211411,-8.241995,2.2,3.9,,3,0.0,0.6,96.0,,E
2026-01-20 00:00:00,6213620,Oliveira do Hospital (CIM),40.413306,-7.867972,3.2,0.5,,3,0.0,0.9,99.0,,E
2026-01-20 00:00:00,6214119,Pedrógão Grande (CMPG),39.926573,-8.150912,7.9,4.9,,2,0.0,2.2,93.0,1022.6,NE
2026-01-20 00:00:00,6215302,"Lisboa, Carnide (CML)",38.7751,-9.1855,3.6,8.7,,6,0.0,1.0,94.0,1021.8,SW
2026-01-20 00:00:00,6215360,Oeiras / Vila Fria (CMO),38.7239536,-9.2939255,6.1,8.8,0.0,7,0.0,1.7,90.0,1022.8,W
2026-01-20 00:00:00,7240919,"Lisboa, Amoreiras (LFCL)",38.7239,-9.1649,2.9,7.7,,6,0.0,0.8,98.0,1022.8,SW
2026-01-20 01:00:00,11217160,Santa Maria / Praia Formosa (DROTRH),36.9542,-25.0917,7.9,11.9,0.0,3,0.0,2.2,79.0,,E
2026-01-20 01:00:00,11217165,Santa Maria / Maia (DROTRH),36.9412,-25.0176,4.7,11.7,0.0,7,0.0,1.3,79.0,,W
2026-01-20 01:00:00,11217217,São Miguel / Santana (DROTRH),37.8049,-25.5618,7.2,11.6,0.0,6,0.0,2.0,83.0,,SW
2026-01-20 01:00:00,11217225,São Miguel / Sete Cidades (DROTRH),37.8679,-25.772,7.9,10.1,0.0,5,0.0,2.2,92.0,,S
2026-01-20 01:00:00,11217255,São Miguel / Lagoa das Furnas (DROTRH),37.7619,-25.3291,1.4,8.4,0.0,3,0.0,0.4,92.0,,E
2026-01-20 01:00:00,11217370,Terceira / Ribeira das Nove (DROTRH),38.754,-27.3245,5.0,8.3,0.0,6,0.0,1.4,89.0,,SW
2026-01-20 01:00:00,11217372,Terceira / Serra do Cume (DROTRH),38.7002,-27.1031,16.9,9.8,0.0,7,0.0,4.7,100.0,,W
2026-01-20 01:00:00,11217430,Graciosa / Serra das Fontes (DROTRH),39.0672,-28.0038,23.4,12.6,0.0,8,0.0,6.5,96.0,,NW
2026-01-20 01:00:00,11217510,São Jorge / Pico do Areeiro (DROTRH),38.6435,-28.0591,36.4,8.5,0.0,6,0.0,10.1,94.0,,SW
2026-01-20 01:00:00,11217645,Pico / Cabecinho (DROTRH),38.4338,-28.1141,16.6,9.5,0.0,6,0.0,4.6,95.0,,SW
2026-01-20 01:00:00,11217710,Faial / Alto do Cabouco (DROTRH),38.587,-28.6992,,9.1,0.0,3,0.0,,99.0,,E
2026-01-20 01:00:00,11217730,Faial / Cabeço Verde (DROTRH),38.5843,-28.7576,12.2,10.8,0.0,5,0.0,3.4,99.0,,S
2026-01-20 01:00:00,1200501,Flores (Aeródromo),39.45819,-31.1301,8.3,16.9,0.0,8,0.0,2.3,88.0,1027.5,NW
2026-01-20 01:00:00,1200502,Corvo (Aeródromo),39.67389,-31.11362,28.4,16.2,0.0,7,0.0,7.9,97.0,1027.1,W
2026-01-20 01:00:00,1200504,Pico (Aeródromo),38.55219,-28.44137,15.5,14.1,0.0,6,0.0,4.3,82.0,1029.2,SW
2026-01-20 01:00:00,1200505,Horta / Aeroporto,38.5211,-28.7128,16.2,15.3,,7,0.0,4.5,79.0,1029.5,W
2026-01-20 01:00:00,1200506,Horta (Obs. Principe Alberto),38.540781,-28.63225,27.4,15.1,0.0,6,0.0,7.6,84.0,1029.7,SW
2026-01-20 01:00:00,1200510,São Jorge,38.66,-28.17,6.1,13.6,0.0,8,0.0,1.7,90.0,1029.7,NW
2026-01-20 01:00:00,1200511,Angra do Heroísmo,38.6659435,-27.216567,6.5,13.0,0.0,8,0.0,1.8,84.0,1029.6,NW
2026-01-20 01:00:00,1200512,P. Delgada (Aeródromo),37.74414,-25.6953048,25.6,13.7,0.0,7,0.0,7.1,75.0,1029.8,W
2026-01-20 01:00:00,1200515,Santa Maria (Aeródromo),36.967175,-25.1679,15.8,13.3,0.0,8,0.0,4.4,70.0,1030.5,NW
2026-01-20 01:00:00,1200521,Santa Catarina (Aeródromo),32.69688,-16.77612,,15.3,0.0,0,0.0,,66.0,1027.0,
2026-01-20 01:00:00,1200522,Funchal,32.64786,-16.888,4.7,15.8,0.0,1,0.0,1.3,65.0,1027.1,N
2026-01-20 01:00:00,1200524,Porto Santo,33.074029,-16.34868,1.4,13.8,0.0,9,0.0,0.4,80.0,1026.6,N
2026-01-20 01:00:00,1200531,Cabo Carvoeiro,39.38,-9.40737778,24.5,12.6,,9,0.0,6.8,69.0,1021.9,N
2026-01-20 01:00:00,1200533,Sagres,37.012835,-8.949089,9.7,10.8,,9,0.0,2.7,78.0,1021.7,N
2026-01-20 01:00:00,1200535,Lisboa (Geofísico),38.71907778,-9.14972222,7.6,8.7,0.0,8,0.0,2.1,100.0,1022.0,NW
2026-01-20 01:00:00,1200541,Sines,37.954504,-8.838271,8.6,8.1,0.0,2,0.0,2.4,100.0,1022.0,NE
2026-01-20 01:00:00,1200545,"Porto, Pedras Rubras (Aeródromo)",41.233502,-8.681332,11.2,5.2,0.0,3,0.0,3.1,98.0,1022.1,E
2026-01-20 01:00:00,1200548,Coimbra (Aeródromo),40.15006944,-8.46669167,3.2,6.7,0.0,4,0.1,0.9,100.0,1022.3,SE
2026-01-20 01:00:00,1200551,"Viana Castelo, Chafé",41.648875,-8.804606,10.8,4.5,0.0,3,0.0,3.0,100.0,1021.9,E
2026-01-20 01:00:00,1200554,Faro (Aeródromo),37.016579,-7.971953,5.0,8.6,0.0,7,0.0,1.4,91.0,1020.9,W
2026-01-20 01:00:00,1200558,Évora (C.Coordenação),38.53336389,-7.88338056,6.1,5.0,0.0,7,0.0,1.7,,1021.8,W
2026-01-20 01:00:00,1200559,Viseu (Aeródromo),40.72645,-7.887472,5.0,1.5,,6,0.0,1.4,99.0,1023.1,SW
2026-01-20 01:00:00,1200560,Viseu (C.Coordenação),40.71492222,-7.89592222,4.7,2.8,,6,0.0,1.3,99.0,1023.2,SW
2026-01-20 01:00:00,1200562,Beja,38.02493056,-7.867275,9.0,6.5,0.0,7,0.0,2.5,100.0,1021.0,W
2026-01-20 01:00:00,1200567,Vila Real,41.27418611,-7.7171,1.8,2.4,0.0,5,0.0,0.5,100.0,1023.0,S
2026-01-20 01:00:00,1200568,Penhas Douradas,40.41136667,-7.55865278,22.3,0.1,0.0,7,,6.2,91.0,,W
2026-01-20 01:00:00,1200570,Castelo Branco,39.83339444,-7.46678889,6.5,5.6,0.0,7,0.0,1.8,100.0,1020.6,W
2026-01-20 01:00:00,1200571,Portalegre,39.29546944,-7.41996944,15.8,5.0,0.0,9,0.0,4.4,94.0,1021.3,N
2026-01-20 01:00:00,1200575,Bragança,41.80388889,-6.74283889,5.8,0.7,0.0,6,0.0,1.6,86.0,1023.1,SW
2026-01-20 01:00:00,1200576,Bragança (Aeródromo),41.85763611,-6.70796389,,-0.8,,0,0.0,,91.0,1023.0,
2026-01-20 01:00:00,1200843,Évora (Aeródromo),38.5296,-7.8916,6.8,5.2,,6,0.0,1.9,95.0,1021.5,SW
2026-01-20 01:00:00,1210513,P. Delgada (Obs. A. Chaves),37.7464,-25.662283,4.3,11.6,4.9,1,0.0,1.2,78.0,,N
2026-01-20 01:00:00,1210517,Flores / Morro Alto,39.4633,-31.2207,43.9,11.6,,6,1.0,12.2,100.0,1024.9,SW
2026-01-20 01:00:00,1210518,São Miguel - Pico Santos De Cima,37.819,-25.7512,21.6,6.7,,8,0.0,6.0,100.0,1030.6,NW
2026-01-20 01:00:00,1210520,Ilhas selvagens,30.140595,-15.869153,27.0,15.5,0.0,2,0.0,7.5,72.0,1026.0,NE
2026-01-20 01:00:00,1210550,Coruche / Cruz Do Leão,39.07101,-8.4,5.4,5.5,,8,0.0,1.5,100.0,1022.0,NW
2026-01-20 01:00:00,1210553,Loulé / Cavalos De Caldeirão,37.3042,-7.9534,16.6,6.2,,9,0.0,4.6,100.0,1022.0,N
2026-01-20 01:00:00,1210577,"Odemira, S.Teotónio",37.54710833,-8.72899167,3.2,7.9,0.0,3,0.0,0.9,96.0,,E
2026-01-20 01:00:00,1210580,"Lisboa, Relógio",38.7618,-9.1254,,8.2,,0,0.0,,90.0,1022.5,
2026-01-20 01:00:00,1210604,V.N.Cerveira (Aeródromo),41.96673056,-8.66676111,2.5,3.2,0.0,4,0.0,0.7,100.0,1021.5,SE
2026-01-20 01:00:00,1210605,"Monção, Valinha",42.06669,-8.383347,1.1,3.1,0.0,2,0.0,0.3,100.0,,NE
2026-01-20 01:00:00,1210606,"Lamas de Mouro, P.Ribeiro",42.03333333,-8.18333333,3.6,-0.8,0.0,3,0.0,1.0,100.0,1024.6,E
2026-01-20 01:00:00,1210611,Montalegre,41.82276667,-7.78797778,,-0.1,0.0,0,0.0,,99.0,,
2026-01-20 01:00:00,1210612,Vinhais,41.8434,-7.0034416,5.4,1.4,,4,0.0,1.5,83.0,,SE
2026-01-20 01:00:00,1210615,Ponte de Lima,41.75013889,-8.56671389,1.1,3.3,0.0,5,0.0,0.3,99.0,,S
2026-01-20 01:00:00,1210616,Chaves (Aeródromo),41.72516667,-7.46540833,2.5,0.5,0.0,6,0.0,0.7,95.0,1022.9,SW
2026-01-20 01:00:00,1210619,Cabril,41.71666667,-8.01666667,1.1,3.0,,8,0.0,0.3,94.0,,NW
2026-01-20 01:00:00,1210622,"Braga, Merelim",41.56678056,-8.45003056,2.5,2.8,0.0,9,0.0,0.7,100.0,1022.5,N
2026-01-20 01:00:00,1210625,Guimarães,41.4289,-8.3178,,3.0,0.0,0,,,95.0,1022.6,
2026-01-20 01:00:00,1210630,Cabeceiras de Basto,41.53333333,-7.96666667,1.8,1.2,0.0,7,0.0,0.5,100.0,,W
2026-01-20 01:00:00,1210632,Mirandela,41.51478611,-7.19083889,4.0,1.4,0.0,3,0.0,1.1,92.0,,E
2026-01-20 01:00:00,1210633,"Macedo Cavaleiros, Bagueixe",41.56666667,-6.78333333,10.8,-0.4,,7,0.0,3.0,97.0,,W
2026-01-20 01:00:00,1210635,Miranda do Douro,41.51666667,-6.28333333,1.8,-0.9,,3,0.0,0.5,99.0,,E
2026-01-20 01:00:00,1210637,Mogadouro,41.33333333,-6.73333333,10.1,2.9,0.0,6,0.0,2.8,93.0,,SW
2026-01-20 01:00:00,1210643,Paços Ferreira,41.27365,-8.38012,2.9,0.6,,3,0.0,0.8,100.0,,E
2026-01-20 01:00:00,1210644,Carrazêda de Ansiães,41.23333333,-7.28333333,0.7,-0.5,0.4,9,0.0,0.2,92.0,,N
2026-01-20 01:00:00,1210654,Moncorvo,41.18333333,-7.01666667,0.4,2.5,0.0,5,0.0,0.1,86.0,1022.7,S
2026-01-20 01:00:00,1210655,"Pinhão, Santa Bárbara",41.172775,-7.5489722,3.2,5.2,,8,0.0,0.9,91.0,,NW
2026-01-20 01:00:00,1210657,Luzim,41.14585,-8.2490333,1.1,3.3,0.0,9,0.0,0.3,99.0,,N
2026-01-20 01:00:00,1210663,Moimenta da Beira,40.98333333,-7.6,2.5,1.5,0.0,1,0.0,0.7,94.0,,N
2026-01-20 01:00:00,1210666,"Trancoso, Bandarra",40.78333333,-7.36666667,2.2,1.7,0.0,6,0.0,0.6,99.0,,SW
2026-01-20 01:00:00,1210669,Arouca,40.93333333,-8.25,0.7,2.2,0.0,7,0.0,0.2,99.0,,W
2026-01-20 01:00:00,1210671,"F. Castelo Rodrigo, V.Torpim",40.75,-6.88333333,3.2,2.1,0.0,7,0.0,0.9,99.0,,W
2026-01-20 01:00:00,1210683,Guarda,40.53333333,-7.26666667,11.5,1.1,0.0,8,0.0,3.2,99.0,,NW
2026-01-20 01:00:00,1210685,Nelas,40.51666667,-7.85,6.8,4.2,0.0,7,0.0,1.9,99.0,,W
2026-01-20 01:00:00,1210686,"Pampilhosa da Serra, Fajão",40.145653,-7.92704,20.5,1.8,,9,0.0,5.7,99.0,,N
2026-01-20 01:00:00,1210687,Covilhã (Aeródromo),40.264309,-7.482302,0.7,2.8,0.0,2,,0.2,85.0,,NE
2026-01-20 01:00:00,1210690,Aldeia Souto (Q. Lageosa),40.35425833,-7.38931111,2.9,2.9,0.0,1,0.0,0.8,78.0,,N
2026-01-20 01:00:00,1210697,Lousã (Aeródromo),40.143922,-8.244066,2.5,4.9,,6,0.0,0.7,100.0,,SW
2026-01-20 01:00:00,1210698,Fundão,40.14063611,-7.55362778,7.9,4.2,0.0,6,0.0,2.2,88.0,,SW
2026-01-20 01:00:00,1210702,Aveiro (Universidade),40.63529722,-8.65958333,4.3,5.5,0.0,4,0.0,1.2,99.0,1022.4,SE
2026-01-20 01:00:00,1210704,Dunas de Mira,40.445955,-8.76168055,2.2,4.0,0.0,6,0.0,0.6,98.0,,SW
2026-01-20 01:00:00,1210705,Anadia,40.438852,-8.439996,2.2,4.7,0.0,3,0.0,0.6,97.0,,E
2026-01-20 01:00:00,1210707,"Coimbra, Bencanta",40.2134694,-8.45515277,1.1,4.2,0.0,4,0.0,0.3,100.0,,SE
2026-01-20 01:00:00,1210713,"Figueira da Foz, Vila Verde",40.139764,-8.805945,9.0,3.4,0.0,2,0.0,2.5,,,NE
2026-01-20 01:00:00,1210716,Ansião,39.9,-8.4,8.6,5.6,0.0,9,0.0,2.4,99.0,,N
2026-01-20 01:00:00,1210718,Leiria (Aeródromo),39.780553,-8.818166,3.2,4.4,0.0,5,0.0,0.9,100.0,1022.5,S
2026-01-20 01:00:00,1210724,"Tomar, Valdonas",39.6,-8.36666667,4.3,4.9,365.7,2,0.0,1.2,99.0,,NE
2026-01-20 01:00:00,1210726,Alcobaça,39.51666667,-8.96666667,1.4,4.9,0.0,4,0.0,0.4,96.0,,SE
2026-01-20 01:00:00,1210729,Rio Maior,39.35,-8.93333333,2.2,4.7,13.3,7,0.0,0.6,99.0,,W
2026-01-20 01:00:00,1210734,"Santarém, Fonte Boa",39.201216,-8.736656,6.8,6.8,0.0,7,0.0,1.9,95.0,1022.0,W
2026-01-20 01:00:00,1210735,Chamusca / Chouto,39.27,-8.3508,5.4,2.7,,8,0.0,1.5,100.0,1022.1,NW
2026-01-20 01:00:00,1210739,"Torres Vedras, Dois Portos",39.04389444,-9.179,0.7,4.9,0.0,8,0.0,0.2,99.0,,NW
2026-01-20 01:00:00,1210744,Coruche,38.94096667,-8.51073611,3.2,3.6,0.0,7,0.0,0.9,,,W
2026-01-20 01:00:00,1210746,Santa Cruz (Aeródromo),39.12594166,-9.3790388,2.9,5.0,0.0,2,0.0,0.8,96.0,1021.9,NE
2026-01-20 01:00:00,1210750,Cabo da Roca,38.78171,-9.4975361,12.6,10.9,0.0,1,0.1,3.5,82.0,,N
2026-01-20 01:00:00,1210752,Sintra/Tapada do Mouco,38.781669,-9.400398,7.6,6.4,,8,0.0,2.1,100.0,,NW
2026-01-20 01:00:00,1210762,"Lisboa, Tapada da Ajuda",38.70956111,-9.182825,6.5,6.9,0.0,8,0.0,1.8,100.0,,NW
2026-01-20 01:00:00,1210765,Cabo Raso,38.70900833,-9.48538333,2.2,7.3,,3,0.0,0.6,89.0,,E
2026-01-20 01:00:00,1210766,"Barreiro, Lavradio",38.67448611,-9.04766111,6.1,10.5,0.0,7,0.0,1.7,88.0,,W
2026-01-20 01:00:00,1210767,Pegões,38.65079,-8.63503,3.6,5.2,0.0,8,0.0,1.0,100.0,,NW
2026-01-20 01:00:00,1210770,Setúbal,38.54846008,-8.89077058,5.0,6.4,0.0,8,0.0,1.4,93.0,,NW
2026-01-20 01:00:00,1210773,"Almada, P.Rainha",38.617111,-9.212804,4.7,,0.0,2,0.0,1.3,,,NE
2026-01-20 01:00:00,1210776,"Alcácer do Sal, Barrosinha",38.36666667,-8.48333333,2.2,6.3,0.0,7,0.0,0.6,97.0,,W
2026-01-20 01:00:00,1210783,Alvalade,37.946806,-8.394504,4.3,4.1,0.0,5,0.0,1.2,98.0,,S
2026-01-20 01:00:00,1210785,Ourique / Santana Da Serra,37.5025,-8.3019,2.9,5.7,0.0,3,0.0,0.8,98.0,1022.3,E
2026-01-20 01:00:00,1210789,Aljezur,37.31675278,-8.80001667,1.4,7.3,1.0,5,0.0,0.4,98.0,,S
2026-01-20 01:00:00,1210790,Fóia,37.3143,-8.595733,40.3,4.1,0.0,1,0.0,11.2,100.0,,N
2026-01-20 01:00:00,1210800,"Sabugal, Martim Rei",40.33918056,-7.03693333,5.4,1.3,0.0,2,0.0,1.5,96.0,,NE
2026-01-20 01:00:00,1210803,Zebreira,39.86666667,-7.01666667,7.6,4.9,0.0,7,0.0,2.1,85.0,,W
2026-01-20 01:00:00,1210806,"Proença-a-Nova, P.Moitas",39.73333333,-7.86666667,4.7,5.9,0.0,8,0.0,1.3,75.0,,NW
2026-01-20 01:00:00,1210812,Alvega,39.46666667,-8.05,1.1,2.4,,6,0.0,0.3,100.0,,SW
2026-01-20 01:00:00,1210824,"Avis, Benavila",39.1,-7.86666667,4.7,6.2,0.0,7,0.0,1.3,99.0,,W
2026-01-20 01:00:00,1210826,Mora,38.94068,-8.16406,4.3,6.5,0.0,7,0.0,1.2,98.0,,W
2026-01-20 01:00:00,1210835,Elvas,38.8908,-7.13976111,13.7,7.1,0.0,8,0.0,3.8,87.0,,NW
2026-01-20 01:00:00,1210837,Estremoz,38.86666667,-7.51666667,9.7,4.3,0.0,7,0.0,2.7,100.0,,W
2026-01-20 01:00:00,1210840,"Reguengos, S. P. do Corval",38.484866,-7.4729166,15.5,5.4,0.0,7,0.0,4.3,99.0,,W
2026-01-20 01:00:00,1210846,Montemor-O-Novo,38.6451,-8.1991,9.0,6.2,,8,0.0,2.5,100.0,1022.5,NW
2026-01-20 01:00:00,1210848,"Portel, Oriola",38.31666667,-7.86666667,2.9,5.5,,7,0.0,0.8,97.0,,W
2026-01-20 01:00:00,1210851,Amareleja,38.2007,-7.2261,4.0,,0.0,2,0.0,1.1,,1020.8,NE
2026-01-20 01:00:00,1210863,"Mértola, Vale Formoso",37.75,-7.55,5.0,5.9,0.0,7,0.0,1.4,97.0,,W
2026-01-20 01:00:00,1210864,"Castro Verde, N.Corvo",37.57655833,-7.97211389,6.1,7.2,0.0,6,0.0,1.7,99.0,,SW
2026-01-20 01:00:00,1210865,"Alcoutim, Mart.Longo",37.43333333,-7.76666667,15.5,7.6,,8,0.0,4.3,97.0,1021.6,NW
2026-01-20 01:00:00,1210866,Vila Real de S.António,37.1871055,-7.416325,,8.9,,0,0.0,,87.0,,
2026-01-20 01:00:00,1210867,Castro Marim (RN Sapal),37.21666667,-7.45,2.9,8.5,0.0,2,0.0,0.8,94.0,,NE
2026-01-20 01:00:00,1210874,Albufeira,37.0935,-8.262,24.8,8.6,,9,0.0,6.9,93.0,,N
2026-01-20 01:00:00,1210878,Portimão (Aeródromo),37.149167,-8.581389,10.4,6.9,0.0,8,0.0,2.9,94.0,1021.3,NW
2026-01-20 01:00:00,1210881,"Olhão, EPPO",37.033,-7.821,3.2,10.3,0.0,1,0.0,0.9,83.0,1021.5,N
2026-01-20 01:00:00,1210883,Tavira,37.12166968,-7.62050375,5.4,9.3,,8,0.0,1.5,87.0,1022.1,NW
2026-01-20 01:00:00,1210907,Faja / Ilha das Flores,39.45328,-31.2647,3.6,16.3,,5,0.0,1.0,100.0,1028.7,S
2026-01-20 01:00:00,1210932,"S. Miguel, Nordeste",37.83256,-25.150108,6.1,9.9,,7,0.0,1.7,79.0,,W
2026-01-20 01:00:00,1210956,"Madeira, Porto Moniz",32.867477,-17.171373,,15.5,0.0,0,0.0,,70.0,,
2026-01-20 01:00:00,1210960,"Madeira, S. Jorge, Santana",32.83446944,-16.906219,5.8,12.7,0.0,5,0.0,1.6,81.0,1027.3,S
2026-01-20 01:00:00,1210965,"Madeira, Santana",32.808238,-16.8864166,,10.0,28.8,0,0.0,,88.0,,
2026-01-20 01:00:00,1210967,"Madeira, São Vicente",32.8001833,-17.044722,,11.6,0.0,0,0.0,,88.0,,
2026-01-20 01:00:00,1210972,"Madeira, Pico Alto",32.693491,-16.903955,4.0,6.5,0.0,7,,1.1,,,W
2026-01-20 01:00:00,1210973,"Madeira, Areeiro",32.71666667,-16.91666667,3.2,3.0,0.0,8,0.0,0.9,81.0,,NW
2026-01-20 01:00:00,1210974,"Madeira, Pico do Areeiro",32.735107,-16.928271,,5.0,,0,0.0,,17.0,,
2026-01-20 01:00:00,1210975,"Madeira, Santo da Serra",32.7258972,-16.816822,,8.3,0.0,0,0.0,,97.0,,
2026-01-20 01:00:00,1210976,"Madeira, Monte",32.675833,-16.906944,6.5,9.8,0.5,9,0.0,1.8,84.0,,N
2026-01-20 01:00:00,1210977,"Madeira, Cancela",32.64500556,-16.86575,3.2,13.5,0.0,2,0.0,0.9,88.0,,NE
2026-01-20 01:00:00,1210978,"Madeira, S. Lourenço",32.747,-16.706,9.0,15.0,0.0,7,0.0,2.5,85.0,,W
2026-01-20 01:00:00,1210984,"Madeira, Quinta Grande",32.6629722,-17.01503611,,10.5,0.0,0,0.0,,64.0,,
2026-01-20 01:00:00,1210986,Ponta do Sol/Lugar de Baixo,32.681502,-17.104167,14.0,16.0,0.0,2,0.0,3.9,58.0,,NE
2026-01-20 01:00:00,1210987,Prazeres (Calheta),32.757205,-17.201551,7.2,10.5,0.0,4,0.0,2.0,75.0,,SE
2026-01-20 01:00:00,1240546,"Porto, Serra do Pilar",41.1385194,-8.6025,11.2,4.7,1264.3,4,0.0,3.1,100.0,1021.8,SE
2026-01-20 01:00:00,1240566,Vila Real (Cidade),41.30898056,-7.740522,2.9,2.5,,3,0.0,0.8,95.0,,E
2026-01-20 01:00:00,1240610,Viana do Castelo,41.695,-8.82916,,5.7,,0,0.0,,93.0,,
2026-01-20 01:00:00,1240903,"Porto, Massarelos",41.15257,-8.62598,,5.9,,0,,,100.0,,
2026-01-20 01:00:00,1240971,"Madeira, Funchal, Lido",32.63655,-16.935592,0.0,16.5,0.1,0,0.0,0.0,64.0,,
2026-01-20 01:00:00,1259201,Lousã/Trevim,40.09328521,-8.17904215,18.0,0.3,,8,0.0,5.0,100.0,,NW
2026-01-20 01:00:00,1259202,Lousã/Candal,40.08090803,-8.20484533,,8.0,,0,,,72.0,,
2026-01-20 01:00:00,1259203,Seia/Aeródromo,40.45517056,-7.68614846,1.1,-1.4,,7,0.0,0.3,98.0,1023.7,W
2026-01-20 01:00:00,1259204,Seia/Senhora do Espinheiro,40.412775,-7.673406,3.6,0.8,,4,0.0,1.0,92.0,1023.3,SE
2026-01-20 01:00:00,5210758,Alcochete / Campo Tiro,38.7627,-8.7825,,4.2,,0,,,99.0,1021.7,
2026-01-20 01:00:00,6210872,Loulé (CML),37.129946,-8.06523593,16.9,9.9,,1,,4.7,83.0,1020.9,N
2026-01-20 01:00:00,6210879,Portimão (Praia da Rocha),37.11670461,-8.52946314,2.9,10.5,,6,0.0,0.8,86.0,,SW
2026-01-20 01:00:00,6211211,Monção - Guimil (CIM),42.042944,-8.421872,6.8,,0.0,6,,1.9,,1020.2,SW
2026-01-20 01:00:00,6211213,Paredes De Coura - Vascões (CIM),41.913444,-8.492111,4.0,2.7,0.7,7,,1.1,98.0,1022.2,W
2026-01-20 01:00:00,6211216,Arcos De Valdevez - Heliporto (CIM),41.831,-8.44375,2.9,3.9,,7,0.0,0.8,94.0,1022.7,W
2026-01-20 01:00:00,6211218,Ponte De Lima - Anais (CIM),41.698083,-8.522444,2.2,4.5,0.3,3,,0.6,89.0,1021.9,E
2026-01-20 01:00:00,6212121,Terras de Bouro/Barral (CIM),41.70225278,-8.31808611,1.8,4.0,,7,0.0,0.5,95.0,1019.7,W
2026-01-20 01:00:00,6212122,Amares Caldelas (CIM),41.66796389,-8.37977778,4.0,3.2,,0,0.0,1.1,95.0,1022.3,
2026-01-20 01:00:00,6212123,Vila Verde (CIM),41.64686111,-8.43398056,1.8,2.8,,7,,0.5,91.0,1022.0,W
2026-01-20 01:00:00,6212124,Braga (CIM),41.53568333,-8.42514722,3.6,6.1,,4,0.0,1.0,89.0,1022.3,SE
2026-01-20 01:00:00,6212125,Barcelos (CIM),41.529375,-8.62705278,2.2,4.1,,1,0.0,0.6,97.0,1023.1,N
2026-01-20 01:00:00,6212126,Esposende (CIM),41.52645556,-8.77984444,9.0,4.3,,3,0.0,2.5,98.0,1022.4,E
2026-01-20 01:00:00,6213012,Carregal do Sal (CIM),40.46718056,-7.92626389,3.2,2.3,,7,,0.9,98.0,,W
2026-01-20 01:00:00,6213013,Castro Daire / Mézio (CIM),40.98086111,-7.88318889,11.5,1.0,,8,,3.2,92.0,,NW
2026-01-20 01:00:00,6213014,Mangualde / Chãs de Tavares  (CIM),40.61096111,-7.60838889,4.7,2.7,,7,0.0,1.3,95.0,,W
2026-01-20 01:00:00,6213016,Oliveira de Frades (CIM),40.716925,-8.20133889,7.2,3.8,,5,,2.0,87.0,,S
2026-01-20 01:00:00,6213017,Penalva do Castelo (CIM),40.65706389,-7.69655278,2.9,0.1,,7,0.0,0.8,100.0,,W
2026-01-20 01:00:00,6213020,Satão (CIM),40.76072778,-7.72019722,3.6,2.0,,6,0.0,1.0,93.0,,SW
2026-01-20 01:00:00,6213022,Vila Nova de Paiva (CIM),40.85595,-7.72716389,5.4,1.9,,9,0.0,1.5,,,N
2026-01-20 01:00:00,6213611,Arganil / Aeródromo (CIM),40.274578,-7.974399,3.6,2.9,,2,0.0,1.0,100.0,,NE
2026-01-20 01:00:00,6213612,Cantanhede / Fonte Dom Pedro (CIM),40.341894,-8.577613,3.2,2.4,,4,0.0,0.9,96.0,,SE
2026-01-20 01:00:00,6213613,Coimbra / Mata de São Pedro (CIM),40.330787,-8.374887,0.7,4.1,,2,,0.2,100.0,,NE
2026-01-20 01:00:00,6213614,Góis / Quinta da Ribeira (CIM),40.171642,-8.103238,0.7,,,8,,0.2,,,NW
2026-01-20 01:00:00,6213615,Mealhada / Quinta do Vale (CIM),40.373343,-8.4388429,1.8,3.0,,4,0.0,0.5,99.0,,SE
2026-01-20 01:00:00,6213616,Mortágua / Aeródromo (CIM),40.426239,-8.232142,4.0,3.8,,2,0.0,1.1,100.0,,NE
2026-01-20 01:00:00,6213617,Penacova / Hombres (CIM),40.280921,-8.198685,2.2,,,4,0.0,0.6,100.0,,SE
2026-01-20 01:00:00,6213619,Vila Nova de Poiares (CIM),40.211411,-8.241995,1.1,4.3,,4,0.0,0.3,96.0,,SE
2026-01-20 01:00:00,6213620,Oliveira do Hospital (CIM),40.413306,-7.867972,2.9,-0.3,,4,0.0,0.8,99.0,,SE
2026-01-20 01:00:00,6215302,"Lisboa, Carnide (CML)",38.7751,-9.1855,4.0,7.7,,5,0.0,1.1,94.0,1021.7,S
2026-01-20 01:00:00,6215360,Oeiras / Vila Fria (CMO),38.7239536,-9.2939255,1.8,8.7,0.0,1,0.0,0.5,91.0,1022.6,N
2026-01-20 01:00:00,7240919,"Lisboa, Amoreiras (LFCL)",38.7239,-9.1649,1.4,7.1,,2,0.0,0.4,99.0,1022.7,NE
2026-01-20 02:00:00,11217160,Santa Maria / Praia Formosa (DROTRH),36.9542,-25.0917,13.0,11.9,0.0,2,0.0,3.6,79.0,,NE
2026-01-20 02:00:00,11217165,Santa Maria / Maia (DROTRH),36.9412,-25.0176,8.3,11.2,0.0,8,0.0,2.3,82.0,,NW
2026-01-20 02:00:00,11217217,São Miguel / Santana (DROTRH),37.8049,-25.5618,7.2,11.9,0.0,7,0.0,2.0,84.0,,W
2026-01-20 02:00:00,11217225,São Miguel / Sete Cidades (DROTRH),37.8679,-25.772,8.6,11.3,0.0,6,0.0,2.4,89.0,,SW
2026-01-20 02:00:00,11217255,São Miguel / Lagoa das Furnas (DROTRH),37.7619,-25.3291,1.8,8.1,0.0,2,0.0,0.5,93.0,,NE
2026-01-20 02:00:00,11217370,Terceira / Ribeira das Nove (DROTRH),38.754,-27.3245,7.2,8.3,0.0,7,0.0,2.0,100.0,,W
2026-01-20 02:00:00,11217372,Terceira / Serra do Cume (DROTRH),38.7002,-27.1031,7.6,9.3,0.0,7,0.0,2.1,100.0,,W
2026-01-20 02:00:00,11217430,Graciosa / Serra das Fontes (DROTRH),39.0672,-28.0038,23.4,12.9,0.0,8,0.0,6.5,99.0,,NW
2026-01-20 02:00:00,11217510,São Jorge / Pico do Areeiro (DROTRH),38.6435,-28.0591,32.4,10.8,0.0,6,0.0,9.0,79.0,,SW
2026-01-20 02:00:00,11217645,Pico / Cabecinho (DROTRH),38.4338,-28.1141,16.2,9.9,0.0,7,0.0,4.5,98.0,,W
2026-01-20 02:00:00,11217710,Faial / Alto do Cabouco (DROTRH),38.587,-28.6992,,9.9,0.0,3,0.0,,99.0,,E
2026-01-20 02:00:00,11217730,Faial / Cabeço Verde (DROTRH),38.5843,-28.7576,6.8,11.3,0.0,5,0.0,1.9,99.0,,S
2026-01-20 02:00:00,1200501,Flores (Aeródromo),39.45819,-31.1301,15.1,17.7,0.0,7,0.0,4.2,85.0,1027.1,W
2026-01-20 02:00:00,1200502,Corvo (Aeródromo),39.67389,-31.11362,27.0,16.5,0.0,7,0.0,7.5,96.0,1026.6,W
2026-01-20 02:00:00,1200504,Pico (Aeródromo),38.55219,-28.44137,15.8,14.6,0.0,6,0.0,4.4,83.0,1028.8,SW
2026-01-20 02:00:00,1200505,Horta / Aeroporto,38.5211,-28.7128,16.6,15.5,,7,0.0,4.6,82.0,1029.0,W
2026-01-20 02:00:00,1200506,Horta (Obs. Principe Alberto),38.540781,-28.63225,20.5,15.4,0.0,6,0.0,5.7,87.0,1029.3,SW
2026-01-20 02:00:00,1200510,São Jorge,38.66,-28.17,7.6,14.0,0.0,8,0.0,2.1,93.0,1029.1,NW
2026-01-20 02:00:00,1200511,Angra do Heroísmo,38.6659435,-27.216567,7.2,12.3,0.0,6,0.0,2.0,85.0,1028.9,SW
2026-01-20 02:00:00,1200512,P. Delgada (Aeródromo),37.74414,-25.6953048,26.3,13.8,0.0,7,0.0,7.3,77.0,1029.3,W
2026-01-20 02:00:00,1200515,Santa Maria (Aeródromo),36.967175,-25.1679,19.4,13.3,0.0,8,0.0,5.4,71.0,1030.4,NW
2026-01-20 02:00:00,1200521,Santa Catarina (Aeródromo),32.69688,-16.77612,,14.8,0.0,0,0.0,,66.0,1025.7,
2026-01-20 02:00:00,1200522,Funchal,32.64786,-16.888,4.7,15.8,0.0,9,0.0,1.3,67.0,1026.0,N
2026-01-20 02:00:00,1200524,Porto Santo,33.074029,-16.34868,5.4,11.7,0.0,9,0.0,1.5,80.0,1025.8,N
2026-01-20 02:00:00,1200531,Cabo Carvoeiro,39.38,-9.40737778,28.1,12.6,,8,0.0,7.8,67.0,1021.5,NW
2026-01-20 02:00:00,1200533,Sagres,37.012835,-8.949089,11.2,10.6,,9,0.0,3.1,76.0,1021.5,N
2026-01-20 02:00:00,1200535,Lisboa (Geofísico),38.71907778,-9.14972222,3.2,8.7,0.0,9,0.0,0.9,100.0,1021.8,N
2026-01-20 02:00:00,1200541,Sines,37.954504,-8.838271,11.5,7.5,0.0,2,0.0,3.2,100.0,1021.9,NE
2026-01-20 02:00:00,1200545,"Porto, Pedras Rubras (Aeródromo)",41.233502,-8.681332,9.7,5.2,0.0,3,0.0,2.7,98.0,1021.9,E
2026-01-20 02:00:00,1200548,Coimbra (Aeródromo),40.15006944,-8.46669167,2.5,6.1,0.0,1,0.0,0.7,100.0,1021.9,N
2026-01-20 02:00:00,1200551,"Viana Castelo, Chafé",41.648875,-8.804606,9.7,4.5,0.0,3,0.0,2.7,100.0,1021.7,E
2026-01-20 02:00:00,1200554,Faro (Aeródromo),37.016579,-7.971953,5.8,8.7,0.0,7,0.0,1.6,89.0,1020.7,W
2026-01-20 02:00:00,1200558,Évora (C.Coordenação),38.53336389,-7.88338056,9.4,4.7,0.0,7,0.0,2.6,,1021.8,W
2026-01-20 02:00:00,1200559,Viseu (Aeródromo),40.72645,-7.887472,6.5,1.5,,8,0.0,1.8,99.0,1022.9,NW
2026-01-20 02:00:00,1200560,Viseu (C.Coordenação),40.71492222,-7.89592222,10.8,2.7,,7,0.0,3.0,99.0,1023.0,W
2026-01-20 02:00:00,1200562,Beja,38.02493056,-7.867275,13.0,6.2,0.0,7,0.0,3.6,100.0,1020.8,W
2026-01-20 02:00:00,1200567,Vila Real,41.27418611,-7.7171,3.6,2.4,0.0,5,0.0,1.0,100.0,1022.5,S
2026-01-20 02:00:00,1200568,Penhas Douradas,40.41136667,-7.55865278,26.3,0.3,0.0,7,,7.3,87.0,,W
2026-01-20 02:00:00,1200570,Castelo Branco,39.83339444,-7.46678889,9.0,5.0,0.0,7,0.0,2.5,100.0,1020.4,W
2026-01-20 02:00:00,1200571,Portalegre,39.29546944,-7.41996944,14.8,4.9,0.0,9,0.0,4.1,92.0,1021.2,N
2026-01-20 02:00:00,1200575,Bragança,41.80388889,-6.74283889,7.2,-0.6,0.0,7,0.0,2.0,91.0,1023.4,W
2026-01-20 02:00:00,1200576,Bragança (Aeródromo),41.85763611,-6.70796389,,-1.4,,0,0.0,,95.0,1023.1,
2026-01-20 02:00:00,1200843,Évora (Aeródromo),38.5296,-7.8916,6.5,4.9,,7,0.0,1.8,96.0,1021.5,W
2026-01-20 02:00:00,1210513,P. Delgada (Obs. A. Chaves),37.7464,-25.662283,3.2,13.4,5.4,5,0.0,0.9,73.0,,S
2026-01-20 02:00:00,1210517,Flores / Morro Alto,39.4633,-31.2207,44.6,11.8,,6,0.7,12.4,100.0,1024.7,SW
2026-01-20 02:00:00,1210518,São Miguel - Pico Santos De Cima,37.819,-25.7512,30.2,6.9,,7,0.0,8.4,100.0,1030.0,W
2026-01-20 02:00:00,1210520,Ilhas selvagens,30.140595,-15.869153,32.4,15.4,0.0,2,0.0,9.0,68.0,1025.9,NE
2026-01-20 02:00:00,1210550,Coruche / Cruz Do Leão,39.07101,-8.4,4.7,5.2,,7,0.0,1.3,100.0,1021.7,W
2026-01-20 02:00:00,1210553,Loulé / Cavalos De Caldeirão,37.3042,-7.9534,20.9,5.7,,9,0.0,5.8,100.0,1021.9,N
2026-01-20 02:00:00,1210577,"Odemira, S.Teotónio",37.54710833,-8.72899167,1.4,7.9,0.0,9,0.0,0.4,94.0,,N
2026-01-20 02:00:00,1210580,"Lisboa, Relógio",38.7618,-9.1254,,7.9,,0,0.0,,89.0,1022.3,
2026-01-20 02:00:00,1210604,V.N.Cerveira (Aeródromo),41.96673056,-8.66676111,2.5,3.1,0.0,8,0.0,0.7,100.0,1021.1,NW
2026-01-20 02:00:00,1210605,"Monção, Valinha",42.06669,-8.383347,2.2,3.0,0.0,2,0.0,0.6,100.0,,NE
2026-01-20 02:00:00,1210606,"Lamas de Mouro, P.Ribeiro",42.03333333,-8.18333333,2.2,-0.3,0.0,4,0.0,0.6,100.0,1024.2,SE
2026-01-20 02:00:00,1210611,Montalegre,41.82276667,-7.78797778,,-0.2,0.0,0,0.0,,99.0,,
2026-01-20 02:00:00,1210612,Vinhais,41.8434,-7.0034416,4.0,0.7,,8,0.0,1.1,90.0,,NW
2026-01-20 02:00:00,1210615,Ponte de Lima,41.75013889,-8.56671389,2.2,3.4,0.0,5,0.0,0.6,99.0,,S
2026-01-20 02:00:00,1210616,Chaves (Aeródromo),41.72516667,-7.46540833,4.0,0.0,0.0,6,0.0,1.1,95.0,1022.7,SW
2026-01-20 02:00:00,1210619,Cabril,41.71666667,-8.01666667,5.8,2.7,,4,0.0,1.6,96.0,,SE
2026-01-20 02:00:00,1210622,"Braga, Merelim",41.56678056,-8.45003056,1.1,3.1,0.0,6,0.0,0.3,100.0,1022.4,SW
2026-01-20 02:00:00,1210625,Guimarães,41.4289,-8.3178,,3.0,0.0,0,,,95.0,1022.4,
2026-01-20 02:00:00,1210630,Cabeceiras de Basto,41.53333333,-7.96666667,2.2,1.1,0.0,8,0.0,0.6,100.0,,NW
2026-01-20 02:00:00,1210632,Mirandela,41.51478611,-7.19083889,3.2,0.4,0.0,3,0.0,0.9,92.0,,E
2026-01-20 02:00:00,1210633,"Macedo Cavaleiros, Bagueixe",41.56666667,-6.78333333,12.6,0.7,,8,0.0,3.5,97.0,,NW
2026-01-20 02:00:00,1210635,Miranda do Douro,41.51666667,-6.28333333,2.9,-1.5,,8,0.0,0.8,99.0,,NW
2026-01-20 02:00:00,1210637,Mogadouro,41.33333333,-6.73333333,6.8,2.1,0.0,7,0.0,1.9,99.0,,W
2026-01-20 02:00:00,1210643,Paços Ferreira,41.27365,-8.38012,2.5,0.4,,3,0.0,0.7,100.0,,E
2026-01-20 02:00:00,1210644,Carrazêda de Ansiães,41.23333333,-7.28333333,0.0,-1.1,0.0,0,0.0,0.0,93.0,,
2026-01-20 02:00:00,1210654,Moncorvo,41.18333333,-7.01666667,1.8,2.1,0.0,6,0.0,0.5,88.0,1022.5,SW
2026-01-20 02:00:00,1210655,"Pinhão, Santa Bárbara",41.172775,-7.5489722,3.6,4.5,,5,0.0,1.0,93.0,,S
2026-01-20 02:00:00,1210657,Luzim,41.14585,-8.2490333,2.5,2.8,0.1,7,0.1,0.7,99.0,,W
2026-01-20 02:00:00,1210663,Moimenta da Beira,40.98333333,-7.6,4.3,1.5,0.0,8,0.0,1.2,94.0,,NW
2026-01-20 02:00:00,1210666,"Trancoso, Bandarra",40.78333333,-7.36666667,7.9,1.9,0.0,7,0.0,2.2,99.0,,W
2026-01-20 02:00:00,1210669,Arouca,40.93333333,-8.25,1.4,1.6,0.0,2,0.0,0.4,99.0,,NE
2026-01-20 02:00:00,1210671,"F. Castelo Rodrigo, V.Torpim",40.75,-6.88333333,2.2,1.5,0.0,6,0.0,0.6,99.0,,SW
2026-01-20 02:00:00,1210683,Guarda,40.53333333,-7.26666667,13.7,0.5,0.0,8,0.0,3.8,100.0,,NW
2026-01-20 02:00:00,1210685,Nelas,40.51666667,-7.85,0.0,3.2,0.0,0,0.0,0.0,99.0,,
2026-01-20 02:00:00,1210686,"Pampilhosa da Serra, Fajão",40.145653,-7.92704,25.2,1.9,,1,0.0,7.0,100.0,,N
2026-01-20 02:00:00,1210687,Covilhã (Aeródromo),40.264309,-7.482302,3.6,2.1,0.0,2,,1.0,92.0,,NE
2026-01-20 02:00:00,1210690,Aldeia Souto (Q. Lageosa),40.35425833,-7.38931111,2.2,1.9,0.0,7,0.0,0.6,82.0,,W
2026-01-20 02:00:00,1210697,Lousã (Aeródromo),40.143922,-8.244066,5.8,3.7,,2,0.0,1.6,100.0,,NE
2026-01-20 02:00:00,1210698,Fundão,40.14063611,-7.55362778,9.4,5.6,0.0,6,0.0,2.6,80.0,,SW
2026-01-20 02:00:00,1210702,Aveiro (Universidade),40.63529722,-8.65958333,2.9,4.5,0.0,4,0.0,0.8,99.0,1022.2,SE
2026-01-20 02:00:00,1210704,Dunas de Mira,40.445955,-8.76168055,1.4,2.7,0.0,2,0.0,0.4,99.0,,NE
2026-01-20 02:00:00,1210705,Anadia,40.438852,-8.439996,1.1,4.0,0.0,5,0.0,0.3,97.0,,S
2026-01-20 02:00:00,1210707,"Coimbra, Bencanta",40.2134694,-8.45515277,0.4,4.3,0.0,8,0.1,0.1,100.0,,NW
2026-01-20 02:00:00,1210713,"Figueira da Foz, Vila Verde",40.139764,-8.805945,3.6,3.1,0.0,1,0.0,1.0,,,N
2026-01-20 02:00:00,1210716,Ansião,39.9,-8.4,2.5,5.2,0.0,9,0.0,0.7,99.0,,N
2026-01-20 02:00:00,1210718,Leiria (Aeródromo),39.780553,-8.818166,1.4,3.9,0.0,3,0.0,0.4,100.0,1021.9,E
2026-01-20 02:00:00,1210724,"Tomar, Valdonas",39.6,-8.36666667,1.1,3.8,359.0,3,0.0,0.3,99.0,,E
2026-01-20 02:00:00,1210726,Alcobaça,39.51666667,-8.96666667,1.1,4.5,0.0,3,0.0,0.3,96.0,,E
2026-01-20 02:00:00,1210729,Rio Maior,39.35,-8.93333333,4.3,4.1,11.9,9,0.0,1.2,99.0,,N
2026-01-20 02:00:00,1210734,"Santarém, Fonte Boa",39.201216,-8.736656,1.8,6.9,0.0,6,0.0,0.5,94.0,1021.6,SW
2026-01-20 02:00:00,1210735,Chamusca / Chouto,39.27,-8.3508,2.5,2.5,,8,0.0,0.7,100.0,1021.8,NW
2026-01-20 02:00:00,1210739,"Torres Vedras, Dois Portos",39.04389444,-9.179,0.0,4.5,0.0,0,0.0,0.0,99.0,,
2026-01-20 02:00:00,1210744,Coruche,38.94096667,-8.51073611,2.2,3.4,0.0,8,0.1,0.6,,,NW
2026-01-20 02:00:00,1210746,Santa Cruz (Aeródromo),39.12594166,-9.3790388,15.5,8.0,0.0,8,0.0,4.3,90.0,1021.5,NW
2026-01-20 02:00:00,1210750,Cabo da Roca,38.78171,-9.4975361,11.2,11.2,0.0,4,0.0,3.1,73.0,,SE
2026-01-20 02:00:00,1210752,Sintra/Tapada do Mouco,38.781669,-9.400398,9.4,6.8,,8,0.0,2.6,98.0,,NW
2026-01-20 02:00:00,1210762,"Lisboa, Tapada da Ajuda",38.70956111,-9.182825,3.2,7.1,0.0,8,0.0,0.9,100.0,,NW
2026-01-20 02:00:00,1210765,Cabo Raso,38.70900833,-9.48538333,17.6,11.5,,8,0.0,4.9,81.0,,NW
2026-01-20 02:00:00,1210766,"Barreiro, Lavradio",38.67448611,-9.04766111,5.8,10.1,0.0,6,0.0,1.6,91.0,,SW
2026-01-20 02:00:00,1210767,Pegões,38.65079,-8.63503,2.2,4.4,0.0,8,0.1,0.6,100.0,,NW
2026-01-20 02:00:00,1210770,Setúbal,38.54846008,-8.89077058,1.8,5.3,12.9,9,0.0,0.5,94.0,,N
2026-01-20 02:00:00,1210773,"Almada, P.Rainha",38.617111,-9.212804,4.0,,0.0,2,0.0,1.1,,,NE
2026-01-20 02:00:00,1210776,"Alcácer do Sal, Barrosinha",38.36666667,-8.48333333,0.7,5.0,0.0,2,0.0,0.2,98.0,,NE
2026-01-20 02:00:00,1210783,Alvalade,37.946806,-8.394504,2.5,3.2,0.0,6,0.0,0.7,98.0,,SW
2026-01-20 02:00:00,1210785,Ourique / Santana Da Serra,37.5025,-8.3019,0.0,3.9,0.0,0,0.0,0.0,98.0,1022.0,
2026-01-20 02:00:00,1210789,Aljezur,37.31675278,-8.80001667,0.7,5.7,0.1,1,0.0,0.2,98.0,,N
2026-01-20 02:00:00,1210790,Fóia,37.3143,-8.595733,48.6,3.7,3.0,9,0.0,13.5,91.0,,N
2026-01-20 02:00:00,1210800,"Sabugal, Martim Rei",40.33918056,-7.03693333,9.0,0.7,0.0,1,0.0,2.5,98.0,,N
2026-01-20 02:00:00,1210803,Zebreira,39.86666667,-7.01666667,9.7,4.4,0.0,7,0.0,2.7,86.0,,W
2026-01-20 02:00:00,1210806,"Proença-a-Nova, P.Moitas",39.73333333,-7.86666667,10.8,6.0,0.0,8,0.0,3.0,74.0,,NW
2026-01-20 02:00:00,1210812,Alvega,39.46666667,-8.05,2.2,1.7,,4,0.0,0.6,100.0,,SE
2026-01-20 02:00:00,1210824,"Avis, Benavila",39.1,-7.86666667,4.3,5.6,0.0,7,0.0,1.2,99.0,,W
2026-01-20 02:00:00,1210826,Mora,38.94068,-8.16406,2.2,5.9,0.0,7,0.0,0.6,98.0,,W
2026-01-20 02:00:00,1210835,Elvas,38.8908,-7.13976111,15.5,6.7,0.0,8,0.0,4.3,88.0,,NW
2026-01-20 02:00:00,1210837,Estremoz,38.86666667,-7.51666667,7.2,4.8,0.0,7,0.0,2.0,100.0,,W
2026-01-20 02:00:00,1210840,"Reguengos, S. P. do Corval",38.484866,-7.4729166,16.2,5.0,0.0,8,0.0,4.5,100.0,,NW
2026-01-20 02:00:00,1210846,Montemor-O-Novo,38.6451,-8.1991,3.6,5.0,,7,0.0,1.0,100.0,1022.7,W
2026-01-20 02:00:00,1210848,"Portel, Oriola",38.31666667,-7.86666667,3.6,4.8,,8,0.0,1.0,97.0,,NW
2026-01-20 02:00:00,1210851,Amareleja,38.2007,-7.2261,2.5,,0.0,4,0.0,0.7,,1020.7,SE
2026-01-20 02:00:00,1210863,"Mértola, Vale Formoso",37.75,-7.55,7.6,6.8,0.0,7,0.0,2.1,98.0,,W
2026-01-20 02:00:00,1210864,"Castro Verde, N.Corvo",37.57655833,-7.97211389,7.6,6.4,0.0,8,0.0,2.1,99.0,,NW
2026-01-20 02:00:00,1210865,"Alcoutim, Mart.Longo",37.43333333,-7.76666667,9.7,7.0,,7,0.0,2.7,97.0,1021.2,W
2026-01-20 02:00:00,1210866,Vila Real de S.António,37.1871055,-7.416325,,8.2,,0,0.0,,90.0,,
2026-01-20 02:00:00,1210867,Castro Marim (RN Sapal),37.21666667,-7.45,7.2,7.8,0.0,9,0.0,2.0,96.0,,N
2026-01-20 02:00:00,1210874,Albufeira,37.0935,-8.262,17.6,8.2,,8,0.0,4.9,93.0,,NW
2026-01-20 02:00:00,1210878,Portimão (Aeródromo),37.149167,-8.581389,3.6,8.5,0.0,1,0.0,1.0,89.0,1021.0,N
2026-01-20 02:00:00,1210881,"Olhão, EPPO",37.033,-7.821,2.9,9.1,0.0,8,0.0,0.8,87.0,1021.4,NW
2026-01-20 02:00:00,1210883,Tavira,37.12166968,-7.62050375,5.0,8.1,,8,0.0,1.4,91.0,1021.9,NW
2026-01-20 02:00:00,1210907,Faja / Ilha das Flores,39.45328,-31.2647,,16.4,,0,,,100.0,1028.3,
2026-01-20 02:00:00,1210932,"S. Miguel, Nordeste",37.83256,-25.150108,5.4,10.3,,7,0.0,1.5,76.0,,W
2026-01-20 02:00:00,1210956,"Madeira, Porto Moniz",32.867477,-17.171373,,15.0,0.6,0,0.0,,65.0,,
2026-01-20 02:00:00,1210960,"Madeira, S. Jorge, Santana",32.83446944,-16.906219,3.2,11.7,0.0,7,0.0,0.9,80.0,1026.2,W
2026-01-20 02:00:00,1210965,"Madeira, Santana",32.808238,-16.8864166,,9.0,26.9,0,0.0,,86.0,,
2026-01-20 02:00:00,1210967,"Madeira, São Vicente",32.8001833,-17.044722,,11.1,0.6,0,0.0,,85.0,,
2026-01-20 02:00:00,1210972,"Madeira, Pico Alto",32.693491,-16.903955,3.6,6.4,0.0,7,,1.0,,,W
2026-01-20 02:00:00,1210973,"Madeira, Areeiro",32.71666667,-16.91666667,9.0,6.8,0.0,1,0.0,2.5,22.0,,N
2026-01-20 02:00:00,1210974,"Madeira, Pico do Areeiro",32.735107,-16.928271,,6.1,,0,0.0,,12.0,,
2026-01-20 02:00:00,1210975,"Madeira, Santo da Serra",32.7258972,-16.816822,,8.2,0.0,0,0.0,,95.0,,
2026-01-20 02:00:00,1210976,"Madeira, Monte",32.675833,-16.906944,5.8,11.0,1.1,8,0.0,1.6,85.0,,NW
2026-01-20 02:00:00,1210977,"Madeira, Cancela",32.64500556,-16.86575,6.8,13.8,0.5,9,0.0,1.9,87.0,,N
2026-01-20 02:00:00,1210978,"Madeira, S. Lourenço",32.747,-16.706,5.0,14.6,0.0,3,0.0,1.4,85.0,,E
2026-01-20 02:00:00,1210984,"Madeira, Quinta Grande",32.6629722,-17.01503611,,11.0,0.4,0,0.0,,71.0,,
2026-01-20 02:00:00,1210986,Ponta do Sol/Lugar de Baixo,32.681502,-17.104167,12.6,16.4,0.0,2,0.0,3.5,60.0,,NE
2026-01-20 02:00:00,1210987,Prazeres (Calheta),32.757205,-17.201551,5.8,9.5,0.0,3,0.0,1.6,82.0,,E
2026-01-20 02:00:00,1240546,"Porto, Serra do Pilar",41.1385194,-8.6025,13.0,4.0,1074.4,4,0.0,3.6,100.0,1021.7,SE
2026-01-20 02:00:00,1240566,Vila Real (Cidade),41.30898056,-7.740522,2.5,1.8,,6,0.0,0.7,96.0,,SW
2026-01-20 02:00:00,1240610,Viana do Castelo,41.695,-8.82916,,5.6,,0,0.0,,94.0,,
2026-01-20 02:00:00,1240903,"Porto, Massarelos",41.15257,-8.62598,,5.5,,0,,,100.0,,
2026-01-20 02:00:00,1240971,"Madeira, Funchal, Lido",32.63655,-16.935592,0.0,16.6,0.0,0,0.0,0.0,68.0,,
2026-01-20 02:00:00,1259201,Lousã/Trevim,40.09328521,-8.17904215,16.2,0.4,,8,0.0,4.5,100.0,,NW
2026-01-20 02:00:00,1259202,Lousã/Candal,40.08090803,-8.20484533,,8.0,,0,,,72.0,,
2026-01-20 02:00:00,1259203,Seia/Aeródromo,40.45517056,-7.68614846,1.4,-1.8,,3,0.0,0.4,98.0,1023.5,E
2026-01-20 02:00:00,1259204,Seia/Senhora do Espinheiro,40.412775,-7.673406,4.0,0.9,,4,0.0,1.1,93.0,1023.0,SE
2026-01-20 02:00:00,5210758,Alcochete / Campo Tiro,38.7627,-8.7825,4.0,,,6,,1.1,,,SW
2026-01-20 02:00:00,6210872,Loulé (CML),37.129946,-8.06523593,5.4,9.8,,1,,1.5,80.0,1020.7,N
2026-01-20 02:00:00,6210879,Portimão (Praia da Rocha),37.11670461,-8.52946314,2.9,10.8,,7,0.0,0.8,82.0,,W
2026-01-20 02:00:00,6211211,Monção - Guimil (CIM),42.042944,-8.421872,8.6,,0.0,5,,2.4,,1019.7,S
2026-01-20 02:00:00,6211213,Paredes De Coura - Vascões (CIM),41.913444,-8.492111,2.5,2.5,0.9,8,,0.7,97.0,1022.3,NW
2026-01-20 02:00:00,6211216,Arcos De Valdevez - Heliporto (CIM),41.831,-8.44375,4.0,4.0,,2,0.0,1.1,94.0,1022.6,NE
2026-01-20 02:00:00,6211218,Ponte De Lima - Anais (CIM),41.698083,-8.522444,1.4,4.0,0.4,2,,0.4,91.0,1021.7,NE
2026-01-20 02:00:00,6212121,Terras de Bouro/Barral (CIM),41.70225278,-8.31808611,3.6,4.3,,4,0.0,1.0,95.0,1019.3,SE
2026-01-20 02:00:00,6212122,Amares Caldelas (CIM),41.66796389,-8.37977778,7.6,3.1,,2,0.0,2.1,95.0,1022.1,NE
2026-01-20 02:00:00,6212123,Vila Verde (CIM),41.64686111,-8.43398056,5.4,2.7,,7,,1.5,91.0,1021.7,W
2026-01-20 02:00:00,6212124,Braga (CIM),41.53568333,-8.42514722,2.5,5.4,,2,0.0,0.7,92.0,1022.1,NE
2026-01-20 02:00:00,6212125,Barcelos (CIM),41.529375,-8.62705278,2.9,4.4,,2,0.0,0.8,97.0,1023.0,NE
2026-01-20 02:00:00,6212126,Esposende (CIM),41.52645556,-8.77984444,7.9,5.1,,4,0.0,2.2,98.0,1022.2,SE
2026-01-20 02:00:00,6213012,Carregal do Sal (CIM),40.46718056,-7.92626389,3.2,3.0,,1,,0.9,98.0,,N
2026-01-20 02:00:00,6213013,Castro Daire / Mézio (CIM),40.98086111,-7.88318889,6.5,1.2,,1,,1.8,93.0,,N
2026-01-20 02:00:00,6213014,Mangualde / Chãs de Tavares  (CIM),40.61096111,-7.60838889,5.8,2.5,,7,0.0,1.6,98.0,,W
2026-01-20 02:00:00,6213016,Oliveira de Frades (CIM),40.716925,-8.20133889,9.4,4.5,,5,,2.6,81.0,,S
2026-01-20 02:00:00,6213017,Penalva do Castelo (CIM),40.65706389,-7.69655278,2.9,-0.4,,2,0.0,0.8,100.0,,NE
2026-01-20 02:00:00,6213020,Satão (CIM),40.76072778,-7.72019722,4.0,1.6,,8,0.0,1.1,94.0,,NW
2026-01-20 02:00:00,6213022,Vila Nova de Paiva (CIM),40.85595,-7.72716389,2.9,0.8,,8,0.0,0.8,,,NW
2026-01-20 02:00:00,6213611,Arganil / Aeródromo (CIM),40.274578,-7.974399,6.8,3.6,,2,0.0,1.9,100.0,,NE
2026-01-20 02:00:00,6213612,Cantanhede / Fonte Dom Pedro (CIM),40.341894,-8.577613,5.8,1.5,,4,0.0,1.6,96.0,,SE
2026-01-20 02:00:00,6213613,Coimbra / Mata de São Pedro (CIM),40.330787,-8.374887,3.2,3.9,,7,,0.9,100.0,,W
2026-01-20 02:00:00,6213614,Góis / Quinta da Ribeira (CIM),40.171642,-8.103238,1.4,,,2,,0.4,,,NE
2026-01-20 02:00:00,6213615,Mealhada / Quinta do Vale (CIM),40.373343,-8.4388429,1.1,3.0,,2,0.1,0.3,99.0,,NE
2026-01-20 02:00:00,6213616,Mortágua / Aeródromo (CIM),40.426239,-8.232142,5.0,3.9,,1,0.0,1.4,100.0,,N
2026-01-20 02:00:00,6213617,Penacova / Hombres (CIM),40.280921,-8.198685,5.0,,,6,0.1,1.4,100.0,,SW
2026-01-20 02:00:00,6213619,Vila Nova de Poiares (CIM),40.211411,-8.241995,1.8,3.9,,7,0.0,0.5,96.0,,W
2026-01-20 02:00:00,6213620,Oliveira do Hospital (CIM),40.413306,-7.867972,4.3,-0.9,,2,0.0,1.2,99.0,,NE
2026-01-20 02:00:00,6214119,Pedrógão Grande (CMPG),39.926573,-8.150912,4.0,2.6,,3,0.0,1.1,97.0,1022.4,E
2026-01-20 02:00:00,6215302,"Lisboa, Carnide (CML)",38.7751,-9.1855,3.6,7.5,,7,0.0,1.0,95.0,1021.5,W
2026-01-20 02:00:00,6215360,Oeiras / Vila Fria (CMO),38.7239536,-9.2939255,8.6,8.6,0.0,8,0.0,2.4,90.0,1022.5,NW
2026-01-20 02:00:00,7240919,"Lisboa, Amoreiras (LFCL)",38.7239,-9.1649,5.0,7.3,,3,0.0,1.4,100.0,1022.5,E
2026-01-20 03:00:00,11217160,Santa Maria / Praia Formosa (DROTRH),36.9542,-25.0917,11.2,12.0,0.0,2,0.0,3.1,80.0,,NE
2026-01-20 03:00:00,11217165,Santa Maria / Maia (DROTRH),36.9412,-25.0176,7.9,11.3,0.0,7,0.0,2.2,81.0,,W
2026-01-20 03:00:00,11217217,São Miguel / Santana (DROTRH),37.8049,-25.5618,7.6,12.1,0.0,6,0.0,2.1,85.0,,SW
2026-01-20 03:00:00,11217225,São Miguel / Sete Cidades (DROTRH),37.8679,-25.772,11.5,11.8,0.0,6,0.0,3.2,89.0,,SW
2026-01-20 03:00:00,11217255,São Miguel / Lagoa das Furnas (DROTRH),37.7619,-25.3291,2.5,7.8,0.0,4,0.0,0.7,94.0,,SE
2026-01-20 03:00:00,11217370,Terceira / Ribeira das Nove (DROTRH),38.754,-27.3245,6.1,9.7,0.0,6,0.0,1.7,99.0,,SW
2026-01-20 03:00:00,11217372,Terceira / Serra do Cume (DROTRH),38.7002,-27.1031,27.4,9.6,0.0,7,0.0,7.6,100.0,,W
2026-01-20 03:00:00,11217430,Graciosa / Serra das Fontes (DROTRH),39.0672,-28.0038,27.0,13.3,0.0,8,0.0,7.5,99.0,,NW
2026-01-20 03:00:00,11217510,São Jorge / Pico do Areeiro (DROTRH),38.6435,-28.0591,32.0,9.3,0.0,6,0.0,8.9,99.0,,SW
2026-01-20 03:00:00,11217645,Pico / Cabecinho (DROTRH),38.4338,-28.1141,9.4,12.1,0.0,7,0.0,2.6,90.0,,W
2026-01-20 03:00:00,11217710,Faial / Alto do Cabouco (DROTRH),38.587,-28.6992,,10.6,0.0,3,0.1,,99.0,,E
2026-01-20 03:00:00,11217730,Faial / Cabeço Verde (DROTRH),38.5843,-28.7576,7.9,12.0,0.0,5,0.0,2.2,100.0,,S
2026-01-20 03:00:00,1200501,Flores (Aeródromo),39.45819,-31.1301,23.8,17.6,0.0,7,0.0,6.6,87.0,1026.3,W
2026-01-20 03:00:00,1200502,Corvo (Aeródromo),39.67389,-31.11362,25.6,16.7,0.0,7,0.0,7.1,95.0,1026.0,W
2026-01-20 03:00:00,1200504,Pico (Aeródromo),38.55219,-28.44137,17.3,15.3,0.0,6,0.0,4.8,84.0,1028.0,SW
2026-01-20 03:00:00,1200505,Horta / Aeroporto,38.5211,-28.7128,17.6,15.6,,7,0.0,4.9,87.0,1028.3,W
2026-01-20 03:00:00,1200506,Horta (Obs. Principe Alberto),38.540781,-28.63225,29.2,15.3,0.0,6,0.2,8.1,92.0,1028.6,SW
2026-01-20 03:00:00,1200510,São Jorge,38.66,-28.17,9.4,14.4,0.0,8,0.0,2.6,92.0,1028.2,NW
2026-01-20 03:00:00,1200511,Angra do Heroísmo,38.6659435,-27.216567,7.9,12.2,0.0,8,0.0,2.2,86.0,1028.1,NW
2026-01-20 03:00:00,1200512,P. Delgada (Aeródromo),37.74414,-25.6953048,28.4,14.1,0.0,7,0.0,7.9,78.0,1028.5,W
2026-01-20 03:00:00,1200515,Santa Maria (Aeródromo),36.967175,-25.1679,19.4,13.4,0.0,7,0.0,5.4,72.0,1029.8,W
2026-01-20 03:00:00,1200521,Santa Catarina (Aeródromo),32.69688,-16.77612,,14.8,0.1,0,0.0,,72.0,1026.3,
2026-01-20 03:00:00,1200522,Funchal,32.64786,-16.888,4.0,16.0,0.0,1,0.0,1.1,67.0,1026.4,N
2026-01-20 03:00:00,1200524,Porto Santo,33.074029,-16.34868,14.8,12.1,0.0,9,0.0,4.1,80.0,1026.6,N
2026-01-20 03:00:00,1200531,Cabo Carvoeiro,39.38,-9.40737778,20.2,12.6,,8,0.0,5.6,65.0,1021.5,NW
2026-01-20 03:00:00,1200533,Sagres,37.012835,-8.949089,7.2,9.8,,9,0.0,2.0,77.0,1021.6,N
2026-01-20 03:00:00,1200535,Lisboa (Geofísico),38.71907778,-9.14972222,6.5,8.9,0.0,8,0.0,1.8,100.0,1022.0,NW
2026-01-20 03:00:00,1200541,Sines,37.954504,-8.838271,4.3,7.8,0.0,3,0.0,1.2,100.0,1022.1,E
2026-01-20 03:00:00,1200545,"Porto, Pedras Rubras (Aeródromo)",41.233502,-8.681332,10.4,4.9,0.0,3,0.1,2.9,98.0,1021.4,E
2026-01-20 03:00:00,1200548,Coimbra (Aeródromo),40.15006944,-8.46669167,2.2,6.0,0.0,1,0.0,0.6,100.0,1021.9,N
2026-01-20 03:00:00,1200551,"Viana Castelo, Chafé",41.648875,-8.804606,12.6,4.1,0.0,3,0.0,3.5,100.0,1021.2,E
2026-01-20 03:00:00,1200554,Faro (Aeródromo),37.016579,-7.971953,10.1,7.6,0.0,8,0.0,2.8,91.0,1020.9,NW
2026-01-20 03:00:00,1200558,Évora (C.Coordenação),38.53336389,-7.88338056,7.2,4.3,0.0,7,0.0,2.0,,1021.9,W
2026-01-20 03:00:00,1200559,Viseu (Aeródromo),40.72645,-7.887472,5.4,1.8,,6,0.0,1.5,99.0,1022.6,SW
2026-01-20 03:00:00,1200560,Viseu (C.Coordenação),40.71492222,-7.89592222,8.6,2.4,,7,0.0,2.4,99.0,1022.8,W
2026-01-20 03:00:00,1200562,Beja,38.02493056,-7.867275,11.5,6.0,0.0,7,0.0,3.2,100.0,1020.9,W
2026-01-20 03:00:00,1200567,Vila Real,41.27418611,-7.7171,3.6,2.3,0.0,6,0.0,1.0,100.0,1022.1,SW
2026-01-20 03:00:00,1200568,Penhas Douradas,40.41136667,-7.55865278,20.5,0.2,0.0,7,,5.7,88.0,,W
2026-01-20 03:00:00,1200570,Castelo Branco,39.83339444,-7.46678889,7.9,4.9,0.0,7,0.0,2.2,100.0,1020.4,W
2026-01-20 03:00:00,1200571,Portalegre,39.29546944,-7.41996944,16.2,4.8,0.0,9,0.0,4.5,86.0,1021.1,N
2026-01-20 03:00:00,1200575,Bragança,41.80388889,-6.74283889,4.0,-1.2,0.0,4,0.0,1.1,93.0,1023.3,SE
2026-01-20 03:00:00,1200576,Bragança (Aeródromo),41.85763611,-6.70796389,,-1.7,,0,0.0,,96.0,1022.8,
2026-01-20 03:00:00,1200843,Évora (Aeródromo),38.5296,-7.8916,6.5,4.7,,7,0.0,1.8,97.0,1021.5,W
2026-01-20 03:00:00,1210513,P. Delgada (Obs. A. Chaves),37.7464,-25.662283,5.4,13.6,2.1,5,0.0,1.5,75.0,,S
2026-01-20 03:00:00,1210517,Flores / Morro Alto,39.4633,-31.2207,50.4,12.0,,6,0.4,14.0,100.0,1023.9,SW
2026-01-20 03:00:00,1210518,São Miguel - Pico Santos De Cima,37.819,-25.7512,40.0,7.4,,7,0.0,11.1,100.0,1028.9,W
2026-01-20 03:00:00,1210520,Ilhas selvagens,30.140595,-15.869153,27.0,15.4,0.0,2,0.0,7.5,67.0,1025.6,NE
2026-01-20 03:00:00,1210550,Coruche / Cruz Do Leão,39.07101,-8.4,3.6,4.6,,7,0.0,1.0,100.0,1022.0,W
2026-01-20 03:00:00,1210553,Loulé / Cavalos De Caldeirão,37.3042,-7.9534,17.3,5.2,,9,0.0,4.8,100.0,1022.1,N
2026-01-20 03:00:00,1210577,"Odemira, S.Teotónio",37.54710833,-8.72899167,7.9,8.1,0.0,0,0.0,2.2,88.0,,
2026-01-20 03:00:00,1210580,"Lisboa, Relógio",38.7618,-9.1254,,8.1,,0,0.0,,90.0,1022.5,
2026-01-20 03:00:00,1210604,V.N.Cerveira (Aeródromo),41.96673056,-8.66676111,2.2,3.1,0.0,1,0.0,0.6,100.0,1020.6,N
2026-01-20 03:00:00,1210605,"Monção, Valinha",42.06669,-8.383347,1.4,2.9,0.0,2,0.0,0.4,100.0,,NE
2026-01-20 03:00:00,1210606,"Lamas de Mouro, P.Ribeiro",42.03333333,-8.18333333,4.3,0.0,0.0,4,0.0,1.2,100.0,1023.5,SE
2026-01-20 03:00:00,1210611,Montalegre,41.82276667,-7.78797778,,0.1,0.0,0,0.0,,99.0,,
2026-01-20 03:00:00,1210612,Vinhais,41.8434,-7.0034416,2.2,0.1,,8,0.0,0.6,95.0,,NW
2026-01-20 03:00:00,1210615,Ponte de Lima,41.75013889,-8.56671389,1.4,3.2,0.0,4,0.0,0.4,99.0,,SE
2026-01-20 03:00:00,1210616,Chaves (Aeródromo),41.72516667,-7.46540833,4.3,0.0,0.0,6,0.0,1.2,96.0,1022.5,SW
2026-01-20 03:00:00,1210619,Cabril,41.71666667,-8.01666667,2.2,2.3,,9,0.0,0.6,96.0,,N
2026-01-20 03:00:00,1210622,"Braga, Merelim",41.56678056,-8.45003056,0.7,2.4,0.0,2,0.0,0.2,100.0,1022.1,NE
2026-01-20 03:00:00,1210625,Guimarães,41.4289,-8.3178,,2.6,0.0,0,,,95.0,1021.9,
2026-01-20 03:00:00,1210630,Cabeceiras de Basto,41.53333333,-7.96666667,1.4,1.3,0.7,8,0.0,0.4,100.0,,NW
2026-01-20 03:00:00,1210632,Mirandela,41.51478611,-7.19083889,1.4,-0.1,0.0,3,0.0,0.4,95.0,,E
2026-01-20 03:00:00,1210633,"Macedo Cavaleiros, Bagueixe",41.56666667,-6.78333333,5.8,-0.2,,9,0.0,1.6,96.0,,N
2026-01-20 03:00:00,1210635,Miranda do Douro,41.51666667,-6.28333333,4.0,-1.7,,4,0.0,1.1,99.0,,SE
2026-01-20 03:00:00,1210637,Mogadouro,41.33333333,-6.73333333,7.9,2.1,0.0,9,0.0,2.2,98.0,,N
2026-01-20 03:00:00,1210643,Paços Ferreira,41.27365,-8.38012,2.2,0.5,,3,0.0,0.6,100.0,,E
2026-01-20 03:00:00,1210644,Carrazêda de Ansiães,41.23333333,-7.28333333,0.7,-1.3,0.0,8,0.0,0.2,94.0,,NW
2026-01-20 03:00:00,1210654,Moncorvo,41.18333333,-7.01666667,5.8,2.1,0.0,6,0.0,1.6,88.0,1022.2,SW
2026-01-20 03:00:00,1210655,"Pinhão, Santa Bárbara",41.172775,-7.5489722,1.8,3.5,,5,0.0,0.5,96.0,,S
2026-01-20 03:00:00,1210657,Luzim,41.14585,-8.2490333,1.4,2.9,0.3,7,0.0,0.4,99.0,,W
2026-01-20 03:00:00,1210663,Moimenta da Beira,40.98333333,-7.6,5.0,1.4,0.0,4,0.0,1.4,92.0,,SE
2026-01-20 03:00:00,1210666,"Trancoso, Bandarra",40.78333333,-7.36666667,6.1,0.9,0.0,6,0.0,1.7,99.0,,SW
2026-01-20 03:00:00,1210669,Arouca,40.93333333,-8.25,1.4,0.9,0.0,2,0.0,0.4,99.0,,NE
2026-01-20 03:00:00,1210671,"F. Castelo Rodrigo, V.Torpim",40.75,-6.88333333,2.2,1.1,0.0,5,0.0,0.6,99.0,,S
2026-01-20 03:00:00,1210683,Guarda,40.53333333,-7.26666667,18.4,0.5,0.0,7,0.0,5.1,100.0,,W
2026-01-20 03:00:00,1210685,Nelas,40.51666667,-7.85,0.0,1.4,0.0,0,0.0,0.0,100.0,,
2026-01-20 03:00:00,1210686,"Pampilhosa da Serra, Fajão",40.145653,-7.92704,19.4,1.7,,9,0.0,5.4,98.0,,N
2026-01-20 03:00:00,1210687,Covilhã (Aeródromo),40.264309,-7.482302,1.1,2.4,0.0,9,,0.3,89.0,,N
2026-01-20 03:00:00,1210690,Aldeia Souto (Q. Lageosa),40.35425833,-7.38931111,2.9,1.4,0.0,8,0.0,0.8,84.0,,NW
2026-01-20 03:00:00,1210697,Lousã (Aeródromo),40.143922,-8.244066,5.8,2.5,,3,0.0,1.6,100.0,,E
2026-01-20 03:00:00,1210698,Fundão,40.14063611,-7.55362778,4.3,3.9,0.0,8,0.0,1.2,87.0,,NW
2026-01-20 03:00:00,1210702,Aveiro (Universidade),40.63529722,-8.65958333,5.0,3.9,0.0,5,0.0,1.4,99.0,1021.9,S
2026-01-20 03:00:00,1210704,Dunas de Mira,40.445955,-8.76168055,0.4,2.1,0.0,6,0.0,0.1,99.0,,SW
2026-01-20 03:00:00,1210705,Anadia,40.438852,-8.439996,1.1,3.4,0.0,3,0.0,0.3,97.0,,E
2026-01-20 03:00:00,1210707,"Coimbra, Bencanta",40.2134694,-8.45515277,4.3,4.2,0.0,3,0.0,1.2,100.0,,E
2026-01-20 03:00:00,1210713,"Figueira da Foz, Vila Verde",40.139764,-8.805945,3.6,3.0,0.0,1,0.0,1.0,,,N
2026-01-20 03:00:00,1210716,Ansião,39.9,-8.4,6.5,5.0,0.0,9,0.0,1.8,99.0,,N
2026-01-20 03:00:00,1210718,Leiria (Aeródromo),39.780553,-8.818166,6.5,3.8,0.0,3,0.0,1.8,100.0,1022.1,E
2026-01-20 03:00:00,1210724,"Tomar, Valdonas",39.6,-8.36666667,3.6,2.7,345.3,3,0.0,1.0,100.0,,E
2026-01-20 03:00:00,1210726,Alcobaça,39.51666667,-8.96666667,0.0,4.0,0.0,0,0.0,0.0,96.0,,
2026-01-20 03:00:00,1210729,Rio Maior,39.35,-8.93333333,2.9,3.6,19.7,6,0.0,0.8,99.0,,SW
2026-01-20 03:00:00,1210734,"Santarém, Fonte Boa",39.201216,-8.736656,7.6,6.5,0.0,7,0.0,2.1,96.0,1021.9,W
2026-01-20 03:00:00,1210735,Chamusca / Chouto,39.27,-8.3508,0.0,1.9,,0,0.0,0.0,100.0,1022.0,
2026-01-20 03:00:00,1210739,"Torres Vedras, Dois Portos",39.04389444,-9.179,0.4,4.5,0.0,3,0.0,0.1,99.0,,E
2026-01-20 03:00:00,1210744,Coruche,38.94096667,-8.51073611,1.8,3.3,0.0,7,0.0,0.5,,,W
2026-01-20 03:00:00,1210746,Santa Cruz (Aeródromo),39.12594166,-9.3790388,16.2,10.1,0.5,8,0.0,4.5,75.0,1021.7,NW
2026-01-20 03:00:00,1210750,Cabo da Roca,38.78171,-9.4975361,15.8,11.3,0.0,1,0.0,4.4,73.0,,N
2026-01-20 03:00:00,1210752,Sintra/Tapada do Mouco,38.781669,-9.400398,11.5,6.8,,8,0.0,3.2,96.0,,NW
2026-01-20 03:00:00,1210762,"Lisboa, Tapada da Ajuda",38.70956111,-9.182825,5.8,7.6,0.0,8,0.0,1.6,100.0,,NW
2026-01-20 03:00:00,1210765,Cabo Raso,38.70900833,-9.48538333,19.4,13.1,,8,0.0,5.4,70.0,,NW
2026-01-20 03:00:00,1210766,"Barreiro, Lavradio",38.67448611,-9.04766111,4.7,9.9,0.0,6,0.0,1.3,89.0,,SW
2026-01-20 03:00:00,1210767,Pegões,38.65079,-8.63503,1.8,4.2,0.0,8,0.0,0.5,100.0,,NW
2026-01-20 03:00:00,1210770,Setúbal,38.54846008,-8.89077058,1.1,5.0,0.2,4,0.0,0.3,95.0,,SE
2026-01-20 03:00:00,1210773,"Almada, P.Rainha",38.617111,-9.212804,4.7,,0.5,2,0.0,1.3,,,NE
2026-01-20 03:00:00,1210776,"Alcácer do Sal, Barrosinha",38.36666667,-8.48333333,2.9,4.2,0.0,2,0.0,0.8,99.0,,NE
2026-01-20 03:00:00,1210783,Alvalade,37.946806,-8.394504,6.8,3.1,0.0,6,0.0,1.9,98.0,,SW
2026-01-20 03:00:00,1210785,Ourique / Santana Da Serra,37.5025,-8.3019,0.0,2.8,0.0,0,0.0,0.0,99.0,1022.3,
2026-01-20 03:00:00,1210789,Aljezur,37.31675278,-8.80001667,2.9,4.2,0.1,4,0.0,0.8,98.0,,SE
2026-01-20 03:00:00,1210790,Fóia,37.3143,-8.595733,53.6,3.7,0.0,9,0.0,14.9,86.0,,N
2026-01-20 03:00:00,1210800,"Sabugal, Martim Rei",40.33918056,-7.03693333,5.4,0.7,0.0,3,0.0,1.5,98.0,,E
2026-01-20 03:00:00,1210803,Zebreira,39.86666667,-7.01666667,9.4,4.0,0.0,7,0.0,2.6,88.0,,W
2026-01-20 03:00:00,1210806,"Proença-a-Nova, P.Moitas",39.73333333,-7.86666667,5.8,5.6,0.0,9,0.0,1.6,76.0,,N
2026-01-20 03:00:00,1210812,Alvega,39.46666667,-8.05,1.4,2.4,,6,0.0,0.4,100.0,,SW
2026-01-20 03:00:00,1210824,"Avis, Benavila",39.1,-7.86666667,6.5,5.2,0.0,8,0.0,1.8,99.0,,NW
2026-01-20 03:00:00,1210826,Mora,38.94068,-8.16406,4.3,5.5,0.0,7,0.0,1.2,99.0,,W
2026-01-20 03:00:00,1210835,Elvas,38.8908,-7.13976111,14.0,6.7,0.0,8,0.0,3.9,86.0,,NW
2026-01-20 03:00:00,1210837,Estremoz,38.86666667,-7.51666667,5.8,4.1,0.0,6,0.1,1.6,100.0,,SW
2026-01-20 03:00:00,1210840,"Reguengos, S. P. do Corval",38.484866,-7.4729166,10.4,4.7,0.0,8,0.0,2.9,100.0,,NW
2026-01-20 03:00:00,1210846,Montemor-O-Novo,38.6451,-8.1991,4.7,3.9,,7,0.0,1.3,100.0,1022.9,W
2026-01-20 03:00:00,1210848,"Portel, Oriola",38.31666667,-7.86666667,0.4,4.6,,5,0.0,0.1,97.0,,S
2026-01-20 03:00:00,1210851,Amareleja,38.2007,-7.2261,2.2,,0.2,8,0.0,0.6,,1020.0,NW
2026-01-20 03:00:00,1210863,"Mértola, Vale Formoso",37.75,-7.55,10.1,6.6,0.0,8,0.0,2.8,98.0,,NW
2026-01-20 03:00:00,1210864,"Castro Verde, N.Corvo",37.57655833,-7.97211389,11.2,6.2,0.0,8,0.0,3.1,99.0,,NW
2026-01-20 03:00:00,1210865,"Alcoutim, Mart.Longo",37.43333333,-7.76666667,11.9,6.5,,7,0.0,3.3,97.0,1021.5,W
2026-01-20 03:00:00,1210866,Vila Real de S.António,37.1871055,-7.416325,,7.5,,0,0.0,,91.0,,
2026-01-20 03:00:00,1210867,Castro Marim (RN Sapal),37.21666667,-7.45,15.8,8.0,0.0,1,0.0,4.4,96.0,,N
2026-01-20 03:00:00,1210874,Albufeira,37.0935,-8.262,15.1,8.0,,8,0.0,4.2,94.0,,NW
2026-01-20 03:00:00,1210878,Portimão (Aeródromo),37.149167,-8.581389,3.2,6.6,0.0,9,0.0,0.9,94.0,1021.3,N
2026-01-20 03:00:00,1210881,"Olhão, EPPO",37.033,-7.821,4.3,7.8,0.0,7,0.0,1.2,91.0,1021.5,W
2026-01-20 03:00:00,1210883,Tavira,37.12166968,-7.62050375,9.7,7.5,,7,0.0,2.7,92.0,1021.9,W
2026-01-20 03:00:00,1210907,Faja / Ilha das Flores,39.45328,-31.2647,5.0,16.6,,5,,1.4,100.0,1027.7,S
2026-01-20 03:00:00,1210932,"S. Miguel, Nordeste",37.83256,-25.150108,5.4,9.4,,7,0.0,1.5,81.0,,W
2026-01-20 03:00:00,1210956,"Madeira, Porto Moniz",32.867477,-17.171373,,14.7,0.0,0,0.0,,70.0,,
2026-01-20 03:00:00,1210960,"Madeira, S. Jorge, Santana",32.83446944,-16.906219,14.8,12.6,0.1,8,0.0,4.1,84.0,1027.3,NW
2026-01-20 03:00:00,1210965,"Madeira, Santana",32.808238,-16.8864166,,9.4,28.9,0,0.0,,87.0,,
2026-01-20 03:00:00,1210967,"Madeira, São Vicente",32.8001833,-17.044722,,11.2,0.4,0,0.0,,84.0,,
2026-01-20 03:00:00,1210972,"Madeira, Pico Alto",32.693491,-16.903955,3.6,6.1,0.0,8,,1.0,,,NW
2026-01-20 03:00:00,1210973,"Madeira, Areeiro",32.71666667,-16.91666667,4.7,5.7,0.0,1,0.0,1.3,35.0,,N
2026-01-20 03:00:00,1210974,"Madeira, Pico do Areeiro",32.735107,-16.928271,,5.7,,0,0.0,,13.0,,
2026-01-20 03:00:00,1210975,"Madeira, Santo da Serra",32.7258972,-16.816822,,8.5,0.0,0,0.0,,98.0,,
2026-01-20 03:00:00,1210976,"Madeira, Monte",32.675833,-16.906944,4.7,11.2,2.1,9,0.0,1.3,83.0,,N
2026-01-20 03:00:00,1210977,"Madeira, Cancela",32.64500556,-16.86575,3.6,14.2,0.0,2,0.0,1.0,84.0,,NE
2026-01-20 03:00:00,1210978,"Madeira, S. Lourenço",32.747,-16.706,15.5,14.9,0.0,9,0.0,4.3,83.0,,N
2026-01-20 03:00:00,1210984,"Madeira, Quinta Grande",32.6629722,-17.01503611,,11.9,1.6,0,0.0,,74.0,,
2026-01-20 03:00:00,1210986,Ponta do Sol/Lugar de Baixo,32.681502,-17.104167,7.2,16.3,0.0,3,0.0,2.0,63.0,,E
2026-01-20 03:00:00,1210987,Prazeres (Calheta),32.757205,-17.201551,10.8,9.4,0.0,2,0.0,3.0,85.0,,NE
2026-01-20 03:00:00,1240546,"Porto, Serra do Pilar",41.1385194,-8.6025,15.1,3.7,894.7,4,0.1,4.2,100.0,1021.2,SE
2026-01-20 03:00:00,1240566,Vila Real (Cidade),41.30898056,-7.740522,2.9,1.8,,8,0.0,0.8,97.0,,NW
2026-01-20 03:00:00,1240610,Viana do Castelo,41.695,-8.82916,,5.5,,0,0.0,,94.0,,
2026-01-20 03:00:00,1240903,"Porto, Massarelos",41.15257,-8.62598,,4.9,,0,,,100.0,,
2026-01-20 03:00:00,1240971,"Madeira, Funchal, Lido",32.63655,-16.935592,0.0,16.4,0.0,0,0.0,0.0,67.0,,
2026-01-20 03:00:00,1259201,Lousã/Trevim,40.09328521,-8.17904215,,0.5,,0,,,100.0,,
2026-01-20 03:00:00,1259202,Lousã/Candal,40.08090803,-8.20484533,,8.0,,0,,,72.0,,
2026-01-20 03:00:00,1259203,Seia/Aeródromo,40.45517056,-7.68614846,0.4,-2.0,,1,0.0,0.1,97.0,1023.4,N
2026-01-20 03:00:00,1259204,Seia/Senhora do Espinheiro,40.412775,-7.673406,4.0,0.2,,4,0.0,1.1,94.0,1023.2,SE
2026-01-20 03:00:00,5210758,Alcochete / Campo Tiro,38.7627,-8.7825,5.4,3.7,,8,0.0,1.5,100.0,1021.7,NW
2026-01-20 03:00:00,6210872,Loulé (CML),37.129946,-8.06523593,4.3,8.7,,7,,1.2,81.0,1021.2,W
2026-01-20 03:00:00,6210879,Portimão (Praia da Rocha),37.11670461,-8.52946314,6.5,10.5,,8,0.0,1.8,79.0,,NW
2026-01-20 03:00:00,6211211,Monção - Guimil (CIM),42.042944,-8.421872,6.1,,0.0,5,,1.7,,1019.2,S
2026-01-20 03:00:00,6211213,Paredes De Coura - Vascões (CIM),41.913444,-8.492111,1.8,2.5,1.3,6,,0.5,98.0,1021.6,SW
2026-01-20 03:00:00,6211216,Arcos De Valdevez - Heliporto (CIM),41.831,-8.44375,2.9,3.8,,2,0.0,0.8,96.0,1021.7,NE
2026-01-20 03:00:00,6211218,Ponte De Lima - Anais (CIM),41.698083,-8.522444,1.8,3.8,0.0,8,,0.5,92.0,1021.2,NW
2026-01-20 03:00:00,6212121,Terras de Bouro/Barral (CIM),41.70225278,-8.31808611,1.8,3.9,,3,0.0,0.5,93.0,1019.0,E
2026-01-20 03:00:00,6212122,Amares Caldelas (CIM),41.66796389,-8.37977778,3.2,2.8,,1,0.0,0.9,95.0,1021.6,N
2026-01-20 03:00:00,6212123,Vila Verde (CIM),41.64686111,-8.43398056,1.1,2.5,,7,,0.3,91.0,1021.0,W
2026-01-20 03:00:00,6212124,Braga (CIM),41.53568333,-8.42514722,3.6,5.5,,4,0.0,1.0,93.0,1021.6,SE
2026-01-20 03:00:00,6212125,Barcelos (CIM),41.529375,-8.62705278,2.5,4.0,,1,0.0,0.7,97.0,1022.6,N
2026-01-20 03:00:00,6212126,Esposende (CIM),41.52645556,-8.77984444,9.0,5.5,,3,0.0,2.5,98.0,1021.7,E
2026-01-20 03:00:00,6213012,Carregal do Sal (CIM),40.46718056,-7.92626389,4.0,2.7,,3,,1.1,98.0,,E
2026-01-20 03:00:00,6213013,Castro Daire / Mézio (CIM),40.98086111,-7.88318889,9.4,2.0,,1,,2.6,93.0,,N
2026-01-20 03:00:00,6213014,Mangualde / Chãs de Tavares  (CIM),40.61096111,-7.60838889,6.8,2.2,,7,0.0,1.9,98.0,,W
2026-01-20 03:00:00,6213016,Oliveira de Frades (CIM),40.716925,-8.20133889,8.6,4.3,,5,,2.4,82.0,,S
2026-01-20 03:00:00,6213017,Penalva do Castelo (CIM),40.65706389,-7.69655278,2.2,-1.1,,2,0.0,0.6,100.0,,NE
2026-01-20 03:00:00,6213020,Satão (CIM),40.76072778,-7.72019722,2.2,1.5,,7,0.0,0.6,96.0,,W
2026-01-20 03:00:00,6213022,Vila Nova de Paiva (CIM),40.85595,-7.72716389,4.0,0.1,,7,0.0,1.1,,,W
2026-01-20 03:00:00,6213611,Arganil / Aeródromo (CIM),40.274578,-7.974399,4.7,3.3,,2,0.0,1.3,100.0,,NE
2026-01-20 03:00:00,6213612,Cantanhede / Fonte Dom Pedro (CIM),40.341894,-8.577613,5.4,1.5,,4,0.0,1.5,96.0,,SE
2026-01-20 03:00:00,6213613,Coimbra / Mata de São Pedro (CIM),40.330787,-8.374887,4.7,4.0,,4,,1.3,100.0,,SE
2026-01-20 03:00:00,6213614,Góis / Quinta da Ribeira (CIM),40.171642,-8.103238,5.0,,,2,,1.4,,,NE
2026-01-20 03:00:00,6213615,Mealhada / Quinta do Vale (CIM),40.373343,-8.4388429,2.9,2.7,,4,0.0,0.8,99.0,,SE
2026-01-20 03:00:00,6213616,Mortágua / Aeródromo (CIM),40.426239,-8.232142,2.9,3.6,,1,0.0,0.8,100.0,,N
2026-01-20 03:00:00,6213617,Penacova / Hombres (CIM),40.280921,-8.198685,3.2,,,5,0.0,0.9,100.0,,S
2026-01-20 03:00:00,6213619,Vila Nova de Poiares (CIM),40.211411,-8.241995,3.2,3.6,,3,0.1,0.9,96.0,,E
2026-01-20 03:00:00,6213620,Oliveira do Hospital (CIM),40.413306,-7.867972,6.5,0.3,,3,0.0,1.8,99.0,,E
2026-01-20 03:00:00,6214119,Pedrógão Grande (CMPG),39.926573,-8.150912,8.3,1.6,,3,0.0,2.3,100.0,1022.6,E
2026-01-20 03:00:00,6215302,"Lisboa, Carnide (CML)",38.7751,-9.1855,3.6,8.2,,6,0.0,1.0,94.0,1021.7,SW
2026-01-20 03:00:00,6215360,Oeiras / Vila Fria (CMO),38.7239536,-9.2939255,8.3,9.2,0.0,9,0.0,2.3,87.0,1022.6,N
2026-01-20 03:00:00,7240919,"Lisboa, Amoreiras (LFCL)",38.7239,-9.1649,2.2,7.8,,1,0.0,0.6,100.0,1022.7,N
2026-01-20 04:00:00,11217160,Santa Maria / Praia Formosa (DROTRH),36.9542,-25.0917,10.8,12.2,0.0,2,0.0,3.0,80.0,,NE
2026-01-20 04:00:00,11217165,Santa Maria / Maia (DROTRH),36.9412,-25.0176,5.0,11.4,0.0,6,0.0,1.4,82.0,,SW
2026-01-20 04:00:00,11217217,São Miguel / Santana (DROTRH),37.8049,-25.5618,7.9,12.8,0.0,6,0.0,2.2,85.0,,SW
2026-01-20 04:00:00,11217225,São Miguel / Sete Cidades (DROTRH),37.8679,-25.772,11.9,12.3,0.0,6,0.0,3.3,89.0,,SW
2026-01-20 04:00:00,11217255,São Miguel / Lagoa das Furnas (DROTRH),37.7619,-25.3291,5.0,7.8,0.0,3,0.0,1.4,95.0,,E
2026-01-20 04:00:00,11217370,Terceira / Ribeira das Nove (DROTRH),38.754,-27.3245,7.2,10.7,0.0,7,0.0,2.0,99.0,,W
2026-01-20 04:00:00,11217372,Terceira / Serra do Cume (DROTRH),38.7002,-27.1031,21.6,10.1,0.0,7,0.0,6.0,100.0,,W
2026-01-20 04:00:00,11217430,Graciosa / Serra das Fontes (DROTRH),39.0672,-28.0038,26.6,13.6,0.0,8,0.0,7.4,99.0,,NW
2026-01-20 04:00:00,11217510,São Jorge / Pico do Areeiro (DROTRH),38.6435,-28.0591,30.6,9.8,0.0,6,0.0,8.5,100.0,,SW
2026-01-20 04:00:00,11217645,Pico / Cabecinho (DROTRH),38.4338,-28.1141,11.5,13.0,0.0,7,0.0,3.2,90.0,,W
2026-01-20 04:00:00,11217710,Faial / Alto do Cabouco (DROTRH),38.587,-28.6992,,11.4,0.0,3,0.5,,99.0,,E
2026-01-20 04:00:00,11217730,Faial / Cabeço Verde (DROTRH),38.5843,-28.7576,8.6,12.9,0.0,5,1.6,2.4,100.0,,S
2026-01-20 04:00:00,1200501,Flores (Aeródromo),39.45819,-31.1301,25.9,17.6,0.0,7,0.0,7.2,85.0,1025.5,W
2026-01-20 04:00:00,1200502,Corvo (Aeródromo),39.67389,-31.11362,32.4,16.7,0.0,7,0.0,9.0,94.0,1025.6,W
2026-01-20 04:00:00,1200504,Pico (Aeródromo),38.55219,-28.44137,15.5,15.2,0.1,6,0.0,4.3,90.0,1027.2,SW
2026-01-20 04:00:00,1200505,Horta / Aeroporto,38.5211,-28.7128,21.2,15.7,,7,0.3,5.9,94.0,1027.3,W
2026-01-20 04:00:00,1200506,Horta (Obs. Principe Alberto),38.540781,-28.63225,26.6,15.4,0.0,6,1.4,7.4,98.0,1027.7,SW
2026-01-20 04:00:00,1200510,São Jorge,38.66,-28.17,11.9,14.9,0.0,7,0.0,3.3,95.0,1027.4,W
2026-01-20 04:00:00,1200511,Angra do Heroísmo,38.6659435,-27.216567,10.1,12.9,0.0,8,0.0,2.8,85.0,1027.5,NW
2026-01-20 04:00:00,1200512,P. Delgada (Aeródromo),37.74414,-25.6953048,30.2,14.5,0.0,7,0.0,8.4,80.0,1028.0,W
2026-01-20 04:00:00,1200515,Santa Maria (Aeródromo),36.967175,-25.1679,20.2,13.5,0.0,8,0.0,5.6,73.0,1029.3,NW
2026-01-20 04:00:00,1200521,Santa Catarina (Aeródromo),32.69688,-16.77612,,15.3,0.1,0,0.0,,72.0,1027.1,
2026-01-20 04:00:00,1200522,Funchal,32.64786,-16.888,6.8,15.8,0.0,2,0.0,1.9,67.0,1026.9,NE
2026-01-20 04:00:00,1200524,Porto Santo,33.074029,-16.34868,14.0,14.1,0.0,9,0.0,3.9,75.0,1026.9,N
2026-01-20 04:00:00,1200531,Cabo Carvoeiro,39.38,-9.40737778,20.2,12.5,,8,0.0,5.6,65.0,1021.1,NW
2026-01-20 04:00:00,1200533,Sagres,37.012835,-8.949089,7.9,8.7,,2,0.0,2.2,78.0,1021.8,NE
2026-01-20 04:00:00,1200535,Lisboa (Geofísico),38.71907778,-9.14972222,4.0,9.3,0.0,7,0.0,1.1,100.0,1021.5,W
2026-01-20 04:00:00,1200541,Sines,37.954504,-8.838271,4.3,8.1,0.0,2,0.0,1.2,100.0,1021.9,NE
2026-01-20 04:00:00,1200545,"Porto, Pedras Rubras (Aeródromo)",41.233502,-8.681332,14.0,4.7,0.0,3,0.0,3.9,97.0,1020.9,E
2026-01-20 04:00:00,1200548,Coimbra (Aeródromo),40.15006944,-8.46669167,4.7,5.7,0.0,3,0.0,1.3,100.0,1021.3,E
2026-01-20 04:00:00,1200551,"Viana Castelo, Chafé",41.648875,-8.804606,12.6,4.3,0.0,3,0.0,3.5,100.0,1020.7,E
2026-01-20 04:00:00,1200554,Faro (Aeródromo),37.016579,-7.971953,13.0,7.2,0.0,8,0.0,3.6,90.0,1021.0,NW
2026-01-20 04:00:00,1200558,Évora (C.Coordenação),38.53336389,-7.88338056,4.7,4.0,0.0,7,0.0,1.3,,1021.9,W
2026-01-20 04:00:00,1200559,Viseu (Aeródromo),40.72645,-7.887472,3.6,1.8,,7,0.0,1.0,99.0,1022.2,W
2026-01-20 04:00:00,1200560,Viseu (C.Coordenação),40.71492222,-7.89592222,10.8,2.6,,7,0.0,3.0,96.0,1022.4,W
2026-01-20 04:00:00,1200562,Beja,38.02493056,-7.867275,14.8,5.2,0.0,7,0.0,4.1,100.0,1021.1,W
2026-01-20 04:00:00,1200567,Vila Real,41.27418611,-7.7171,2.9,2.3,0.0,5,0.0,0.8,100.0,1021.8,S
2026-01-20 04:00:00,1200568,Penhas Douradas,40.41136667,-7.55865278,35.3,0.3,0.0,7,,9.8,85.0,,W
2026-01-20 04:00:00,1200570,Castelo Branco,39.83339444,-7.46678889,7.6,4.4,0.0,7,0.0,2.1,100.0,1020.2,W
2026-01-20 04:00:00,1200571,Portalegre,39.29546944,-7.41996944,12.6,5.0,0.0,9,0.0,3.5,79.0,1021.0,N
2026-01-20 04:00:00,1200575,Bragança,41.80388889,-6.74283889,4.0,-1.5,0.0,4,0.0,1.1,94.0,1023.0,SE
2026-01-20 04:00:00,1200576,Bragança (Aeródromo),41.85763611,-6.70796389,,-1.6,,0,0.0,,95.0,1022.4,
2026-01-20 04:00:00,1200843,Évora (Aeródromo),38.5296,-7.8916,1.4,4.3,,7,0.0,0.4,97.0,1021.6,W
2026-01-20 04:00:00,1210513,P. Delgada (Obs. A. Chaves),37.7464,-25.662283,6.1,14.1,1.5,5,0.0,1.7,76.0,,S
2026-01-20 04:00:00,1210517,Flores / Morro Alto,39.4633,-31.2207,50.8,11.8,,6,0.7,14.1,100.0,1023.4,SW
2026-01-20 04:00:00,1210518,São Miguel - Pico Santos De Cima,37.819,-25.7512,39.6,7.9,,7,0.2,11.0,100.0,1028.2,W
2026-01-20 04:00:00,1210520,Ilhas selvagens,30.140595,-15.869153,22.0,15.1,0.0,2,0.0,6.1,67.0,1025.1,NE
2026-01-20 04:00:00,1210550,Coruche / Cruz Do Leão,39.07101,-8.4,3.6,4.5,,7,0.2,1.0,100.0,1021.7,W
2026-01-20 04:00:00,1210553,Loulé / Cavalos De Caldeirão,37.3042,-7.9534,25.2,4.9,,9,0.0,7.0,97.0,1022.0,N
2026-01-20 04:00:00,1210577,"Odemira, S.Teotónio",37.54710833,-8.72899167,5.4,7.7,0.0,2,0.0,1.5,83.0,,NE
2026-01-20 04:00:00,1210580,"Lisboa, Relógio",38.7618,-9.1254,,8.2,,0,0.0,,89.0,1022.1,
2026-01-20 04:00:00,1210604,V.N.Cerveira (Aeródromo),41.96673056,-8.66676111,2.5,3.6,0.0,1,0.0,0.7,100.0,1019.8,N
2026-01-20 04:00:00,1210605,"Monção, Valinha",42.06669,-8.383347,3.2,3.3,0.0,2,0.0,0.9,100.0,,NE
2026-01-20 04:00:00,1210606,"Lamas de Mouro, P.Ribeiro",42.03333333,-8.18333333,4.7,-0.1,0.0,6,0.0,1.3,99.0,1023.1,SW
2026-01-20 04:00:00,1210611,Montalegre,41.82276667,-7.78797778,,0.1,0.0,0,0.0,,99.0,,
2026-01-20 04:00:00,1210612,Vinhais,41.8434,-7.0034416,3.2,0.1,,4,0.0,0.9,99.0,,SE
2026-01-20 04:00:00,1210615,Ponte de Lima,41.75013889,-8.56671389,2.5,3.3,0.0,3,0.0,0.7,99.0,,E
2026-01-20 04:00:00,1210616,Chaves (Aeródromo),41.72516667,-7.46540833,1.8,0.3,0.0,8,0.0,0.5,96.0,1021.9,NW
2026-01-20 04:00:00,1210619,Cabril,41.71666667,-8.01666667,2.2,2.4,,2,0.0,0.6,94.0,,NE
2026-01-20 04:00:00,1210622,"Braga, Merelim",41.56678056,-8.45003056,1.8,2.0,0.0,3,0.0,0.5,100.0,1021.6,E
2026-01-20 04:00:00,1210625,Guimarães,41.4289,-8.3178,,2.3,0.0,0,,,95.0,1021.6,
2026-01-20 04:00:00,1210630,Cabeceiras de Basto,41.53333333,-7.96666667,1.8,1.9,0.2,2,0.0,0.5,100.0,,NE
2026-01-20 04:00:00,1210632,Mirandela,41.51478611,-7.19083889,1.1,-0.5,0.0,4,0.0,0.3,95.0,,SE
2026-01-20 04:00:00,1210633,"Macedo Cavaleiros, Bagueixe",41.56666667,-6.78333333,5.0,-1.1,,6,0.0,1.4,98.0,,SW
2026-01-20 04:00:00,1210635,Miranda do Douro,41.51666667,-6.28333333,0.7,-1.8,,6,0.0,0.2,99.0,,SW
2026-01-20 04:00:00,1210637,Mogadouro,41.33333333,-6.73333333,6.1,2.4,0.0,8,0.0,1.7,88.0,,NW
2026-01-20 04:00:00,1210643,Paços Ferreira,41.27365,-8.38012,1.4,1.0,,9,0.0,0.4,100.0,,N
2026-01-20 04:00:00,1210644,Carrazêda de Ansiães,41.23333333,-7.28333333,0.0,-1.8,0.0,0,0.0,0.0,94.0,,
2026-01-20 04:00:00,1210654,Moncorvo,41.18333333,-7.01666667,3.6,2.0,0.0,6,0.0,1.0,88.0,1021.7,SW
2026-01-20 04:00:00,1210655,"Pinhão, Santa Bárbara",41.172775,-7.5489722,1.4,3.0,,4,0.0,0.4,97.0,,SE
2026-01-20 04:00:00,1210657,Luzim,41.14585,-8.2490333,2.2,2.6,0.0,8,0.0,0.6,99.0,,NW
2026-01-20 04:00:00,1210663,Moimenta da Beira,40.98333333,-7.6,8.3,0.9,0.0,8,0.0,2.3,95.0,,NW
2026-01-20 04:00:00,1210666,"Trancoso, Bandarra",40.78333333,-7.36666667,7.2,0.9,0.0,6,0.0,2.0,99.0,,SW
2026-01-20 04:00:00,1210669,Arouca,40.93333333,-8.25,0.7,0.8,0.0,7,0.0,0.2,99.0,,W
2026-01-20 04:00:00,1210671,"F. Castelo Rodrigo, V.Torpim",40.75,-6.88333333,3.6,0.8,0.0,5,0.0,1.0,99.0,,S
2026-01-20 04:00:00,1210683,Guarda,40.53333333,-7.26666667,13.3,0.4,0.0,8,0.0,3.7,100.0,,NW
2026-01-20 04:00:00,1210685,Nelas,40.51666667,-7.85,0.0,1.7,0.0,0,0.1,0.0,100.0,,
2026-01-20 04:00:00,1210686,"Pampilhosa da Serra, Fajão",40.145653,-7.92704,11.5,1.3,,9,0.0,3.2,100.0,,N
2026-01-20 04:00:00,1210687,Covilhã (Aeródromo),40.264309,-7.482302,2.2,1.2,0.0,7,,0.6,92.0,,W
2026-01-20 04:00:00,1210690,Aldeia Souto (Q. Lageosa),40.35425833,-7.38931111,2.2,0.7,0.0,8,0.0,0.6,85.0,,NW
2026-01-20 04:00:00,1210697,Lousã (Aeródromo),40.143922,-8.244066,2.9,2.2,,9,0.0,0.8,100.0,,N
2026-01-20 04:00:00,1210698,Fundão,40.14063611,-7.55362778,2.5,2.4,0.0,5,0.0,0.7,96.0,,S
2026-01-20 04:00:00,1210702,Aveiro (Universidade),40.63529722,-8.65958333,5.8,3.8,0.0,4,0.0,1.6,99.0,1021.6,SE
2026-01-20 04:00:00,1210704,Dunas de Mira,40.445955,-8.76168055,1.8,2.4,0.0,2,0.0,0.5,99.0,,NE
2026-01-20 04:00:00,1210705,Anadia,40.438852,-8.439996,2.5,3.1,0.0,3,0.0,0.7,97.0,,E
2026-01-20 04:00:00,1210707,"Coimbra, Bencanta",40.2134694,-8.45515277,2.5,3.7,0.0,3,0.0,0.7,100.0,,E
2026-01-20 04:00:00,1210713,"Figueira da Foz, Vila Verde",40.139764,-8.805945,2.9,2.9,0.0,2,0.0,0.8,,,NE
2026-01-20 04:00:00,1210716,Ansião,39.9,-8.4,2.5,5.1,0.0,8,0.0,0.7,99.0,,NW
2026-01-20 04:00:00,1210718,Leiria (Aeródromo),39.780553,-8.818166,5.8,3.0,0.0,3,0.0,1.6,100.0,1021.6,E
2026-01-20 04:00:00,1210724,"Tomar, Valdonas",39.6,-8.36666667,2.9,2.1,412.2,9,0.0,0.8,100.0,,N
2026-01-20 04:00:00,1210726,Alcobaça,39.51666667,-8.96666667,0.4,3.7,0.0,3,0.0,0.1,96.0,,E
2026-01-20 04:00:00,1210729,Rio Maior,39.35,-8.93333333,1.1,3.5,20.8,7,0.1,0.3,99.0,,W
2026-01-20 04:00:00,1210734,"Santarém, Fonte Boa",39.201216,-8.736656,4.3,6.4,0.7,7,0.0,1.2,96.0,1021.5,W
2026-01-20 04:00:00,1210735,Chamusca / Chouto,39.27,-8.3508,2.9,1.4,,9,0.0,0.8,100.0,1021.7,N
2026-01-20 04:00:00,1210739,"Torres Vedras, Dois Portos",39.04389444,-9.179,0.4,4.6,0.0,4,0.0,0.1,99.0,,SE
2026-01-20 04:00:00,1210744,Coruche,38.94096667,-8.51073611,3.2,3.2,0.1,4,0.0,0.9,,,SE
2026-01-20 04:00:00,1210746,Santa Cruz (Aeródromo),39.12594166,-9.3790388,12.6,10.3,0.0,8,0.0,3.5,72.0,1021.2,NW
2026-01-20 04:00:00,1210750,Cabo da Roca,38.78171,-9.4975361,15.1,11.3,0.0,2,0.0,4.2,72.0,,NE
2026-01-20 04:00:00,1210752,Sintra/Tapada do Mouco,38.781669,-9.400398,9.4,6.7,,8,0.0,2.6,96.0,,NW
2026-01-20 04:00:00,1210762,"Lisboa, Tapada da Ajuda",38.70956111,-9.182825,2.5,8.2,0.0,8,0.0,0.7,100.0,,NW
2026-01-20 04:00:00,1210765,Cabo Raso,38.70900833,-9.48538333,17.6,13.2,,8,0.0,4.9,69.0,,NW
2026-01-20 04:00:00,1210766,"Barreiro, Lavradio",38.67448611,-9.04766111,5.4,10.1,0.0,7,0.0,1.5,88.0,,W
2026-01-20 04:00:00,1210767,Pegões,38.65079,-8.63503,0.7,4.2,0.0,3,0.0,0.2,100.0,,E
2026-01-20 04:00:00,1210770,Setúbal,38.54846008,-8.89077058,2.5,5.4,0.0,8,0.0,0.7,96.0,,NW
2026-01-20 04:00:00,1210773,"Almada, P.Rainha",38.617111,-9.212804,3.2,,2.2,1,0.0,0.9,,,N
2026-01-20 04:00:00,1210776,"Alcácer do Sal, Barrosinha",38.36666667,-8.48333333,1.1,3.9,0.0,4,0.0,0.3,99.0,,SE
2026-01-20 04:00:00,1210783,Alvalade,37.946806,-8.394504,3.6,3.5,0.0,5,0.0,1.0,98.0,,S
2026-01-20 04:00:00,1210785,Ourique / Santana Da Serra,37.5025,-8.3019,4.3,2.2,0.0,3,0.0,1.2,99.0,1022.6,E
2026-01-20 04:00:00,1210789,Aljezur,37.31675278,-8.80001667,2.2,3.9,0.0,3,0.0,0.6,99.0,,E
2026-01-20 04:00:00,1210790,Fóia,37.3143,-8.595733,50.8,3.5,0.0,9,0.0,14.1,90.0,,N
2026-01-20 04:00:00,1210800,"Sabugal, Martim Rei",40.33918056,-7.03693333,11.2,1.0,0.0,2,0.0,3.1,99.0,,NE
2026-01-20 04:00:00,1210803,Zebreira,39.86666667,-7.01666667,9.7,3.4,0.0,7,0.0,2.7,89.0,,W
2026-01-20 04:00:00,1210806,"Proença-a-Nova, P.Moitas",39.73333333,-7.86666667,6.1,5.7,0.0,1,0.0,1.7,75.0,,N
2026-01-20 04:00:00,1210812,Alvega,39.46666667,-8.05,1.1,,,5,,0.3,,,S
2026-01-20 04:00:00,1210824,"Avis, Benavila",39.1,-7.86666667,9.4,5.5,0.0,7,0.0,2.6,99.0,,W
2026-01-20 04:00:00,1210826,Mora,38.94068,-8.16406,5.4,5.4,0.0,6,0.0,1.5,99.0,,SW
2026-01-20 04:00:00,1210835,Elvas,38.8908,-7.13976111,12.6,6.5,0.0,8,0.0,3.5,83.0,,NW
2026-01-20 04:00:00,1210837,Estremoz,38.86666667,-7.51666667,6.8,3.1,0.0,7,0.0,1.9,100.0,,W
2026-01-20 04:00:00,1210840,"Reguengos, S. P. do Corval",38.484866,-7.4729166,16.9,4.3,0.0,7,0.0,4.7,100.0,,W
2026-01-20 04:00:00,1210846,Montemor-O-Novo,38.6451,-8.1991,4.0,3.4,,7,0.1,1.1,100.0,1022.9,W
2026-01-20 04:00:00,1210847,Viana do Alentejo,38.3319194,-8.04553888,5.8,,,7,,1.6,,,W
2026-01-20 04:00:00,1210848,"Portel, Oriola",38.31666667,-7.86666667,6.5,4.4,,8,0.0,1.8,97.0,,NW
2026-01-20 04:00:00,1210851,Amareleja,38.2007,-7.2261,6.1,,0.0,7,0.0,1.7,,1019.9,W
2026-01-20 04:00:00,1210863,"Mértola, Vale Formoso",37.75,-7.55,13.3,6.0,0.0,8,0.0,3.7,98.0,,NW
2026-01-20 04:00:00,1210864,"Castro Verde, N.Corvo",37.57655833,-7.97211389,9.7,6.2,0.0,8,0.0,2.7,99.0,,NW
2026-01-20 04:00:00,1210865,"Alcoutim, Mart.Longo",37.43333333,-7.76666667,10.8,5.5,,7,0.0,3.0,97.0,1021.6,W
2026-01-20 04:00:00,1210866,Vila Real de S.António,37.1871055,-7.416325,,7.9,,0,0.0,,90.0,,
2026-01-20 04:00:00,1210867,Castro Marim (RN Sapal),37.21666667,-7.45,8.6,8.7,0.0,1,0.0,2.4,91.0,,N
2026-01-20 04:00:00,1210874,Albufeira,37.0935,-8.262,11.2,8.2,,8,0.0,3.1,90.0,,NW
2026-01-20 04:00:00,1210878,Portimão (Aeródromo),37.149167,-8.581389,4.0,6.1,0.0,3,0.0,1.1,93.0,1021.6,E
2026-01-20 04:00:00,1210881,"Olhão, EPPO",37.033,-7.821,4.7,7.1,0.0,8,0.0,1.3,92.0,1021.6,NW
2026-01-20 04:00:00,1210883,Tavira,37.12166968,-7.62050375,5.0,7.2,,7,0.0,1.4,91.0,1022.1,W
2026-01-20 04:00:00,1210907,Faja / Ilha das Flores,39.45328,-31.2647,,16.7,,0,,,99.0,1027.3,
2026-01-20 04:00:00,1210932,"S. Miguel, Nordeste",37.83256,-25.150108,4.7,9.8,,6,0.0,1.3,79.0,,SW
2026-01-20 04:00:00,1210956,"Madeira, Porto Moniz",32.867477,-17.171373,,16.0,0.0,0,0.0,,68.0,,
2026-01-20 04:00:00,1210960,"Madeira, S. Jorge, Santana",32.83446944,-16.906219,14.4,13.3,0.4,7,0.0,4.0,81.0,1027.4,W
2026-01-20 04:00:00,1210965,"Madeira, Santana",32.808238,-16.8864166,,10.9,27.7,0,0.1,,92.0,,
2026-01-20 04:00:00,1210967,"Madeira, São Vicente",32.8001833,-17.044722,,12.0,0.0,0,0.0,,85.0,,
2026-01-20 04:00:00,1210972,"Madeira, Pico Alto",32.693491,-16.903955,9.0,5.8,0.0,2,,2.5,,,NE
2026-01-20 04:00:00,1210973,"Madeira, Areeiro",32.71666667,-16.91666667,2.5,2.5,0.0,6,0.0,0.7,85.0,,SW
2026-01-20 04:00:00,1210974,"Madeira, Pico do Areeiro",32.735107,-16.928271,,4.3,,0,0.0,,31.0,,
2026-01-20 04:00:00,1210975,"Madeira, Santo da Serra",32.7258972,-16.816822,,9.1,0.0,0,0.1,,99.0,,
2026-01-20 04:00:00,1210976,"Madeira, Monte",32.675833,-16.906944,5.4,10.8,2.0,2,0.0,1.5,78.0,,NE
2026-01-20 04:00:00,1210977,"Madeira, Cancela",32.64500556,-16.86575,3.2,13.7,0.0,3,0.0,0.9,84.0,,E
2026-01-20 04:00:00,1210978,"Madeira, S. Lourenço",32.747,-16.706,23.4,15.0,0.0,9,0.0,6.5,80.0,,N
2026-01-20 04:00:00,1210984,"Madeira, Quinta Grande",32.6629722,-17.01503611,,11.8,0.1,0,0.0,,61.0,,
2026-01-20 04:00:00,1210986,Ponta do Sol/Lugar de Baixo,32.681502,-17.104167,2.2,15.7,0.0,9,0.0,0.6,57.0,,N
2026-01-20 04:00:00,1210987,Prazeres (Calheta),32.757205,-17.201551,15.8,10.3,0.0,9,0.0,4.4,83.0,,N
2026-01-20 04:00:00,1240546,"Porto, Serra do Pilar",41.1385194,-8.6025,16.2,3.6,804.7,4,0.0,4.5,100.0,1020.8,SE
2026-01-20 04:00:00,1240566,Vila Real (Cidade),41.30898056,-7.740522,3.2,1.5,,3,0.0,0.9,99.0,,E
2026-01-20 04:00:00,1240610,Viana do Castelo,41.695,-8.82916,,5.3,,0,0.0,,95.0,,
2026-01-20 04:00:00,1240903,"Porto, Massarelos",41.15257,-8.62598,,4.5,,0,,,100.0,,
2026-01-20 04:00:00,1240971,"Madeira, Funchal, Lido",32.63655,-16.935592,0.0,16.4,0.2,0,0.0,0.0,62.0,,
2026-01-20 04:00:00,1259202,Lousã/Candal,40.08090803,-8.20484533,,8.0,,0,,,72.0,,
2026-01-20 04:00:00,1259203,Seia/Aeródromo,40.45517056,-7.68614846,0.4,-2.3,,1,0.0,0.1,97.0,1023.0,N
2026-01-20 04:00:00,1259204,Seia/Senhora do Espinheiro,40.412775,-7.673406,3.6,0.2,,4,0.0,1.0,91.0,1022.7,SE
2026-01-20 04:00:00,5210758,Alcochete / Campo Tiro,38.7627,-8.7825,3.6,4.5,,6,0.1,1.0,100.0,1021.3,SW
2026-01-20 04:00:00,6210872,Loulé (CML),37.129946,-8.06523593,5.0,6.4,,8,,1.4,87.0,1021.5,NW
2026-01-20 04:00:00,6210879,Portimão (Praia da Rocha),37.11670461,-8.52946314,4.0,9.9,,1,0.0,1.1,80.0,,N
2026-01-20 04:00:00,6211211,Monção - Guimil (CIM),42.042944,-8.421872,8.6,,0.1,5,,2.4,,1018.5,S
2026-01-20 04:00:00,6211213,Paredes De Coura - Vascões (CIM),41.913444,-8.492111,2.2,3.1,4.0,4,,0.6,99.0,1021.0,SE
2026-01-20 04:00:00,6211216,Arcos De Valdevez - Heliporto (CIM),41.831,-8.44375,4.3,4.4,,3,0.0,1.2,91.0,1021.7,E
2026-01-20 04:00:00,6211218,Ponte De Lima - Anais (CIM),41.698083,-8.522444,1.4,3.9,0.0,4,,0.4,93.0,1020.5,SE
2026-01-20 04:00:00,6212121,Terras de Bouro/Barral (CIM),41.70225278,-8.31808611,2.2,4.0,,6,0.0,0.6,94.0,1018.3,SW
2026-01-20 04:00:00,6212122,Amares Caldelas (CIM),41.66796389,-8.37977778,2.2,2.6,,4,0.0,0.6,95.0,1021.2,SE
2026-01-20 04:00:00,6212123,Vila Verde (CIM),41.64686111,-8.43398056,0.7,2.1,,2,,0.2,91.0,1021.0,NE
2026-01-20 04:00:00,6212124,Braga (CIM),41.53568333,-8.42514722,6.1,5.5,,3,0.0,1.7,93.0,1021.2,E
2026-01-20 04:00:00,6212125,Barcelos (CIM),41.529375,-8.62705278,2.5,4.1,,2,0.0,0.7,97.0,1022.1,NE
2026-01-20 04:00:00,6212126,Esposende (CIM),41.52645556,-8.77984444,13.0,5.6,,3,0.0,3.6,98.0,1021.1,E
2026-01-20 04:00:00,6213012,Carregal do Sal (CIM),40.46718056,-7.92626389,3.6,3.1,,2,,1.0,99.0,,NE
2026-01-20 04:00:00,6213013,Castro Daire / Mézio (CIM),40.98086111,-7.88318889,8.3,1.5,,0,,2.3,95.0,,
2026-01-20 04:00:00,6213014,Mangualde / Chãs de Tavares  (CIM),40.61096111,-7.60838889,7.6,2.1,,6,0.0,2.1,99.0,,SW
2026-01-20 04:00:00,6213016,Oliveira de Frades (CIM),40.716925,-8.20133889,8.6,4.5,,6,,2.4,83.0,,SW
2026-01-20 04:00:00,6213017,Penalva do Castelo (CIM),40.65706389,-7.69655278,2.5,-1.3,,2,0.0,0.7,100.0,,NE
2026-01-20 04:00:00,6213020,Satão (CIM),40.76072778,-7.72019722,4.7,1.4,,6,0.0,1.3,96.0,,SW
2026-01-20 04:00:00,6213022,Vila Nova de Paiva (CIM),40.85595,-7.72716389,2.2,0.8,,8,0.0,0.6,,,NW
2026-01-20 04:00:00,6213611,Arganil / Aeródromo (CIM),40.274578,-7.974399,2.2,2.1,,2,0.1,0.6,100.0,,NE
2026-01-20 04:00:00,6213612,Cantanhede / Fonte Dom Pedro (CIM),40.341894,-8.577613,3.6,1.8,,5,0.0,1.0,96.0,,S
2026-01-20 04:00:00,6213613,Coimbra / Mata de São Pedro (CIM),40.330787,-8.374887,2.2,4.0,,6,,0.6,100.0,,SW
2026-01-20 04:00:00,6213614,Góis / Quinta da Ribeira (CIM),40.171642,-8.103238,5.4,,,1,,1.5,,,N
2026-01-20 04:00:00,6213615,Mealhada / Quinta do Vale (CIM),40.373343,-8.4388429,2.5,2.0,,4,0.0,0.7,99.0,,SE
2026-01-20 04:00:00,6213616,Mortágua / Aeródromo (CIM),40.426239,-8.232142,5.4,3.4,,1,0.1,1.5,100.0,,N
2026-01-20 04:00:00,6213617,Penacova / Hombres (CIM),40.280921,-8.198685,3.6,,,6,0.1,1.0,100.0,,SW
2026-01-20 04:00:00,6213619,Vila Nova de Poiares (CIM),40.211411,-8.241995,1.8,3.2,,3,0.0,0.5,96.0,,E
2026-01-20 04:00:00,6213620,Oliveira do Hospital (CIM),40.413306,-7.867972,4.3,0.7,,2,0.0,1.2,99.0,,NE
2026-01-20 04:00:00,6214119,Pedrógão Grande (CMPG),39.926573,-8.150912,8.3,1.2,,2,0.0,2.3,100.0,1022.4,NE
2026-01-20 04:00:00,6215302,"Lisboa, Carnide (CML)",38.7751,-9.1855,6.5,8.2,,7,0.0,1.8,93.0,1021.3,W
2026-01-20 04:00:00,6215360,Oeiras / Vila Fria (CMO),38.7239536,-9.2939255,10.4,9.3,0.0,9,0.0,2.9,84.0,1022.1,N
2026-01-20 04:00:00,7240919,"Lisboa, Amoreiras (LFCL)",38.7239,-9.1649,2.2,8.0,,8,0.0,0.6,100.0,1022.2,NW
2026-01-20 05:00:00,11217160,Santa Maria / Praia Formosa (DROTRH),36.9542,-25.0917,4.7,12.4,0.0,3,0.0,1.3,82.0,,E
2026-01-20 05:00:00,11217165,Santa Maria / Maia (DROTRH),36.9412,-25.0176,9.4,11.5,0.0,8,0.0,2.6,83.0,,NW
2026-01-20 05:00:00,11217217,São Miguel / Santana (DROTRH),37.8049,-25.5618,7.6,13.3,0.0,6,0.0,2.1,85.0,,SW
2026-01-20 05:00:00,11217225,São Miguel / Sete Cidades (DROTRH),37.8679,-25.772,11.9,12.5,0.0,7,0.0,3.3,89.0,,W
2026-01-20 05:00:00,11217255,São Miguel / Lagoa das Furnas (DROTRH),37.7619,-25.3291,3.2,8.4,0.0,4,0.0,0.9,94.0,,SE
2026-01-20 05:00:00,11217370,Terceira / Ribeira das Nove (DROTRH),38.754,-27.3245,7.9,10.8,0.0,7,0.0,2.2,100.0,,W
2026-01-20 05:00:00,11217372,Terceira / Serra do Cume (DROTRH),38.7002,-27.1031,24.5,10.8,0.0,7,0.0,6.8,100.0,,W
2026-01-20 05:00:00,11217430,Graciosa / Serra das Fontes (DROTRH),39.0672,-28.0038,29.2,14.0,0.0,8,0.0,8.1,100.0,,NW
2026-01-20 05:00:00,11217510,São Jorge / Pico do Areeiro (DROTRH),38.6435,-28.0591,32.8,10.8,0.0,6,0.3,9.1,100.0,,SW
2026-01-20 05:00:00,11217645,Pico / Cabecinho (DROTRH),38.4338,-28.1141,6.8,12.3,0.0,7,0.0,1.9,93.0,,W
2026-01-20 05:00:00,11217710,Faial / Alto do Cabouco (DROTRH),38.587,-28.6992,,11.5,0.0,3,0.2,,99.0,,E
2026-01-20 05:00:00,11217730,Faial / Cabeço Verde (DROTRH),38.5843,-28.7576,4.0,13.4,0.0,6,0.2,1.1,100.0,,SW
2026-01-20 05:00:00,1200501,Flores (Aeródromo),39.45819,-31.1301,24.5,17.3,0.0,7,0.0,6.8,86.0,1025.0,W
2026-01-20 05:00:00,1200502,Corvo (Aeródromo),39.67389,-31.11362,31.0,16.7,382.9,8,0.0,8.6,93.0,1025.2,NW
2026-01-20 05:00:00,1200504,Pico (Aeródromo),38.55219,-28.44137,18.7,15.7,0.6,7,0.1,5.2,94.0,1026.9,W
2026-01-20 05:00:00,1200505,Horta / Aeroporto,38.5211,-28.7128,23.8,16.1,,7,0.1,6.6,94.0,1026.8,W
2026-01-20 05:00:00,1200506,Horta (Obs. Principe Alberto),38.540781,-28.63225,36.0,15.8,0.0,7,0.2,10.0,100.0,1027.1,W
2026-01-20 05:00:00,1200510,São Jorge,38.66,-28.17,13.0,15.1,0.0,7,0.0,3.6,,1027.1,W
2026-01-20 05:00:00,1200511,Angra do Heroísmo,38.6659435,-27.216567,13.3,13.7,0.0,7,0.0,3.7,85.0,1026.9,W
2026-01-20 05:00:00,1200512,P. Delgada (Aeródromo),37.74414,-25.6953048,31.7,14.7,0.0,7,0.0,8.8,81.0,1027.5,W
2026-01-20 05:00:00,1200515,Santa Maria (Aeródromo),36.967175,-25.1679,25.6,13.9,0.0,7,0.0,7.1,73.0,1028.9,W
2026-01-20 05:00:00,1200521,Santa Catarina (Aeródromo),32.69688,-16.77612,,15.4,0.0,0,0.0,,68.0,1026.2,
2026-01-20 05:00:00,1200522,Funchal,32.64786,-16.888,6.1,15.2,0.0,2,0.0,1.7,68.0,1026.3,NE
2026-01-20 05:00:00,1200524,Porto Santo,33.074029,-16.34868,18.7,14.5,0.0,9,0.0,5.2,71.0,1026.5,N
2026-01-20 05:00:00,1200531,Cabo Carvoeiro,39.38,-9.40737778,18.7,12.5,,8,0.0,5.2,67.0,1020.8,NW
2026-01-20 05:00:00,1200533,Sagres,37.012835,-8.949089,6.8,7.7,,2,0.0,1.9,82.0,1021.5,NE
2026-01-20 05:00:00,1200535,Lisboa (Geofísico),38.71907778,-9.14972222,7.6,9.1,0.0,8,0.0,2.1,100.0,1021.0,NW
2026-01-20 05:00:00,1200541,Sines,37.954504,-8.838271,11.2,8.8,0.0,8,0.0,3.1,100.0,1021.3,NW
2026-01-20 05:00:00,1200545,"Porto, Pedras Rubras (Aeródromo)",41.233502,-8.681332,17.3,4.8,0.0,3,0.0,4.8,97.0,1020.5,E
2026-01-20 05:00:00,1200548,Coimbra (Aeródromo),40.15006944,-8.46669167,1.8,5.7,0.0,3,0.1,0.5,100.0,1021.2,E
2026-01-20 05:00:00,1200551,"Viana Castelo, Chafé",41.648875,-8.804606,10.1,4.5,0.0,3,0.0,2.8,100.0,1020.0,E
2026-01-20 05:00:00,1200554,Faro (Aeródromo),37.016579,-7.971953,13.3,7.3,0.0,8,0.0,3.7,89.0,1021.2,NW
2026-01-20 05:00:00,1200558,Évora (C.Coordenação),38.53336389,-7.88338056,10.4,4.2,0.0,7,0.0,2.9,,1021.6,W
2026-01-20 05:00:00,1200559,Viseu (Aeródromo),40.72645,-7.887472,6.5,1.9,,7,0.0,1.8,99.0,1022.0,W
2026-01-20 05:00:00,1200560,Viseu (C.Coordenação),40.71492222,-7.89592222,9.4,2.8,,7,0.0,2.6,93.0,1022.2,W
2026-01-20 05:00:00,1200562,Beja,38.02493056,-7.867275,7.9,5.4,0.0,7,0.0,2.2,100.0,1020.9,W
2026-01-20 05:00:00,1200567,Vila Real,41.27418611,-7.7171,1.8,3.5,0.0,6,0.0,0.5,99.0,1021.3,SW
2026-01-20 05:00:00,1200568,Penhas Douradas,40.41136667,-7.55865278,36.0,0.2,0.0,7,,10.0,85.0,,W
2026-01-20 05:00:00,1200570,Castelo Branco,39.83339444,-7.46678889,6.5,3.8,0.0,8,0.0,1.8,100.0,1020.0,NW
2026-01-20 05:00:00,1200571,Portalegre,39.29546944,-7.41996944,9.0,4.7,0.0,8,0.0,2.5,80.0,1020.9,NW
2026-01-20 05:00:00,1200575,Bragança,41.80388889,-6.74283889,1.4,-1.6,0.0,7,0.0,0.4,94.0,1022.7,W
2026-01-20 05:00:00,1200576,Bragança (Aeródromo),41.85763611,-6.70796389,,-1.8,,0,0.0,,94.0,1022.2,
2026-01-20 05:00:00,1200843,Évora (Aeródromo),38.5296,-7.8916,7.2,4.7,,7,0.0,2.0,97.0,1021.2,W
2026-01-20 05:00:00,1210513,P. Delgada (Obs. A. Chaves),37.7464,-25.662283,6.1,14.5,2.5,5,0.0,1.7,77.0,,S
