obs_datetime,station_id,station_name,lat,lon,intensidadeVentoKM,temperatura,radiacao,idDireccVento,precAcumulada,intensidadeVento,humidade,pressao,direccVento_txt
2026-01-21 00:00:00,11217160,Santa Maria / Praia Formosa (DROTRH),36.9542,-25.0917,19.4,15.9,0.0,2,0.0,5.4,89.0,,NE
2026-01-21 00:00:00,11217165,Santa Maria / Maia (DROTRH),36.9412,-25.0176,20.2,15.6,0.0,8,0.0,5.6,86.0,,NW
2026-01-21 00:00:00,11217217,São Miguel / Santana (DROTRH),37.8049,-25.5618,7.2,16.5,0.0,6,0.0,2.0,87.0,,SW
2026-01-21 00:00:00,11217225,São Miguel / Sete Cidades (DROTRH),37.8679,-25.772,12.2,14.6,0.0,6,0.0,3.4,96.0,,SW
2026-01-21 00:00:00,11217255,São Miguel / Lagoa das Furnas (DROTRH),37.7619,-25.3291,9.0,15.6,0.0,5,0.0,2.5,80.0,,S
2026-01-21 00:00:00,11217370,Terceira / Ribeira das Nove (DROTRH),38.754,-27.3245,8.6,12.1,0.0,5,0.0,2.4,100.0,,S
2026-01-21 00:00:00,11217372,Terceira / Serra do Cume (DROTRH),38.7002,-27.1031,30.2,13.8,0.0,7,0.0,8.4,100.0,,W
2026-01-21 00:00:00,11217430,Graciosa / Serra das Fontes (DROTRH),39.0672,-28.0038,31.7,14.6,0.0,8,0.0,8.8,100.0,,NW
2026-01-21 00:00:00,11217510,São Jorge / Pico do Areeiro (DROTRH),38.6435,-28.0591,37.4,11.7,0.0,6,0.1,10.4,100.0,,SW
2026-01-21 00:00:00,11217645,Pico / Cabecinho (DROTRH),38.4338,-28.1141,18.0,15.3,0.0,8,0.0,5.0,92.0,,NW
2026-01-21 00:00:00,11217710,Faial / Alto do Cabouco (DROTRH),38.587,-28.6992,,12.0,0.0,7,0.1,,99.0,,W
2026-01-21 00:00:00,11217730,Faial / Cabeço Verde (DROTRH),38.5843,-28.7576,7.6,13.6,0.0,6,0.1,2.1,100.0,,SW
2026-01-21 00:00:00,1200501,Flores (Aeródromo),39.45819,-31.1301,34.2,17.8,0.0,7,0.0,9.5,87.0,1022.4,W
2026-01-21 00:00:00,1200502,Corvo (Aeródromo),39.67389,-31.11362,32.0,17.2,0.0,7,0.0,8.9,91.0,1021.9,W
2026-01-21 00:00:00,1200504,Pico (Aeródromo),38.55219,-28.44137,18.7,17.2,0.0,7,0.0,5.2,87.0,1023.8,W
2026-01-21 00:00:00,1200505,Horta / Aeroporto,38.5211,-28.7128,16.9,17.1,,7,0.0,4.7,88.0,1023.8,W
2026-01-21 00:00:00,1200506,Horta (Obs. Principe Alberto),38.540781,-28.63225,16.2,17.0,0.0,6,0.0,4.5,92.0,1024.5,SW
2026-01-21 00:00:00,1200510,São Jorge,38.66,-28.17,14.4,16.3,0.0,8,0.0,4.0,,1023.7,NW
2026-01-21 00:00:00,1200511,Angra do Heroísmo,38.6659435,-27.216567,17.3,16.3,0.0,7,0.0,4.8,89.0,1023.2,W
2026-01-21 00:00:00,1200512,P. Delgada (Aeródromo),37.74414,-25.6953048,29.9,16.0,0.0,8,0.0,8.3,92.0,1023.2,NW
2026-01-21 00:00:00,1200515,Santa Maria (Aeródromo),36.967175,-25.1679,34.9,16.6,0.0,8,0.0,9.7,86.0,1024.8,NW
2026-01-21 00:00:00,1200521,Santa Catarina (Aeródromo),32.69688,-16.77612,,15.5,0.0,0,0.0,,64.0,1024.5,
2026-01-21 00:00:00,1200522,Funchal,32.64786,-16.888,5.8,15.3,0.0,2,0.0,1.6,64.0,1024.6,NE
2026-01-21 00:00:00,1200524,Porto Santo,33.074029,-16.34868,22.0,15.5,0.3,8,0.0,6.1,72.0,1023.9,NW
2026-01-21 00:00:00,1200531,Cabo Carvoeiro,39.38,-9.40737778,27.7,13.8,,6,1.6,7.7,88.0,1013.7,SW
2026-01-21 00:00:00,1200533,Sagres,37.012835,-8.949089,23.4,14.5,,6,0.0,6.5,70.0,1018.1,SW
2026-01-21 00:00:00,1200535,Lisboa (Geofísico),38.71907778,-9.14972222,15.1,12.8,0.0,6,0.1,4.2,100.0,1015.2,SW
2026-01-21 00:00:00,1200541,Sines,37.954504,-8.838271,23.8,13.6,0.0,6,0.0,6.6,98.0,1016.7,SW
2026-01-21 00:00:00,1200545,"Porto, Pedras Rubras (Aeródromo)",41.233502,-8.681332,23.0,12.2,0.0,5,1.8,6.4,95.0,1010.7,S
2026-01-21 00:00:00,1200548,Coimbra (Aeródromo),40.15006944,-8.46669167,18.0,11.2,0.0,5,0.1,5.0,95.0,1013.7,S
2026-01-21 00:00:00,1200551,"Viana Castelo, Chafé",41.648875,-8.804606,13.0,12.6,0.0,6,2.6,3.6,100.0,1009.4,SW
2026-01-21 00:00:00,1200554,Faro (Aeródromo),37.016579,-7.971953,6.1,11.0,0.0,3,0.0,1.7,86.0,1018.6,E
2026-01-21 00:00:00,1200558,Évora (C.Coordenação),38.53336389,-7.88338056,9.4,9.5,0.0,6,0.1,2.6,,1017.2,SW
2026-01-21 00:00:00,1200559,Viseu (Aeródromo),40.72645,-7.887472,18.0,8.0,,6,0.7,5.0,99.0,1013.3,SW
2026-01-21 00:00:00,1200560,Viseu (C.Coordenação),40.71492222,-7.89592222,14.8,7.7,,5,0.7,4.1,100.0,1014.0,S
2026-01-21 00:00:00,1200562,Beja,38.02493056,-7.867275,16.2,8.9,0.0,5,0.0,4.5,100.0,1016.9,S
2026-01-21 00:00:00,1200567,Vila Real,41.27418611,-7.7171,3.6,7.6,0.0,5,0.1,1.0,100.0,1012.7,S
2026-01-21 00:00:00,1200568,Penhas Douradas,40.41136667,-7.55865278,10.1,3.3,0.0,6,,2.8,100.0,,SW
2026-01-21 00:00:00,1200570,Castelo Branco,39.83339444,-7.46678889,,9.0,0.0,0,0.0,,100.0,1015.1,
2026-01-21 00:00:00,1200571,Portalegre,39.29546944,-7.41996944,7.6,7.8,0.0,6,0.4,2.1,100.0,1017.0,SW
2026-01-21 00:00:00,1200575,Bragança,41.80388889,-6.74283889,23.4,6.6,0.0,5,0.0,6.5,94.0,1013.1,S
2026-01-21 00:00:00,1200576,Bragança (Aeródromo),41.85763611,-6.70796389,9.4,6.2,,5,0.0,2.6,99.0,1012.7,S
2026-01-21 00:00:00,1200843,Évora (Aeródromo),38.5296,-7.8916,12.2,9.4,,5,0.0,3.4,98.0,1016.9,S
2026-01-21 00:00:00,1210513,P. Delgada (Obs. A. Chaves),37.7464,-25.662283,8.3,16.0,0.5,1,0.0,2.3,98.0,,N
2026-01-21 00:00:00,1210517,Flores / Morro Alto,39.4633,-31.2207,52.9,12.1,,7,0.3,14.7,100.0,1020.3,W
2026-01-21 00:00:00,1210518,São Miguel - Pico Santos De Cima,37.819,-25.7512,33.8,11.0,,8,2.2,9.4,100.0,1023.4,NW
2026-01-21 00:00:00,1210520,Ilhas selvagens,30.140595,-15.869153,24.5,16.1,0.0,8,0.0,6.8,72.0,1025.1,NW
2026-01-21 00:00:00,1210550,Coruche / Cruz Do Leão,39.07101,-8.4,9.7,9.8,,5,0.0,2.7,100.0,1015.9,S
2026-01-21 00:00:00,1210553,Loulé / Cavalos De Caldeirão,37.3042,-7.9534,18.7,7.8,,5,0.0,5.2,100.0,1019.1,S
2026-01-21 00:00:00,1210577,"Odemira, S.Teotónio",37.54710833,-8.72899167,10.4,11.9,0.0,6,0.0,2.9,94.0,,SW
2026-01-21 00:00:00,1210580,"Lisboa, Relógio",38.7618,-9.1254,,12.4,,0,0.1,,91.0,1015.7,
2026-01-21 00:00:00,1210604,V.N.Cerveira (Aeródromo),41.96673056,-8.66676111,11.2,12.3,0.0,5,1.4,3.1,93.0,1008.7,S
2026-01-21 00:00:00,1210605,"Monção, Valinha",42.06669,-8.383347,18.0,12.6,0.0,6,0.0,5.0,85.0,,SW
2026-01-21 00:00:00,1210606,"Lamas de Mouro, P.Ribeiro",42.03333333,-8.18333333,20.2,7.1,0.0,5,0.5,5.6,96.0,1009.8,S
2026-01-21 00:00:00,1210611,Montalegre,41.82276667,-7.78797778,17.6,6.2,0.0,6,1.0,4.9,99.0,,SW
2026-01-21 00:00:00,1210612,Vinhais,41.8434,-7.0034416,7.9,5.9,,5,0.1,2.2,100.0,,S
2026-01-21 00:00:00,1210615,Ponte de Lima,41.75013889,-8.56671389,7.6,12.5,0.0,5,1.1,2.1,93.0,,S
2026-01-21 00:00:00,1210616,Chaves (Aeródromo),41.72516667,-7.46540833,4.0,8.9,0.0,5,0.3,1.1,92.0,1011.1,S
2026-01-21 00:00:00,1210619,Cabril,41.71666667,-8.01666667,5.8,8.5,,6,1.3,1.6,99.0,,SW
2026-01-21 00:00:00,1210622,"Braga, Merelim",41.56678056,-8.45003056,14.8,12.1,0.0,5,0.4,4.1,94.0,1010.7,S
2026-01-21 00:00:00,1210625,Guimarães,41.4289,-8.3178,,11.8,0.0,0,,,87.0,1011.0,
2026-01-21 00:00:00,1210630,Cabeceiras de Basto,41.53333333,-7.96666667,4.7,10.3,0.0,4,1.0,1.3,100.0,,SE
2026-01-21 00:00:00,1210632,Mirandela,41.51478611,-7.19083889,1.4,5.9,0.0,7,0.1,0.4,93.0,,W
2026-01-21 00:00:00,1210633,"Macedo Cavaleiros, Bagueixe",41.56666667,-6.78333333,10.4,6.6,,6,0.0,2.9,99.0,,SW
2026-01-21 00:00:00,1210635,Miranda do Douro,41.51666667,-6.28333333,19.8,6.4,,6,0.1,5.5,99.0,,SW
2026-01-21 00:00:00,1210637,Mogadouro,41.33333333,-6.73333333,39.2,6.6,0.0,5,0.0,10.9,99.0,,S
2026-01-21 00:00:00,1210643,Paços Ferreira,41.27365,-8.38012,11.5,10.5,,5,0.2,3.2,97.0,,S
2026-01-21 00:00:00,1210644,Carrazêda de Ansiães,41.23333333,-7.28333333,7.2,7.3,0.0,5,0.1,2.0,89.0,,S
2026-01-21 00:00:00,1210654,Moncorvo,41.18333333,-7.01666667,19.4,8.8,0.0,6,0.6,5.4,85.0,1013.1,SW
2026-01-21 00:00:00,1210655,"Pinhão, Santa Bárbara",41.172775,-7.5489722,2.5,7.8,,4,0.0,0.7,94.0,,SE
2026-01-21 00:00:00,1210657,Luzim,41.14585,-8.2490333,7.9,9.7,0.2,6,0.3,2.2,93.0,,SW
2026-01-21 00:00:00,1210663,Moimenta da Beira,40.98333333,-7.6,9.4,7.5,0.0,5,0.4,2.6,96.0,,S
2026-01-21 00:00:00,1210666,"Trancoso, Bandarra",40.78333333,-7.36666667,25.2,6.3,0.0,5,0.7,7.0,99.0,,S
2026-01-21 00:00:00,1210669,Arouca,40.93333333,-8.25,3.6,11.5,0.0,9,1.5,1.0,89.0,,N
2026-01-21 00:00:00,1210671,"F. Castelo Rodrigo, V.Torpim",40.75,-6.88333333,20.5,7.2,0.0,5,0.3,5.7,99.0,,S
2026-01-21 00:00:00,1210683,Guarda,40.53333333,-7.26666667,13.3,4.8,2.4,5,0.2,3.7,100.0,,S
2026-01-21 00:00:00,1210685,Nelas,40.51666667,-7.85,9.0,8.9,0.0,6,0.0,2.5,98.0,,SW
2026-01-21 00:00:00,1210686,"Pampilhosa da Serra, Fajão",40.145653,-7.92704,25.9,6.2,,5,0.0,7.2,100.0,,S
2026-01-21 00:00:00,1210687,Covilhã (Aeródromo),40.264309,-7.482302,10.1,8.4,0.0,5,,2.8,98.0,,S
2026-01-21 00:00:00,1210690,Aldeia Souto (Q. Lageosa),40.35425833,-7.38931111,5.8,8.3,0.0,6,0.6,1.6,95.0,,SW
2026-01-21 00:00:00,1210697,Lousã (Aeródromo),40.143922,-8.244066,6.5,12.6,,6,0.0,1.8,86.0,,SW
2026-01-21 00:00:00,1210698,Fundão,40.14063611,-7.55362778,8.6,9.5,0.0,6,0.0,2.4,86.0,,SW
2026-01-21 00:00:00,1210702,Aveiro (Universidade),40.63529722,-8.65958333,14.0,12.2,0.0,5,0.0,3.9,95.0,1012.5,S
2026-01-21 00:00:00,1210704,Dunas de Mira,40.445955,-8.76168055,8.6,12.4,0.0,5,1.0,2.4,97.0,,S
2026-01-21 00:00:00,1210705,Anadia,40.438852,-8.439996,6.5,11.5,0.0,5,0.3,1.8,94.0,,S
2026-01-21 00:00:00,1210707,"Coimbra, Bencanta",40.2134694,-8.45515277,6.8,12.2,0.0,4,0.2,1.9,100.0,,SE
2026-01-21 00:00:00,1210713,"Figueira da Foz, Vila Verde",40.139764,-8.805945,16.9,12.3,0.0,5,0.8,4.7,,,S
2026-01-21 00:00:00,1210716,Ansião,39.9,-8.4,10.8,9.6,0.0,5,0.1,3.0,97.0,,S
2026-01-21 00:00:00,1210718,Leiria (Aeródromo),39.780553,-8.818166,15.5,12.3,0.0,5,0.2,4.3,93.0,1014.0,S
2026-01-21 00:00:00,1210724,"Tomar, Valdonas",39.6,-8.36666667,7.9,11.2,469.2,5,0.1,2.2,95.0,,S
2026-01-21 00:00:00,1210726,Alcobaça,39.51666667,-8.96666667,6.5,13.0,0.0,5,0.5,1.8,88.0,,S
2026-01-21 00:00:00,1210729,Rio Maior,39.35,-8.93333333,4.0,10.8,21.3,5,0.5,1.1,97.0,,S
2026-01-21 00:00:00,1210734,"Santarém, Fonte Boa",39.201216,-8.736656,13.7,11.0,3.1,5,0.3,3.8,95.0,1015.2,S
2026-01-21 00:00:00,1210735,Chamusca / Chouto,39.27,-8.3508,6.1,9.2,,4,0.0,1.7,100.0,1015.7,SE
2026-01-21 00:00:00,1210739,"Torres Vedras, Dois Portos",39.04389444,-9.179,12.6,12.3,0.7,5,0.3,3.5,95.0,,S
2026-01-21 00:00:00,1210744,Coruche,38.94096667,-8.51073611,9.0,12.1,0.0,5,0.0,2.5,,,S
2026-01-21 00:00:00,1210746,Santa Cruz (Aeródromo),39.12594166,-9.3790388,17.3,12.2,0.0,6,0.6,4.8,92.0,1014.3,SW
2026-01-21 00:00:00,1210750,Cabo da Roca,38.78171,-9.4975361,21.2,13.3,0.0,6,0.1,5.9,89.0,,SW
2026-01-21 00:00:00,1210752,Sintra/Tapada do Mouco,38.781669,-9.400398,6.5,9.8,,5,0.5,1.8,100.0,,S
2026-01-21 00:00:00,1210762,"Lisboa, Tapada da Ajuda",38.70956111,-9.182825,10.1,13.4,0.0,6,0.1,2.8,90.0,,SW
2026-01-21 00:00:00,1210765,Cabo Raso,38.70900833,-9.48538333,26.3,14.6,,6,0.0,7.3,86.0,,SW
2026-01-21 00:00:00,1210766,"Barreiro, Lavradio",38.67448611,-9.04766111,12.6,13.5,0.0,5,0.0,3.5,92.0,,S
2026-01-21 00:00:00,1210767,Pegões,38.65079,-8.63503,5.8,10.9,0.0,4,0.4,1.6,100.0,,SE
2026-01-21 00:00:00,1210770,Setúbal,38.54846008,-8.89077058,4.7,12.5,0.0,6,0.0,1.3,89.0,,SW
2026-01-21 00:00:00,1210773,"Almada, P.Rainha",38.617111,-9.212804,11.2,,0.0,6,0.0,3.1,,,SW
2026-01-21 00:00:00,1210776,"Alcácer do Sal, Barrosinha",38.36666667,-8.48333333,7.2,10.7,0.0,6,0.0,2.0,95.0,,SW
2026-01-21 00:00:00,1210783,Alvalade,37.946806,-8.394504,8.6,11.0,0.0,5,0.0,2.4,92.0,,S
2026-01-21 00:00:00,1210785,Ourique / Santana Da Serra,37.5025,-8.3019,11.9,10.2,0.0,4,0.0,3.3,91.0,1017.9,SE
2026-01-21 00:00:00,1210789,Aljezur,37.31675278,-8.80001667,1.1,9.3,0.1,3,0.0,0.3,99.0,,E
2026-01-21 00:00:00,1210790,Fóia,37.3143,-8.595733,29.5,7.0,0.0,7,0.0,8.2,,,W
2026-01-21 00:00:00,1210800,"Sabugal, Martim Rei",40.33918056,-7.03693333,15.8,6.4,0.0,5,0.4,4.4,99.0,,S
2026-01-21 00:00:00,1210803,Zebreira,39.86666667,-7.01666667,7.2,7.9,19.3,4,0.2,2.0,98.0,,SE
2026-01-21 00:00:00,1210806,"Proença-a-Nova, P.Moitas",39.73333333,-7.86666667,10.8,9.0,24.4,6,0.0,3.0,100.0,,SW
2026-01-21 00:00:00,1210812,Alvega,39.46666667,-8.05,12.6,11.2,,5,0.0,3.5,98.0,,S
2026-01-21 00:00:00,1210824,"Avis, Benavila",39.1,-7.86666667,9.0,10.9,0.0,6,0.0,2.5,99.0,,SW
2026-01-21 00:00:00,1210826,Mora,38.94068,-8.16406,13.7,10.9,0.0,5,0.0,3.8,96.0,,S
2026-01-21 00:00:00,1210835,Elvas,38.8908,-7.13976111,11.2,9.4,0.0,6,0.0,3.1,96.0,,SW
2026-01-21 00:00:00,1210837,Estremoz,38.86666667,-7.51666667,10.1,9.7,0.0,5,0.0,2.8,100.0,,S
2026-01-21 00:00:00,1210840,"Reguengos, S. P. do Corval",38.484866,-7.4729166,8.3,8.4,0.0,5,0.0,2.3,100.0,,S
2026-01-21 00:00:00,1210846,Montemor-O-Novo,38.6451,-8.1991,9.0,10.2,,6,0.0,2.5,100.0,1017.5,SW
2026-01-21 00:00:00,1210847,Viana do Alentejo,38.3319194,-8.04553888,11.9,9.6,0.0,5,,3.3,,,S
2026-01-21 00:00:00,1210848,"Portel, Oriola",38.31666667,-7.86666667,6.1,9.7,,6,0.0,1.7,94.0,,SW
2026-01-21 00:00:00,1210851,Amareleja,38.2007,-7.2261,4.3,,0.0,5,0.0,1.2,,1017.4,S
2026-01-21 00:00:00,1210863,"Mértola, Vale Formoso",37.75,-7.55,6.1,9.1,0.0,4,0.0,1.7,93.0,,SE
2026-01-21 00:00:00,1210864,"Castro Verde, N.Corvo",37.57655833,-7.97211389,10.8,9.7,0.0,6,0.0,3.0,99.0,,SW
2026-01-21 00:00:00,1210865,"Alcoutim, Mart.Longo",37.43333333,-7.76666667,5.4,8.9,,5,0.0,1.5,92.0,1018.6,S
2026-01-21 00:00:00,1210866,Vila Real de S.António,37.1871055,-7.416325,,9.2,,0,0.0,,86.0,,
2026-01-21 00:00:00,1210867,Castro Marim (RN Sapal),37.21666667,-7.45,5.4,8.9,0.0,5,0.0,1.5,94.0,,S
2026-01-21 00:00:00,1210874,Albufeira,37.0935,-8.262,7.6,12.3,,6,0.0,2.1,87.0,,SW
2026-01-21 00:00:00,1210878,Portimão (Aeródromo),37.149167,-8.581389,0.7,7.9,0.0,2,0.0,0.2,96.0,1018.2,NE
2026-01-21 00:00:00,1210881,"Olhão, EPPO",37.033,-7.821,4.3,10.1,0.0,8,0.4,1.2,89.0,1019.2,NW
2026-01-21 00:00:00,1210883,Tavira,37.12166968,-7.62050375,4.3,7.9,,1,0.0,1.2,92.0,1020.0,N
2026-01-21 00:00:00,1210907,Faja / Ilha das Flores,39.45328,-31.2647,,17.2,,0,,,93.0,1024.1,
2026-01-21 00:00:00,1210932,"S. Miguel, Nordeste",37.83256,-25.150108,23.8,16.5,,8,0.0,6.6,79.0,,NW
2026-01-21 00:00:00,1210956,"Madeira, Porto Moniz",32.867477,-17.171373,,17.1,0.7,0,0.0,,68.0,,
2026-01-21 00:00:00,1210960,"Madeira, S. Jorge, Santana",32.83446944,-16.906219,31.3,14.2,0.0,8,0.0,8.7,74.0,1024.4,NW
2026-01-21 00:00:00,1210965,"Madeira, Santana",32.808238,-16.8864166,,11.9,30.2,0,0.0,,79.0,,
2026-01-21 00:00:00,1210967,"Madeira, São Vicente",32.8001833,-17.044722,,13.3,0.8,0,0.0,,82.0,,
2026-01-21 00:00:00,1210972,"Madeira, Pico Alto",32.693491,-16.903955,1.4,6.3,0.0,2,,0.4,,,NE
2026-01-21 00:00:00,1210973,"Madeira, Areeiro",32.71666667,-16.91666667,14.8,7.8,0.0,2,0.0,4.1,53.0,,NE
2026-01-21 00:00:00,1210974,"Madeira, Pico do Areeiro",32.735107,-16.928271,,6.5,,0,0.0,,65.0,,
2026-01-21 00:00:00,1210975,"Madeira, Santo da Serra",32.7258972,-16.816822,,8.6,0.0,0,0.0,,89.0,,
2026-01-21 00:00:00,1210976,"Madeira, Monte",32.675833,-16.906944,5.8,9.6,0.4,1,0.0,1.6,87.0,,N
2026-01-21 00:00:00,1210977,"Madeira, Cancela",32.64500556,-16.86575,4.0,12.8,0.0,3,0.0,1.1,85.0,,E
2026-01-21 00:00:00,1210978,"Madeira, S. Lourenço",32.747,-16.706,11.9,15.5,0.0,7,0.0,3.3,71.0,,W
2026-01-21 00:00:00,1210984,"Madeira, Quinta Grande",32.6629722,-17.01503611,,11.1,0.0,0,0.0,,63.0,,
2026-01-21 00:00:00,1210986,Ponta do Sol/Lugar de Baixo,32.681502,-17.104167,8.3,15.6,0.0,2,0.0,2.3,64.0,,NE
2026-01-21 00:00:00,1210987,Prazeres (Calheta),32.757205,-17.201551,11.5,11.0,0.1,9,0.0,3.2,90.0,,N
2026-01-21 00:00:00,1240546,"Porto, Serra do Pilar",41.1385194,-8.6025,16.6,12.0,0.0,5,2.0,4.6,100.0,1010.6,S
2026-01-21 00:00:00,1240566,Vila Real (Cidade),41.30898056,-7.740522,5.4,8.2,,5,0.1,1.5,98.0,,S
2026-01-21 00:00:00,1240610,Viana do Castelo,41.695,-8.82916,,13.0,,0,1.3,,95.0,,
2026-01-21 00:00:00,1240675,Viseu (Cidade),40.662738,-7.9039694,,9.0,,0,1.7,,99.0,,
2026-01-21 00:00:00,1240903,"Porto, Massarelos",41.15257,-8.62598,,12.0,,0,,,100.0,,
2026-01-21 00:00:00,1240971,"Madeira, Funchal, Lido",32.63655,-16.935592,0.0,16.0,0.0,0,0.0,0.0,62.0,,
2026-01-21 00:00:00,1259201,Lousã/Trevim,40.09328521,-8.17904215,42.8,4.8,,7,0.0,11.9,100.0,,W
2026-01-21 00:00:00,1259202,Lousã/Candal,40.08090803,-8.20484533,,8.0,,0,,,72.0,,
2026-01-21 00:00:00,1259203,Seia/Aeródromo,40.45517056,-7.68614846,14.4,10.2,,6,0.0,4.0,83.0,1014.2,SW
2026-01-21 00:00:00,1259204,Seia/Senhora do Espinheiro,40.412775,-7.673406,23.8,5.4,,6,0.0,6.6,100.0,1014.8,SW
2026-01-21 00:00:00,5210758,Alcochete / Campo Tiro,38.7627,-8.7825,10.4,11.6,,5,0.0,2.9,96.0,1015.4,S
2026-01-21 00:00:00,6210817,Ponte de Sôr / Aeródromo,39.21536,-8.05417,5.4,9.9,,5,,1.5,96.0,1015.8,S
2026-01-21 00:00:00,6210872,Loulé (CML),37.129946,-8.06523593,1.8,7.8,,8,0.4,0.5,,1019.0,NW
2026-01-21 00:00:00,6210879,Portimão (Praia da Rocha),37.11670461,-8.52946314,7.6,9.7,,9,0.0,2.1,94.0,,N
2026-01-21 00:00:00,6211211,Monção - Guimil (CIM),42.042944,-8.421872,27.4,,0.1,5,,7.6,,1007.0,S
2026-01-21 00:00:00,6211213,Paredes De Coura - Vascões (CIM),41.913444,-8.492111,6.5,8.0,0.3,5,,1.8,98.0,1009.4,S
2026-01-21 00:00:00,6211216,Arcos De Valdevez - Heliporto (CIM),41.831,-8.44375,11.5,9.9,,6,0.7,3.2,96.0,1010.1,SW
2026-01-21 00:00:00,6211218,Ponte De Lima - Anais (CIM),41.698083,-8.522444,15.5,9.9,0.6,4,,4.3,96.0,1009.8,SE
2026-01-21 00:00:00,6212121,Terras de Bouro/Barral (CIM),41.70225278,-8.31808611,10.8,10.2,,6,1.1,3.0,93.0,1009.0,SW
2026-01-21 00:00:00,6212122,Amares Caldelas (CIM),41.66796389,-8.37977778,10.4,11.4,,6,0.8,2.9,95.0,1010.9,SW
2026-01-21 00:00:00,6212123,Vila Verde (CIM),41.64686111,-8.43398056,6.1,10.7,,5,,1.7,91.0,1010.3,S
2026-01-21 00:00:00,6212124,Braga (CIM),41.53568333,-8.42514722,22.0,11.4,,5,0.6,6.1,94.0,1011.4,S
2026-01-21 00:00:00,6212125,Barcelos (CIM),41.529375,-8.62705278,16.2,13.0,,5,1.6,4.5,93.0,1011.3,S
2026-01-21 00:00:00,6212126,Esposende (CIM),41.52645556,-8.77984444,28.1,13.2,,5,1.9,7.8,98.0,1010.5,S
2026-01-21 00:00:00,6213012,Carregal do Sal (CIM),40.46718056,-7.92626389,9.0,9.5,,5,,2.5,95.0,,S
2026-01-21 00:00:00,6213013,Castro Daire / Mézio (CIM),40.98086111,-7.88318889,25.6,6.2,,5,,7.1,100.0,,S
2026-01-21 00:00:00,6213014,Mangualde / Chãs de Tavares  (CIM),40.61096111,-7.60838889,15.5,7.3,,6,1.0,4.3,100.0,,SW
2026-01-21 00:00:00,6213016,Oliveira de Frades (CIM),40.716925,-8.20133889,26.3,8.5,,4,,7.3,99.0,,SE
2026-01-21 00:00:00,6213017,Penalva do Castelo (CIM),40.65706389,-7.69655278,13.3,8.7,,6,0.5,3.7,100.0,,SW
2026-01-21 00:00:00,6213020,Satão (CIM),40.76072778,-7.72019722,11.2,7.3,,6,2.0,3.1,100.0,,SW
2026-01-21 00:00:00,6213022,Vila Nova de Paiva (CIM),40.85595,-7.72716389,16.6,6.6,,6,1.1,4.6,,,SW
2026-01-21 00:00:00,6213611,Arganil / Aeródromo (CIM),40.274578,-7.974399,2.5,9.4,,6,0.0,0.7,96.0,,SW
2026-01-21 00:00:00,6213612,Cantanhede / Fonte Dom Pedro (CIM),40.341894,-8.577613,15.1,11.1,,5,0.5,4.2,96.0,,S
2026-01-21 00:00:00,6213613,Coimbra / Mata de São Pedro (CIM),40.330787,-8.374887,9.4,9.5,,5,,2.6,100.0,,S
2026-01-21 00:00:00,6213614,Góis / Quinta da Ribeira (CIM),40.171642,-8.103238,2.2,,,1,,0.6,,,N
2026-01-21 00:00:00,6213615,Mealhada / Quinta do Vale (CIM),40.373343,-8.4388429,9.4,10.8,,5,0.3,2.6,99.0,,S
2026-01-21 00:00:00,6213616,Mortágua / Aeródromo (CIM),40.426239,-8.232142,2.5,9.5,,4,0.0,0.7,100.0,,SE
2026-01-21 00:00:00,6213617,Penacova / Hombres (CIM),40.280921,-8.198685,17.6,,,6,1.2,4.9,91.0,,SW
2026-01-21 00:00:00,6213619,Vila Nova de Poiares (CIM),40.211411,-8.241995,7.9,12.4,,5,0.0,2.2,84.0,,S
2026-01-21 00:00:00,6213620,Oliveira do Hospital (CIM),40.413306,-7.867972,10.4,9.8,,5,0.0,2.9,86.0,,S
2026-01-21 00:00:00,6214119,Pedrógão Grande (CMPG),39.926573,-8.150912,13.3,9.1,,6,0.1,3.7,100.0,1015.3,SW
2026-01-21 00:00:00,6215302,"Lisboa, Carnide (CML)",38.7751,-9.1855,15.8,12.9,,6,0.1,4.4,93.0,1014.7,SW
2026-01-21 00:00:00,6215360,Oeiras / Vila Fria (CMO),38.7239536,-9.2939255,18.0,13.1,0.0,6,0.1,5.0,90.0,1015.2,SW
2026-01-21 00:00:00,7240919,"Lisboa, Amoreiras (LFCL)",38.7239,-9.1649,10.1,12.1,,7,0.1,2.8,100.0,1015.9,W
2026-01-21 01:00:00,11217160,Santa Maria / Praia Formosa (DROTRH),36.9542,-25.0917,14.0,15.6,0.0,3,0.0,3.9,93.0,,E
2026-01-21 01:00:00,11217165,Santa Maria / Maia (DROTRH),36.9412,-25.0176,15.5,15.3,0.0,7,0.0,4.3,89.0,,W
2026-01-21 01:00:00,11217217,São Miguel / Santana (DROTRH),37.8049,-25.5618,9.0,16.6,0.0,7,0.0,2.5,88.0,,W
2026-01-21 01:00:00,11217225,São Miguel / Sete Cidades (DROTRH),37.8679,-25.772,16.6,14.6,0.0,7,0.0,4.6,97.0,,W
2026-01-21 01:00:00,11217255,São Miguel / Lagoa das Furnas (DROTRH),37.7619,-25.3291,8.3,15.9,0.0,5,0.0,2.3,82.0,,S
2026-01-21 01:00:00,11217370,Terceira / Ribeira das Nove (DROTRH),38.754,-27.3245,7.9,12.4,0.0,6,0.1,2.2,100.0,,SW
2026-01-21 01:00:00,11217372,Terceira / Serra do Cume (DROTRH),38.7002,-27.1031,31.0,14.0,0.0,7,0.0,8.6,100.0,,W
2026-01-21 01:00:00,11217430,Graciosa / Serra das Fontes (DROTRH),39.0672,-28.0038,27.7,14.6,0.0,8,0.0,7.7,100.0,,NW
2026-01-21 01:00:00,11217510,São Jorge / Pico do Areeiro (DROTRH),38.6435,-28.0591,41.0,11.8,0.0,6,0.1,11.4,100.0,,SW
2026-01-21 01:00:00,11217645,Pico / Cabecinho (DROTRH),38.4338,-28.1141,10.4,14.9,0.0,7,0.0,2.9,95.0,,W
2026-01-21 01:00:00,11217710,Faial / Alto do Cabouco (DROTRH),38.587,-28.6992,,12.0,0.0,5,0.1,,99.0,,S
2026-01-21 01:00:00,11217730,Faial / Cabeço Verde (DROTRH),38.5843,-28.7576,8.3,13.5,0.0,7,0.0,2.3,100.0,,W
2026-01-21 01:00:00,1200501,Flores (Aeródromo),39.45819,-31.1301,27.7,17.9,0.0,7,0.0,7.7,88.0,1022.1,W
2026-01-21 01:00:00,1200502,Corvo (Aeródromo),39.67389,-31.11362,32.8,17.2,,7,0.0,9.1,92.0,1021.6,W
2026-01-21 01:00:00,1200504,Pico (Aeródromo),38.55219,-28.44137,20.9,17.2,0.0,6,0.0,5.8,87.0,1023.6,SW
2026-01-21 01:00:00,1200505,Horta / Aeroporto,38.5211,-28.7128,23.4,17.2,,7,0.0,6.5,87.0,1023.4,W
2026-01-21 01:00:00,1200506,Horta (Obs. Principe Alberto),38.540781,-28.63225,15.5,17.0,0.0,6,0.0,4.3,93.0,1024.3,SW
2026-01-21 01:00:00,1200510,São Jorge,38.66,-28.17,15.1,16.4,0.0,8,0.0,4.2,,1023.4,NW
2026-01-21 01:00:00,1200511,Angra do Heroísmo,38.6659435,-27.216567,24.5,16.4,0.0,7,0.0,6.8,90.0,1023.0,W
2026-01-21 01:00:00,1200512,P. Delgada (Aeródromo),37.74414,-25.6953048,30.2,16.1,0.0,7,0.0,8.4,91.0,1023.1,W
2026-01-21 01:00:00,1200515,Santa Maria (Aeródromo),36.967175,-25.1679,30.6,16.3,0.0,8,0.0,8.5,87.0,1024.7,NW
2026-01-21 01:00:00,1200521,Santa Catarina (Aeródromo),32.69688,-16.77612,,14.8,0.0,0,0.0,,69.0,1024.3,
2026-01-21 01:00:00,1200522,Funchal,32.64786,-16.888,5.0,15.2,0.0,2,0.0,1.4,65.0,1024.4,NE
2026-01-21 01:00:00,1200524,Porto Santo,33.074029,-16.34868,23.0,16.0,0.7,8,0.0,6.4,72.0,1023.6,NW
2026-01-21 01:00:00,1200531,Cabo Carvoeiro,39.38,-9.40737778,27.0,13.0,,6,2.2,7.5,92.0,1012.9,SW
2026-01-21 01:00:00,1200533,Sagres,37.012835,-8.949089,21.2,14.6,,6,0.0,5.9,71.0,1017.7,SW
2026-01-21 01:00:00,1200535,Lisboa (Geofísico),38.71907778,-9.14972222,18.7,12.8,0.0,6,1.3,5.2,100.0,1014.6,SW
2026-01-21 01:00:00,1200541,Sines,37.954504,-8.838271,18.0,13.6,0.0,6,0.0,5.0,98.0,1016.2,SW
2026-01-21 01:00:00,1200545,"Porto, Pedras Rubras (Aeródromo)",41.233502,-8.681332,20.9,12.2,0.0,5,1.9,5.8,97.0,1009.9,S
2026-01-21 01:00:00,1200548,Coimbra (Aeródromo),40.15006944,-8.46669167,19.8,10.8,0.0,5,1.0,5.5,97.0,1012.9,S
2026-01-21 01:00:00,1200551,"Viana Castelo, Chafé",41.648875,-8.804606,13.0,12.3,0.0,5,1.6,3.6,100.0,1008.5,S
2026-01-21 01:00:00,1200554,Faro (Aeródromo),37.016579,-7.971953,6.5,11.4,0.0,2,0.0,1.8,86.0,1018.2,NE
2026-01-21 01:00:00,1200558,Évora (C.Coordenação),38.53336389,-7.88338056,12.6,9.6,0.0,5,0.0,3.5,,1016.8,S
2026-01-21 01:00:00,1200559,Viseu (Aeródromo),40.72645,-7.887472,21.6,8.1,,6,1.3,6.0,99.0,1012.5,SW
2026-01-21 01:00:00,1200560,Viseu (C.Coordenação),40.71492222,-7.89592222,16.6,7.8,,5,0.9,4.6,100.0,1013.2,S
2026-01-21 01:00:00,1200562,Beja,38.02493056,-7.867275,16.9,9.2,0.0,5,0.0,4.7,100.0,1016.7,S
2026-01-21 01:00:00,1200567,Vila Real,41.27418611,-7.7171,4.7,7.7,0.0,5,0.3,1.3,100.0,1011.9,S
2026-01-21 01:00:00,1200568,Penhas Douradas,40.41136667,-7.55865278,5.4,3.3,0.0,5,,1.5,100.0,,S
2026-01-21 01:00:00,1200570,Castelo Branco,39.83339444,-7.46678889,9.7,9.1,0.0,6,0.0,2.7,100.0,1014.5,SW
2026-01-21 01:00:00,1200571,Portalegre,39.29546944,-7.41996944,3.6,7.8,0.0,5,0.0,1.0,100.0,1016.6,S
2026-01-21 01:00:00,1200575,Bragança,41.80388889,-6.74283889,22.7,6.8,0.0,5,0.4,6.3,94.0,1012.4,S
2026-01-21 01:00:00,1200576,Bragança (Aeródromo),41.85763611,-6.70796389,11.5,6.5,,5,0.4,3.2,99.0,1011.7,S
2026-01-21 01:00:00,1200843,Évora (Aeródromo),38.5296,-7.8916,14.0,9.5,,5,0.0,3.9,97.0,1016.5,S
2026-01-21 01:00:00,1210513,P. Delgada (Obs. A. Chaves),37.7464,-25.662283,7.9,16.2,0.0,9,0.1,2.2,98.0,,N
2026-01-21 01:00:00,1210517,Flores / Morro Alto,39.4633,-31.2207,47.9,12.3,,7,0.4,13.3,100.0,1019.8,W
2026-01-21 01:00:00,1210518,São Miguel - Pico Santos De Cima,37.819,-25.7512,35.6,11.2,,8,2.5,9.9,100.0,1023.1,NW
2026-01-21 01:00:00,1210520,Ilhas selvagens,30.140595,-15.869153,22.3,16.4,0.0,8,0.0,6.2,71.0,1024.7,NW
2026-01-21 01:00:00,1210550,Coruche / Cruz Do Leão,39.07101,-8.4,9.4,10.0,,5,0.9,2.6,100.0,1015.4,S
2026-01-21 01:00:00,1210553,Loulé / Cavalos De Caldeirão,37.3042,-7.9534,24.1,8.4,,6,0.2,6.7,100.0,1018.5,SW
2026-01-21 01:00:00,1210577,"Odemira, S.Teotónio",37.54710833,-8.72899167,25.2,12.5,0.0,6,0.7,7.0,92.0,,SW
2026-01-21 01:00:00,1210580,"Lisboa, Relógio",38.7618,-9.1254,,12.3,,0,1.0,,93.0,1015.1,
2026-01-21 01:00:00,1210604,V.N.Cerveira (Aeródromo),41.96673056,-8.66676111,10.8,12.6,0.0,5,1.9,3.0,93.0,1007.7,S
2026-01-21 01:00:00,1210605,"Monção, Valinha",42.06669,-8.383347,15.1,12.5,0.0,6,0.1,4.2,88.0,,SW
2026-01-21 01:00:00,1210606,"Lamas de Mouro, P.Ribeiro",42.03333333,-8.18333333,22.7,7.4,0.0,5,0.8,6.3,98.0,1008.2,S
2026-01-21 01:00:00,1210611,Montalegre,41.82276667,-7.78797778,14.8,5.9,0.0,6,0.5,4.1,99.0,,SW
2026-01-21 01:00:00,1210612,Vinhais,41.8434,-7.0034416,8.3,6.1,,5,0.7,2.3,100.0,,S
2026-01-21 01:00:00,1210615,Ponte de Lima,41.75013889,-8.56671389,7.9,12.4,0.0,5,1.8,2.2,94.0,,S
2026-01-21 01:00:00,1210616,Chaves (Aeródromo),41.72516667,-7.46540833,5.8,9.2,0.0,5,0.0,1.6,90.0,1010.1,S
2026-01-21 01:00:00,1210619,Cabril,41.71666667,-8.01666667,4.3,8.4,,6,1.2,1.2,99.0,,SW
2026-01-21 01:00:00,1210622,"Braga, Merelim",41.56678056,-8.45003056,14.0,12.0,0.0,5,1.1,3.9,96.0,1009.7,S
2026-01-21 01:00:00,1210625,Guimarães,41.4289,-8.3178,,11.7,0.0,0,,,89.0,1010.0,
2026-01-21 01:00:00,1210630,Cabeceiras de Basto,41.53333333,-7.96666667,7.6,10.4,0.0,4,0.6,2.1,100.0,,SE
2026-01-21 01:00:00,1210632,Mirandela,41.51478611,-7.19083889,0.4,5.9,0.0,3,0.3,0.1,94.0,,E
2026-01-21 01:00:00,1210633,"Macedo Cavaleiros, Bagueixe",41.56666667,-6.78333333,15.1,6.8,,6,1.0,4.2,100.0,,SW
2026-01-21 01:00:00,1210635,Miranda do Douro,41.51666667,-6.28333333,20.9,6.6,,6,0.1,5.8,99.0,,SW
2026-01-21 01:00:00,1210637,Mogadouro,41.33333333,-6.73333333,41.4,6.5,0.0,5,1.0,11.5,99.0,,S
2026-01-21 01:00:00,1210643,Paços Ferreira,41.27365,-8.38012,14.8,10.5,,5,1.0,4.1,97.0,,S
2026-01-21 01:00:00,1210644,Carrazêda de Ansiães,41.23333333,-7.28333333,7.6,7.2,0.0,5,0.4,2.1,92.0,,S
2026-01-21 01:00:00,1210654,Moncorvo,41.18333333,-7.01666667,22.7,8.3,0.0,5,0.3,6.3,88.0,1012.6,S
2026-01-21 01:00:00,1210655,"Pinhão, Santa Bárbara",41.172775,-7.5489722,2.5,7.8,,4,0.2,0.7,96.0,,SE
2026-01-21 01:00:00,1210657,Luzim,41.14585,-8.2490333,12.2,9.6,0.0,6,1.4,3.4,94.0,,SW
2026-01-21 01:00:00,1210663,Moimenta da Beira,40.98333333,-7.6,14.8,7.9,0.0,5,0.3,4.1,93.0,,S
2026-01-21 01:00:00,1210666,"Trancoso, Bandarra",40.78333333,-7.36666667,22.3,6.4,0.0,5,0.1,6.2,99.0,,S
2026-01-21 01:00:00,1210669,Arouca,40.93333333,-8.25,7.9,11.3,0.0,7,0.7,2.2,90.0,,W
2026-01-21 01:00:00,1210671,"F. Castelo Rodrigo, V.Torpim",40.75,-6.88333333,20.5,7.3,0.0,5,0.3,5.7,99.0,,S
2026-01-21 01:00:00,1210683,Guarda,40.53333333,-7.26666667,14.0,4.9,2.4,5,0.1,3.9,100.0,,S
2026-01-21 01:00:00,1210685,Nelas,40.51666667,-7.85,10.4,8.8,0.0,6,1.4,2.9,97.0,,SW
2026-01-21 01:00:00,1210686,"Pampilhosa da Serra, Fajão",40.145653,-7.92704,37.8,6.3,,6,0.9,10.5,100.0,,SW
2026-01-21 01:00:00,1210687,Covilhã (Aeródromo),40.264309,-7.482302,12.6,8.5,0.0,5,,3.5,99.0,,S
2026-01-21 01:00:00,1210690,Aldeia Souto (Q. Lageosa),40.35425833,-7.38931111,3.2,8.3,0.0,5,0.0,0.9,96.0,,S
2026-01-21 01:00:00,1210697,Lousã (Aeródromo),40.143922,-8.244066,5.0,12.5,,5,0.8,1.4,85.0,,S
2026-01-21 01:00:00,1210698,Fundão,40.14063611,-7.55362778,6.8,9.6,0.0,5,0.0,1.9,84.0,,S
2026-01-21 01:00:00,1210702,Aveiro (Universidade),40.63529722,-8.65958333,16.9,12.1,0.0,5,0.0,4.7,95.0,1011.8,S
2026-01-21 01:00:00,1210704,Dunas de Mira,40.445955,-8.76168055,9.4,12.3,0.0,5,1.8,2.6,97.0,,S
2026-01-21 01:00:00,1210705,Anadia,40.438852,-8.439996,7.6,11.7,0.0,5,1.2,2.1,94.0,,S
2026-01-21 01:00:00,1210707,"Coimbra, Bencanta",40.2134694,-8.45515277,8.6,11.8,0.5,5,1.6,2.4,100.0,,S
2026-01-21 01:00:00,1210713,"Figueira da Foz, Vila Verde",40.139764,-8.805945,15.8,12.2,0.0,5,1.9,4.4,,,S
2026-01-21 01:00:00,1210716,Ansião,39.9,-8.4,11.5,9.6,0.0,5,1.0,3.2,98.0,,S
2026-01-21 01:00:00,1210718,Leiria (Aeródromo),39.780553,-8.818166,15.8,12.3,0.0,4,1.2,4.4,95.0,1013.2,SE
2026-01-21 01:00:00,1210724,"Tomar, Valdonas",39.6,-8.36666667,9.7,11.2,379.5,4,1.4,2.7,97.0,,SE
2026-01-21 01:00:00,1210726,Alcobaça,39.51666667,-8.96666667,5.8,12.7,0.0,5,1.6,1.6,90.0,,S
2026-01-21 01:00:00,1210729,Rio Maior,39.35,-8.93333333,5.0,10.9,26.1,5,1.6,1.4,97.0,,S
2026-01-21 01:00:00,1210734,"Santarém, Fonte Boa",39.201216,-8.736656,17.6,11.1,0.0,5,1.3,4.9,97.0,1014.6,S
2026-01-21 01:00:00,1210735,Chamusca / Chouto,39.27,-8.3508,7.6,10.2,,4,0.8,2.1,100.0,1015.1,SE
2026-01-21 01:00:00,1210739,"Torres Vedras, Dois Portos",39.04389444,-9.179,18.0,12.2,1.2,6,1.5,5.0,98.0,,SW
2026-01-21 01:00:00,1210744,Coruche,38.94096667,-8.51073611,10.8,11.6,1.2,5,0.7,3.0,,,S
2026-01-21 01:00:00,1210746,Santa Cruz (Aeródromo),39.12594166,-9.3790388,24.5,11.7,0.0,6,3.2,6.8,96.0,1013.7,SW
2026-01-21 01:00:00,1210750,Cabo da Roca,38.78171,-9.4975361,21.2,12.6,0.2,5,2.5,5.9,96.0,,S
2026-01-21 01:00:00,1210752,Sintra/Tapada do Mouco,38.781669,-9.400398,11.5,9.7,,5,4.3,3.2,100.0,,S
2026-01-21 01:00:00,1210762,"Lisboa, Tapada da Ajuda",38.70956111,-9.182825,11.5,13.2,0.0,6,1.3,3.2,94.0,,SW
2026-01-21 01:00:00,1210765,Cabo Raso,38.70900833,-9.48538333,34.9,14.2,,6,1.5,9.7,89.0,,SW
2026-01-21 01:00:00,1210766,"Barreiro, Lavradio",38.67448611,-9.04766111,11.9,13.8,0.0,5,0.5,3.3,91.0,,S
2026-01-21 01:00:00,1210767,Pegões,38.65079,-8.63503,6.5,10.6,0.0,4,1.1,1.8,100.0,,SE
2026-01-21 01:00:00,1210770,Setúbal,38.54846008,-8.89077058,8.3,13.3,0.0,6,0.6,2.3,88.0,,SW
2026-01-21 01:00:00,1210773,"Almada, P.Rainha",38.617111,-9.212804,14.4,,0.0,6,1.1,4.0,,,SW
2026-01-21 01:00:00,1210776,"Alcácer do Sal, Barrosinha",38.36666667,-8.48333333,3.2,10.7,0.0,6,0.7,0.9,96.0,,SW
2026-01-21 01:00:00,1210783,Alvalade,37.946806,-8.394504,10.8,11.3,0.0,5,0.0,3.0,92.0,,S
2026-01-21 01:00:00,1210785,Ourique / Santana Da Serra,37.5025,-8.3019,11.9,10.3,0.0,3,0.0,3.3,93.0,1017.7,E
2026-01-21 01:00:00,1210789,Aljezur,37.31675278,-8.80001667,7.9,10.2,0.1,6,0.0,2.2,99.0,,SW
2026-01-21 01:00:00,1210790,Fóia,37.3143,-8.595733,31.7,7.1,0.2,6,0.0,8.8,,,SW
2026-01-21 01:00:00,1210800,"Sabugal, Martim Rei",40.33918056,-7.03693333,14.4,6.4,0.0,6,1.1,4.0,99.0,,SW
2026-01-21 01:00:00,1210803,Zebreira,39.86666667,-7.01666667,9.0,8.2,7.0,5,0.3,2.5,98.0,,S
2026-01-21 01:00:00,1210806,"Proença-a-Nova, P.Moitas",39.73333333,-7.86666667,9.7,9.1,25.7,6,0.8,2.7,100.0,,SW
2026-01-21 01:00:00,1210812,Alvega,39.46666667,-8.05,9.7,11.5,,5,0.3,2.7,96.0,,S
2026-01-21 01:00:00,1210824,"Avis, Benavila",39.1,-7.86666667,9.0,11.0,0.0,6,0.0,2.5,99.0,,SW
2026-01-21 01:00:00,1210826,Mora,38.94068,-8.16406,13.3,10.9,0.0,5,0.1,3.7,96.0,,S
2026-01-21 01:00:00,1210835,Elvas,38.8908,-7.13976111,12.2,9.5,0.0,6,0.0,3.4,98.0,,SW
2026-01-21 01:00:00,1210837,Estremoz,38.86666667,-7.51666667,9.0,9.6,0.0,6,0.0,2.5,100.0,,SW
2026-01-21 01:00:00,1210840,"Reguengos, S. P. do Corval",38.484866,-7.4729166,11.9,8.6,0.0,5,0.0,3.3,99.0,,S
2026-01-21 01:00:00,1210846,Montemor-O-Novo,38.6451,-8.1991,8.3,10.3,,5,0.0,2.3,100.0,1017.0,S
2026-01-21 01:00:00,1210847,Viana do Alentejo,38.3319194,-8.04553888,14.0,9.3,0.0,5,,3.9,,,S
2026-01-21 01:00:00,1210848,"Portel, Oriola",38.31666667,-7.86666667,16.9,9.9,,5,0.0,4.7,94.0,,S
2026-01-21 01:00:00,1210851,Amareleja,38.2007,-7.2261,7.2,,0.0,4,0.0,2.0,,1017.2,SE
2026-01-21 01:00:00,1210863,"Mértola, Vale Formoso",37.75,-7.55,8.6,9.7,0.0,5,0.0,2.4,89.0,,S
2026-01-21 01:00:00,1210864,"Castro Verde, N.Corvo",37.57655833,-7.97211389,10.8,10.3,0.0,6,0.0,3.0,99.0,,SW
2026-01-21 01:00:00,1210865,"Alcoutim, Mart.Longo",37.43333333,-7.76666667,2.9,9.8,,6,0.0,0.8,92.0,1018.3,SW
2026-01-21 01:00:00,1210866,Vila Real de S.António,37.1871055,-7.416325,,8.6,,0,0.0,,88.0,,
2026-01-21 01:00:00,1210867,Castro Marim (RN Sapal),37.21666667,-7.45,5.8,8.3,0.0,9,0.0,1.6,95.0,,N
2026-01-21 01:00:00,1210874,Albufeira,37.0935,-8.262,13.3,12.7,,6,0.0,3.7,86.0,,SW
2026-01-21 01:00:00,1210878,Portimão (Aeródromo),37.149167,-8.581389,1.8,8.0,0.0,1,0.0,0.5,97.0,1017.9,N
2026-01-21 01:00:00,1210881,"Olhão, EPPO",37.033,-7.821,4.0,10.7,0.0,8,0.1,1.1,94.0,1018.8,NW
2026-01-21 01:00:00,1210883,Tavira,37.12166968,-7.62050375,4.0,7.9,,8,0.0,1.1,93.0,1019.6,NW
2026-01-21 01:00:00,1210907,Faja / Ilha das Flores,39.45328,-31.2647,,17.2,,0,,,94.0,1023.6,
2026-01-21 01:00:00,1210932,"S. Miguel, Nordeste",37.83256,-25.150108,24.1,16.8,,8,0.0,6.7,81.0,,NW
2026-01-21 01:00:00,1210956,"Madeira, Porto Moniz",32.867477,-17.171373,,16.5,0.2,0,0.0,,68.0,,
2026-01-21 01:00:00,1210960,"Madeira, S. Jorge, Santana",32.83446944,-16.906219,23.8,14.0,0.0,7,0.0,6.6,77.0,1024.2,W
2026-01-21 01:00:00,1210965,"Madeira, Santana",32.808238,-16.8864166,,11.7,30.8,0,0.0,,86.0,,
2026-01-21 01:00:00,1210967,"Madeira, São Vicente",32.8001833,-17.044722,,12.9,3.2,0,0.0,,82.0,,
2026-01-21 01:00:00,1210972,"Madeira, Pico Alto",32.693491,-16.903955,6.8,6.6,0.0,2,,1.9,,,NE
2026-01-21 01:00:00,1210973,"Madeira, Areeiro",32.71666667,-16.91666667,11.5,8.0,0.0,2,0.0,3.2,70.0,,NE
2026-01-21 01:00:00,1210974,"Madeira, Pico do Areeiro",32.735107,-16.928271,,6.6,,0,0.0,,75.0,,
2026-01-21 01:00:00,1210975,"Madeira, Santo da Serra",32.7258972,-16.816822,,7.9,0.0,0,0.0,,92.0,,
2026-01-21 01:00:00,1210976,"Madeira, Monte",32.675833,-16.906944,4.3,9.5,0.5,9,0.0,1.2,85.0,,N
2026-01-21 01:00:00,1210977,"Madeira, Cancela",32.64500556,-16.86575,5.0,12.7,0.0,3,0.0,1.4,85.0,,E
2026-01-21 01:00:00,1210978,"Madeira, S. Lourenço",32.747,-16.706,7.9,15.7,0.0,2,0.0,2.2,76.0,,NE
2026-01-21 01:00:00,1210984,"Madeira, Quinta Grande",32.6629722,-17.01503611,,10.6,0.0,0,0.0,,69.0,,
2026-01-21 01:00:00,1210986,Ponta do Sol/Lugar de Baixo,32.681502,-17.104167,7.2,15.5,0.0,2,0.0,2.0,65.0,,NE
2026-01-21 01:00:00,1210987,Prazeres (Calheta),32.757205,-17.201551,12.6,10.8,0.0,8,0.0,3.5,90.0,,NW
2026-01-21 01:00:00,1240546,"Porto, Serra do Pilar",41.1385194,-8.6025,17.3,11.8,0.0,6,2.1,4.8,100.0,1009.8,SW
2026-01-21 01:00:00,1240566,Vila Real (Cidade),41.30898056,-7.740522,2.5,8.3,,6,0.3,0.7,99.0,,SW
2026-01-21 01:00:00,1240610,Viana do Castelo,41.695,-8.82916,,12.8,,0,1.6,,97.0,,
2026-01-21 01:00:00,1240675,Viseu (Cidade),40.662738,-7.9039694,,8.9,,0,0.9,,99.0,,
2026-01-21 01:00:00,1240903,"Porto, Massarelos",41.15257,-8.62598,,12.0,,0,,,100.0,,
2026-01-21 01:00:00,1240971,"Madeira, Funchal, Lido",32.63655,-16.935592,0.0,16.0,0.0,0,0.0,0.0,61.0,,
2026-01-21 01:00:00,1259201,Lousã/Trevim,40.09328521,-8.17904215,37.4,4.7,,7,,10.4,100.0,,W
2026-01-21 01:00:00,1259202,Lousã/Candal,40.08090803,-8.20484533,,8.0,,0,,,72.0,,
2026-01-21 01:00:00,1259203,Seia/Aeródromo,40.45517056,-7.68614846,9.0,10.3,,6,1.8,2.5,83.0,1013.4,SW
2026-01-21 01:00:00,1259204,Seia/Senhora do Espinheiro,40.412775,-7.673406,19.8,5.9,,6,1.9,5.5,96.0,1013.5,SW
2026-01-21 01:00:00,5210758,Alcochete / Campo Tiro,38.7627,-8.7825,12.2,11.5,,5,1.1,3.4,97.0,1014.9,S
2026-01-21 01:00:00,6210817,Ponte de Sôr / Aeródromo,39.21536,-8.05417,13.7,10.5,,5,,3.8,96.0,1015.3,S
2026-01-21 01:00:00,6210872,Loulé (CML),37.129946,-8.06523593,1.8,8.5,,3,0.0,0.5,,1018.6,E
2026-01-21 01:00:00,6210879,Portimão (Praia da Rocha),37.11670461,-8.52946314,7.9,9.8,,8,0.1,2.2,95.0,,NW
2026-01-21 01:00:00,6211211,Monção - Guimil (CIM),42.042944,-8.421872,31.0,,0.1,5,,8.6,,1006.1,S
2026-01-21 01:00:00,6211213,Paredes De Coura - Vascões (CIM),41.913444,-8.492111,4.7,8.4,0.3,5,,1.3,99.0,1008.2,S
2026-01-21 01:00:00,6211216,Arcos De Valdevez - Heliporto (CIM),41.831,-8.44375,13.0,10.1,,6,0.9,3.6,96.0,1009.0,SW
2026-01-21 01:00:00,6211218,Ponte De Lima - Anais (CIM),41.698083,-8.522444,13.7,9.8,0.4,4,,3.8,96.0,1008.8,SE
2026-01-21 01:00:00,6212121,Terras de Bouro/Barral (CIM),41.70225278,-8.31808611,11.2,10.2,,6,2.7,3.1,93.0,1008.2,SW
2026-01-21 01:00:00,6212122,Amares Caldelas (CIM),41.66796389,-8.37977778,9.4,11.5,,6,1.6,2.6,95.0,1009.9,SW
2026-01-21 01:00:00,6212123,Vila Verde (CIM),41.64686111,-8.43398056,6.1,11.2,,5,,1.7,91.0,1009.3,S
2026-01-21 01:00:00,6212124,Braga (CIM),41.53568333,-8.42514722,20.2,11.2,,5,1.5,5.6,96.0,1010.3,S
2026-01-21 01:00:00,6212125,Barcelos (CIM),41.529375,-8.62705278,13.7,12.6,,5,3.6,3.8,95.0,1010.3,S
2026-01-21 01:00:00,6212126,Esposende (CIM),41.52645556,-8.77984444,31.7,12.8,,5,2.4,8.8,98.0,1009.5,S
2026-01-21 01:00:00,6213012,Carregal do Sal (CIM),40.46718056,-7.92626389,10.1,9.3,,5,,2.8,94.0,,S
2026-01-21 01:00:00,6213013,Castro Daire / Mézio (CIM),40.98086111,-7.88318889,33.8,6.1,,5,,9.4,100.0,,S
2026-01-21 01:00:00,6213014,Mangualde / Chãs de Tavares  (CIM),40.61096111,-7.60838889,20.5,7.3,,6,0.7,5.7,100.0,,SW
2026-01-21 01:00:00,6213016,Oliveira de Frades (CIM),40.716925,-8.20133889,25.9,8.4,,4,,7.2,97.0,,SE
2026-01-21 01:00:00,6213017,Penalva do Castelo (CIM),40.65706389,-7.69655278,13.0,8.8,,5,0.7,3.6,99.0,,S
2026-01-21 01:00:00,6213020,Satão (CIM),40.76072778,-7.72019722,11.2,7.3,,6,1.6,3.1,100.0,,SW
2026-01-21 01:00:00,6213022,Vila Nova de Paiva (CIM),40.85595,-7.72716389,22.0,6.8,,6,2.3,6.1,,,SW
2026-01-21 01:00:00,6213611,Arganil / Aeródromo (CIM),40.274578,-7.974399,5.8,10.0,,6,0.6,1.6,92.0,,SW
2026-01-21 01:00:00,6213612,Cantanhede / Fonte Dom Pedro (CIM),40.341894,-8.577613,15.8,11.3,,5,1.8,4.4,96.0,,S
2026-01-21 01:00:00,6213613,Coimbra / Mata de São Pedro (CIM),40.330787,-8.374887,9.7,9.3,,5,,2.7,100.0,,S
2026-01-21 01:00:00,6213614,Góis / Quinta da Ribeira (CIM),40.171642,-8.103238,7.2,,,6,,2.0,,,SW
2026-01-21 01:00:00,6213615,Mealhada / Quinta do Vale (CIM),40.373343,-8.4388429,13.0,10.9,,5,1.6,3.6,99.0,,S
2026-01-21 01:00:00,6213616,Mortágua / Aeródromo (CIM),40.426239,-8.232142,4.0,9.9,,4,1.5,1.1,100.0,,SE
2026-01-21 01:00:00,6213617,Penacova / Hombres (CIM),40.280921,-8.198685,14.0,,,6,0.6,3.9,93.0,,SW
2026-01-21 01:00:00,6213619,Vila Nova de Poiares (CIM),40.211411,-8.241995,7.9,12.1,,5,1.2,2.2,85.0,,S
2026-01-21 01:00:00,6213620,Oliveira do Hospital (CIM),40.413306,-7.867972,8.3,9.7,,5,0.6,2.3,87.0,,S
2026-01-21 01:00:00,6214119,Pedrógão Grande (CMPG),39.926573,-8.150912,15.8,9.1,,5,0.8,4.4,100.0,1014.7,S
2026-01-21 01:00:00,6215302,"Lisboa, Carnide (CML)",38.7751,-9.1855,14.8,12.7,,6,0.8,4.1,95.0,1014.1,SW
2026-01-21 01:00:00,6215360,Oeiras / Vila Fria (CMO),38.7239536,-9.2939255,22.3,12.8,0.0,6,1.7,6.2,94.0,1014.6,SW
2026-01-21 01:00:00,7240919,"Lisboa, Amoreiras (LFCL)",38.7239,-9.1649,14.8,12.2,,6,1.2,4.1,100.0,1015.3,SW
2026-01-21 02:00:00,11217160,Santa Maria / Praia Formosa (DROTRH),36.9542,-25.0917,20.5,15.5,0.0,2,0.0,5.7,93.0,,NE
2026-01-21 02:00:00,11217165,Santa Maria / Maia (DROTRH),36.9412,-25.0176,14.4,15.3,0.0,8,0.0,4.0,90.0,,NW
2026-01-21 02:00:00,11217217,São Miguel / Santana (DROTRH),37.8049,-25.5618,11.9,16.7,0.0,6,0.0,3.3,89.0,,SW
2026-01-21 02:00:00,11217225,São Miguel / Sete Cidades (DROTRH),37.8679,-25.772,15.5,14.6,0.0,7,0.0,4.3,98.0,,W
2026-01-21 02:00:00,11217255,São Miguel / Lagoa das Furnas (DROTRH),37.7619,-25.3291,10.4,16.1,0.0,5,0.0,2.9,83.0,,S
2026-01-21 02:00:00,11217370,Terceira / Ribeira das Nove (DROTRH),38.754,-27.3245,9.7,12.5,0.0,5,0.0,2.7,100.0,,S
2026-01-21 02:00:00,11217372,Terceira / Serra do Cume (DROTRH),38.7002,-27.1031,27.0,14.0,0.0,7,0.0,7.5,100.0,,W
2026-01-21 02:00:00,11217430,Graciosa / Serra das Fontes (DROTRH),39.0672,-28.0038,34.2,14.6,0.0,8,0.0,9.5,100.0,,NW
2026-01-21 02:00:00,11217510,São Jorge / Pico do Areeiro (DROTRH),38.6435,-28.0591,39.6,11.8,0.0,6,0.6,11.0,100.0,,SW
2026-01-21 02:00:00,11217645,Pico / Cabecinho (DROTRH),38.4338,-28.1141,10.4,14.5,0.0,8,0.0,2.9,99.0,,NW
2026-01-21 02:00:00,11217710,Faial / Alto do Cabouco (DROTRH),38.587,-28.6992,,12.2,0.0,3,0.3,,99.0,,E
2026-01-21 02:00:00,11217730,Faial / Cabeço Verde (DROTRH),38.5843,-28.7576,5.0,13.6,0.0,6,0.0,1.4,100.0,,SW
2026-01-21 02:00:00,1200501,Flores (Aeródromo),39.45819,-31.1301,26.6,18.1,0.0,7,0.0,7.4,88.0,1022.2,W
2026-01-21 02:00:00,1200502,Corvo (Aeródromo),39.67389,-31.11362,36.4,17.2,0.0,7,0.0,10.1,93.0,1021.4,W
2026-01-21 02:00:00,1200504,Pico (Aeródromo),38.55219,-28.44137,20.5,17.2,0.0,6,0.0,5.7,87.0,1023.2,SW
2026-01-21 02:00:00,1200505,Horta / Aeroporto,38.5211,-28.7128,29.9,17.2,,7,0.0,8.3,86.0,1023.0,W
2026-01-21 02:00:00,1200506,Horta (Obs. Principe Alberto),38.540781,-28.63225,16.2,16.8,0.0,6,0.2,4.5,93.0,1023.9,SW
2026-01-21 02:00:00,1200510,São Jorge,38.66,-28.17,15.8,16.3,0.0,8,0.0,4.4,,1023.0,NW
2026-01-21 02:00:00,1200511,Angra do Heroísmo,38.6659435,-27.216567,19.1,16.4,0.0,7,0.0,5.3,91.0,1022.4,W
2026-01-21 02:00:00,1200512,P. Delgada (Aeródromo),37.74414,-25.6953048,27.4,16.1,0.0,7,0.0,7.6,92.0,1022.7,W
2026-01-21 02:00:00,1200515,Santa Maria (Aeródromo),36.967175,-25.1679,35.6,16.3,0.0,8,0.0,9.9,87.0,1024.2,NW
2026-01-21 02:00:00,1200521,Santa Catarina (Aeródromo),32.69688,-16.77612,,15.0,0.0,0,0.0,,70.0,1023.5,
2026-01-21 02:00:00,1200522,Funchal,32.64786,-16.888,4.7,14.9,0.0,1,0.0,1.3,64.0,1023.8,N
2026-01-21 02:00:00,1200524,Porto Santo,33.074029,-16.34868,22.3,15.9,0.0,8,0.0,6.2,73.0,1022.8,NW
2026-01-21 02:00:00,1200531,Cabo Carvoeiro,39.38,-9.40737778,32.4,12.9,,5,1.8,9.0,95.0,1011.8,S
2026-01-21 02:00:00,1200533,Sagres,37.012835,-8.949089,19.8,14.7,,6,0.0,5.5,70.0,1016.9,SW
2026-01-21 02:00:00,1200535,Lisboa (Geofísico),38.71907778,-9.14972222,19.8,12.6,0.0,6,4.4,5.5,100.0,1013.6,SW
2026-01-21 02:00:00,1200541,Sines,37.954504,-8.838271,26.3,13.3,0.0,6,0.4,7.3,100.0,1015.4,SW
2026-01-21 02:00:00,1200545,"Porto, Pedras Rubras (Aeródromo)",41.233502,-8.681332,30.2,12.2,0.0,5,1.6,8.4,98.0,1008.5,S
2026-01-21 02:00:00,1200548,Coimbra (Aeródromo),40.15006944,-8.46669167,23.0,10.8,0.0,5,0.9,6.4,98.0,1011.9,S
2026-01-21 02:00:00,1200551,"Viana Castelo, Chafé",41.648875,-8.804606,12.2,12.3,0.0,5,2.2,3.4,100.0,1007.0,S
2026-01-21 02:00:00,1200554,Faro (Aeródromo),37.016579,-7.971953,10.1,12.6,0.0,6,0.4,2.8,87.0,1017.4,SW
2026-01-21 02:00:00,1200558,Évora (C.Coordenação),38.53336389,-7.88338056,14.8,9.8,0.0,5,0.5,4.1,,1016.0,S
2026-01-21 02:00:00,1200559,Viseu (Aeródromo),40.72645,-7.887472,24.5,8.0,,6,0.3,6.8,99.0,1011.6,SW
2026-01-21 02:00:00,1200560,Viseu (C.Coordenação),40.71492222,-7.89592222,19.4,7.6,,5,0.4,5.4,100.0,1012.4,S
2026-01-21 02:00:00,1200562,Beja,38.02493056,-7.867275,18.7,9.5,0.0,5,0.0,5.2,100.0,1015.8,S
2026-01-21 02:00:00,1200567,Vila Real,41.27418611,-7.7171,6.5,7.9,0.0,5,0.2,1.8,100.0,1010.6,S
2026-01-21 02:00:00,1200568,Penhas Douradas,40.41136667,-7.55865278,7.6,3.0,0.0,5,,2.1,100.0,,S
2026-01-21 02:00:00,1200570,Castelo Branco,39.83339444,-7.46678889,10.4,9.1,0.0,5,1.1,2.9,100.0,1013.8,S
2026-01-21 02:00:00,1200571,Portalegre,39.29546944,-7.41996944,5.0,7.8,0.0,5,0.8,1.4,100.0,1015.8,S
2026-01-21 02:00:00,1200575,Bragança,41.80388889,-6.74283889,21.6,7.0,0.0,5,0.7,6.0,93.0,1011.4,S
2026-01-21 02:00:00,1200576,Bragança (Aeródromo),41.85763611,-6.70796389,9.4,6.7,,5,1.3,2.6,99.0,1010.8,S
2026-01-21 02:00:00,1200843,Évora (Aeródromo),38.5296,-7.8916,15.8,9.6,,5,0.3,4.4,97.0,1015.7,S
2026-01-21 02:00:00,1210513,P. Delgada (Obs. A. Chaves),37.7464,-25.662283,6.1,16.3,2.2,9,0.0,1.7,98.0,,N
2026-01-21 02:00:00,1210517,Flores / Morro Alto,39.4633,-31.2207,49.0,12.5,,7,0.3,13.6,100.0,1019.6,W
2026-01-21 02:00:00,1210518,São Miguel - Pico Santos De Cima,37.819,-25.7512,33.8,11.3,,8,2.7,9.4,100.0,1022.6,NW
2026-01-21 02:00:00,1210520,Ilhas selvagens,30.140595,-15.869153,18.0,16.4,0.2,8,0.0,5.0,72.0,1024.0,NW
2026-01-21 02:00:00,1210550,Coruche / Cruz Do Leão,39.07101,-8.4,10.8,10.2,,5,1.4,3.0,100.0,1014.5,S
2026-01-21 02:00:00,1210553,Loulé / Cavalos De Caldeirão,37.3042,-7.9534,27.7,8.4,,6,0.4,7.7,100.0,1017.8,SW
2026-01-21 02:00:00,1210577,"Odemira, S.Teotónio",37.54710833,-8.72899167,14.8,12.6,0.0,5,0.5,4.1,91.0,,S
2026-01-21 02:00:00,1210580,"Lisboa, Relógio",38.7618,-9.1254,,11.9,,0,2.9,,96.0,1014.0,
2026-01-21 02:00:00,1210604,V.N.Cerveira (Aeródromo),41.96673056,-8.66676111,15.5,12.4,0.0,5,2.1,4.3,94.0,1006.2,S
2026-01-21 02:00:00,1210605,"Monção, Valinha",42.06669,-8.383347,14.8,12.5,0.0,6,0.1,4.1,89.0,,SW
2026-01-21 02:00:00,1210606,"Lamas de Mouro, P.Ribeiro",42.03333333,-8.18333333,21.6,7.7,0.0,5,1.0,6.0,98.0,1007.0,S
2026-01-21 02:00:00,1210611,Montalegre,41.82276667,-7.78797778,9.7,6.3,0.0,6,2.2,2.7,99.0,,SW
2026-01-21 02:00:00,1210612,Vinhais,41.8434,-7.0034416,8.6,6.2,,5,1.2,2.4,100.0,,S
2026-01-21 02:00:00,1210615,Ponte de Lima,41.75013889,-8.56671389,5.8,12.5,0.0,5,2.0,1.6,94.0,,S
2026-01-21 02:00:00,1210616,Chaves (Aeródromo),41.72516667,-7.46540833,15.8,9.7,0.0,4,0.0,4.4,85.0,1008.8,SE
2026-01-21 02:00:00,1210619,Cabril,41.71666667,-8.01666667,4.0,8.7,,6,3.2,1.1,99.0,,SW
2026-01-21 02:00:00,1210622,"Braga, Merelim",41.56678056,-8.45003056,24.1,11.9,0.0,5,1.7,6.7,97.0,1008.5,S
2026-01-21 02:00:00,1210625,Guimarães,41.4289,-8.3178,,11.5,0.0,0,,,91.0,1008.8,
2026-01-21 02:00:00,1210630,Cabeceiras de Basto,41.53333333,-7.96666667,6.1,10.8,0.0,5,1.4,1.7,98.0,,S
2026-01-21 02:00:00,1210632,Mirandela,41.51478611,-7.19083889,2.2,6.0,0.0,8,0.3,0.6,95.0,,NW
2026-01-21 02:00:00,1210633,"Macedo Cavaleiros, Bagueixe",41.56666667,-6.78333333,12.6,6.7,,6,2.2,3.5,100.0,,SW
2026-01-21 02:00:00,1210635,Miranda do Douro,41.51666667,-6.28333333,15.1,6.6,,6,1.3,4.2,99.0,,SW
2026-01-21 02:00:00,1210637,Mogadouro,41.33333333,-6.73333333,45.4,6.7,0.0,5,1.6,12.6,99.0,,S
2026-01-21 02:00:00,1210643,Paços Ferreira,41.27365,-8.38012,15.1,10.4,,5,0.9,4.2,98.0,,S
2026-01-21 02:00:00,1210644,Carrazêda de Ansiães,41.23333333,-7.28333333,15.1,7.2,0.0,6,0.3,4.2,93.0,,SW
2026-01-21 02:00:00,1210654,Moncorvo,41.18333333,-7.01666667,24.5,8.5,0.0,6,0.9,6.8,87.0,1011.5,SW
2026-01-21 02:00:00,1210655,"Pinhão, Santa Bárbara",41.172775,-7.5489722,2.5,7.8,,9,0.1,0.7,98.0,,N
2026-01-21 02:00:00,1210657,Luzim,41.14585,-8.2490333,13.7,9.5,0.1,6,0.7,3.8,95.0,,SW
2026-01-21 02:00:00,1210663,Moimenta da Beira,40.98333333,-7.6,16.9,7.9,0.0,6,0.5,4.7,92.0,,SW
2026-01-21 02:00:00,1210666,"Trancoso, Bandarra",40.78333333,-7.36666667,30.2,6.5,0.0,5,0.5,8.4,99.0,,S
2026-01-21 02:00:00,1210669,Arouca,40.93333333,-8.25,10.1,11.8,0.0,6,0.9,2.8,86.0,,SW
2026-01-21 02:00:00,1210671,"F. Castelo Rodrigo, V.Torpim",40.75,-6.88333333,17.6,7.6,0.0,5,0.4,4.9,98.0,,S
2026-01-21 02:00:00,1210683,Guarda,40.53333333,-7.26666667,18.4,5.0,2.4,5,1.5,5.1,100.0,,S
2026-01-21 02:00:00,1210685,Nelas,40.51666667,-7.85,8.6,8.7,0.0,5,0.2,2.4,99.0,,S
2026-01-21 02:00:00,1210686,"Pampilhosa da Serra, Fajão",40.145653,-7.92704,39.2,6.1,,5,1.2,10.9,100.0,,S
2026-01-21 02:00:00,1210687,Covilhã (Aeródromo),40.264309,-7.482302,13.0,8.4,0.0,5,,3.6,99.0,,S
2026-01-21 02:00:00,1210690,Aldeia Souto (Q. Lageosa),40.35425833,-7.38931111,6.1,8.4,0.1,5,0.6,1.7,97.0,,S
2026-01-21 02:00:00,1210697,Lousã (Aeródromo),40.143922,-8.244066,13.3,12.0,,6,0.7,3.7,89.0,,SW
2026-01-21 02:00:00,1210698,Fundão,40.14063611,-7.55362778,7.2,9.4,0.0,6,0.8,2.0,86.0,,SW
2026-01-21 02:00:00,1210702,Aveiro (Universidade),40.63529722,-8.65958333,16.9,12.0,0.0,5,0.1,4.7,96.0,1010.6,S
2026-01-21 02:00:00,1210704,Dunas de Mira,40.445955,-8.76168055,10.1,12.2,0.0,5,1.9,2.8,97.0,,S
2026-01-21 02:00:00,1210705,Anadia,40.438852,-8.439996,7.6,11.6,0.0,5,0.2,2.1,93.0,,S
2026-01-21 02:00:00,1210707,"Coimbra, Bencanta",40.2134694,-8.45515277,7.9,11.7,1.0,5,1.0,2.2,100.0,,S
2026-01-21 02:00:00,1210713,"Figueira da Foz, Vila Verde",40.139764,-8.805945,16.9,12.3,0.0,5,1.7,4.7,,,S
2026-01-21 02:00:00,1210716,Ansião,39.9,-8.4,13.0,9.6,0.0,5,1.0,3.6,98.0,,S
2026-01-21 02:00:00,1210718,Leiria (Aeródromo),39.780553,-8.818166,15.1,12.0,0.0,4,2.1,4.2,95.0,1012.2,SE
2026-01-21 02:00:00,1210724,"Tomar, Valdonas",39.6,-8.36666667,14.0,11.3,243.7,5,1.8,3.9,98.0,,S
2026-01-21 02:00:00,1210726,Alcobaça,39.51666667,-8.96666667,8.3,12.5,0.0,5,2.8,2.3,92.0,,S
2026-01-21 02:00:00,1210729,Rio Maior,39.35,-8.93333333,4.0,11.1,20.8,5,3.7,1.1,98.0,,S
2026-01-21 02:00:00,1210734,"Santarém, Fonte Boa",39.201216,-8.736656,17.3,11.4,0.0,5,1.6,4.8,98.0,1013.6,S
2026-01-21 02:00:00,1210735,Chamusca / Chouto,39.27,-8.3508,11.2,10.7,,4,1.3,3.1,100.0,1014.2,SE
2026-01-21 02:00:00,1210739,"Torres Vedras, Dois Portos",39.04389444,-9.179,19.8,11.8,0.0,6,2.5,5.5,98.0,,SW
2026-01-21 02:00:00,1210744,Coruche,38.94096667,-8.51073611,11.5,11.5,0.1,5,1.0,3.2,,,S
2026-01-21 02:00:00,1210746,Santa Cruz (Aeródromo),39.12594166,-9.3790388,22.0,10.9,0.0,5,2.8,6.1,97.0,1012.6,S
2026-01-21 02:00:00,1210750,Cabo da Roca,38.78171,-9.4975361,43.2,12.0,0.1,5,1.5,12.0,100.0,,S
2026-01-21 02:00:00,1210752,Sintra/Tapada do Mouco,38.781669,-9.400398,9.0,9.1,,5,5.7,2.5,100.0,,S
2026-01-21 02:00:00,1210762,"Lisboa, Tapada da Ajuda",38.70956111,-9.182825,13.3,12.7,0.0,6,3.3,3.7,100.0,,SW
2026-01-21 02:00:00,1210765,Cabo Raso,38.70900833,-9.48538333,27.4,13.5,,6,2.2,7.6,93.0,,SW
2026-01-21 02:00:00,1210766,"Barreiro, Lavradio",38.67448611,-9.04766111,13.3,13.6,0.0,6,1.3,3.7,93.0,,SW
2026-01-21 02:00:00,1210767,Pegões,38.65079,-8.63503,6.1,10.9,0.0,4,1.1,1.7,100.0,,SE
2026-01-21 02:00:00,1210770,Setúbal,38.54846008,-8.89077058,6.1,13.0,0.0,6,0.7,1.7,87.0,,SW
2026-01-21 02:00:00,1210773,"Almada, P.Rainha",38.617111,-9.212804,16.6,,0.0,6,2.5,4.6,,,SW
2026-01-21 02:00:00,1210776,"Alcácer do Sal, Barrosinha",38.36666667,-8.48333333,10.4,10.7,0.0,5,0.6,2.9,98.0,,S
2026-01-21 02:00:00,1210783,Alvalade,37.946806,-8.394504,11.2,11.5,0.0,5,0.3,3.1,93.0,,S
2026-01-21 02:00:00,1210785,Ourique / Santana Da Serra,37.5025,-8.3019,14.0,10.7,0.0,4,0.0,3.9,91.0,1016.8,SE
2026-01-21 02:00:00,1210789,Aljezur,37.31675278,-8.80001667,3.6,13.0,0.0,5,0.0,1.0,92.0,,S
2026-01-21 02:00:00,1210790,Fóia,37.3143,-8.595733,34.6,6.9,0.3,6,0.0,9.6,,,SW
2026-01-21 02:00:00,1210800,"Sabugal, Martim Rei",40.33918056,-7.03693333,19.8,6.4,0.0,5,1.3,5.5,99.0,,S
2026-01-21 02:00:00,1210803,Zebreira,39.86666667,-7.01666667,7.6,8.4,5.8,4,0.1,2.1,98.0,,SE
2026-01-21 02:00:00,1210806,"Proença-a-Nova, P.Moitas",39.73333333,-7.86666667,11.2,9.2,18.3,6,1.9,3.1,100.0,,SW
2026-01-21 02:00:00,1210812,Alvega,39.46666667,-8.05,9.7,11.5,,5,1.3,2.7,100.0,,S
2026-01-21 02:00:00,1210824,"Avis, Benavila",39.1,-7.86666667,9.4,10.8,0.0,5,0.7,2.6,99.0,,S
2026-01-21 02:00:00,1210826,Mora,38.94068,-8.16406,14.0,10.7,0.0,5,1.0,3.9,97.0,,S
2026-01-21 02:00:00,1210835,Elvas,38.8908,-7.13976111,13.0,9.3,0.0,6,0.0,3.6,99.0,,SW
2026-01-21 02:00:00,1210837,Estremoz,38.86666667,-7.51666667,9.0,9.6,0.0,5,0.4,2.5,100.0,,S
2026-01-21 02:00:00,1210840,"Reguengos, S. P. do Corval",38.484866,-7.4729166,15.8,8.6,0.0,5,0.0,4.4,99.0,,S
2026-01-21 02:00:00,1210846,Montemor-O-Novo,38.6451,-8.1991,10.8,10.3,,5,0.8,3.0,100.0,1016.2,S
2026-01-21 02:00:00,1210847,Viana do Alentejo,38.3319194,-8.04553888,14.0,9.6,0.0,5,,3.9,,,S
2026-01-21 02:00:00,1210848,"Portel, Oriola",38.31666667,-7.86666667,14.0,10.3,,5,0.0,3.9,93.0,,S
2026-01-21 02:00:00,1210851,Amareleja,38.2007,-7.2261,11.2,,0.0,5,0.0,3.1,,1016.5,S
2026-01-21 02:00:00,1210863,"Mértola, Vale Formoso",37.75,-7.55,4.7,9.8,0.0,4,0.0,1.3,89.0,,SE
2026-01-21 02:00:00,1210864,"Castro Verde, N.Corvo",37.57655833,-7.97211389,6.8,10.8,0.0,5,0.0,1.9,99.0,,S
2026-01-21 02:00:00,1210865,"Alcoutim, Mart.Longo",37.43333333,-7.76666667,8.6,9.9,,4,0.1,2.4,94.0,1017.6,SE
2026-01-21 02:00:00,1210866,Vila Real de S.António,37.1871055,-7.416325,,9.2,,0,0.0,,90.0,,
2026-01-21 02:00:00,1210867,Castro Marim (RN Sapal),37.21666667,-7.45,2.2,9.0,0.0,6,0.0,0.6,95.0,,SW
2026-01-21 02:00:00,1210874,Albufeira,37.0935,-8.262,14.0,12.8,,6,0.1,3.9,85.0,,SW
2026-01-21 02:00:00,1210878,Portimão (Aeródromo),37.149167,-8.581389,1.4,8.5,0.0,1,0.0,0.4,96.0,1017.2,N
2026-01-21 02:00:00,1210881,"Olhão, EPPO",37.033,-7.821,4.3,11.0,0.0,8,0.0,1.2,96.0,1018.1,NW
2026-01-21 02:00:00,1210883,Tavira,37.12166968,-7.62050375,5.4,8.7,,1,0.0,1.5,94.0,1018.9,N
2026-01-21 02:00:00,1210907,Faja / Ilha das Flores,39.45328,-31.2647,7.9,17.2,,7,0.0,2.2,97.0,1023.7,W
2026-01-21 02:00:00,1210932,"S. Miguel, Nordeste",37.83256,-25.150108,27.4,16.9,,8,0.0,7.6,83.0,,NW
2026-01-21 02:00:00,1210956,"Madeira, Porto Moniz",32.867477,-17.171373,,16.4,0.0,0,0.0,,68.0,,
2026-01-21 02:00:00,1210960,"Madeira, S. Jorge, Santana",32.83446944,-16.906219,24.8,13.9,0.0,8,0.0,6.9,77.0,1023.3,NW
2026-01-21 02:00:00,1210965,"Madeira, Santana",32.808238,-16.8864166,,11.1,28.7,0,0.0,,86.0,,
2026-01-21 02:00:00,1210967,"Madeira, São Vicente",32.8001833,-17.044722,,12.4,4.6,0,0.0,,86.0,,
2026-01-21 02:00:00,1210972,"Madeira, Pico Alto",32.693491,-16.903955,6.5,7.6,0.0,1,,1.8,,,N
2026-01-21 02:00:00,1210974,"Madeira, Pico do Areeiro",32.735107,-16.928271,,6.8,,0,0.0,,80.0,,
2026-01-21 02:00:00,1210975,"Madeira, Santo da Serra",32.7258972,-16.816822,,8.3,0.0,0,0.0,,91.0,,
2026-01-21 02:00:00,1210976,"Madeira, Monte",32.675833,-16.906944,4.7,9.6,0.0,9,0.0,1.3,81.0,,N
2026-01-21 02:00:00,1210977,"Madeira, Cancela",32.64500556,-16.86575,1.4,12.2,0.0,2,0.0,0.4,86.0,,NE
2026-01-21 02:00:00,1210978,"Madeira, S. Lourenço",32.747,-16.706,6.8,15.4,0.0,7,0.0,1.9,76.0,,W
2026-01-21 02:00:00,1210984,"Madeira, Quinta Grande",32.6629722,-17.01503611,,10.6,0.0,0,0.0,,70.0,,
2026-01-21 02:00:00,1210986,Ponta do Sol/Lugar de Baixo,32.681502,-17.104167,4.0,15.5,0.0,3,0.0,1.1,65.0,,E
2026-01-21 02:00:00,1210987,Prazeres (Calheta),32.757205,-17.201551,19.8,10.8,0.0,8,0.0,5.5,92.0,,NW
2026-01-21 02:00:00,1240546,"Porto, Serra do Pilar",41.1385194,-8.6025,16.9,11.7,0.0,5,2.1,4.7,100.0,1008.6,S
2026-01-21 02:00:00,1240566,Vila Real (Cidade),41.30898056,-7.740522,2.9,8.0,,8,0.2,0.8,100.0,,NW
2026-01-21 02:00:00,1240610,Viana do Castelo,41.695,-8.82916,,12.7,,0,1.7,,98.0,,
2026-01-21 02:00:00,1240675,Viseu (Cidade),40.662738,-7.9039694,,8.8,,0,0.5,,98.0,,
2026-01-21 02:00:00,1240903,"Porto, Massarelos",41.15257,-8.62598,,11.8,,0,,,100.0,,
2026-01-21 02:00:00,1240971,"Madeira, Funchal, Lido",32.63655,-16.935592,0.0,16.0,0.0,0,0.0,0.0,62.0,,
2026-01-21 02:00:00,1259201,Lousã/Trevim,40.09328521,-8.17904215,37.1,4.7,,7,,10.3,100.0,,W
2026-01-21 02:00:00,1259202,Lousã/Candal,40.08090803,-8.20484533,,8.0,,0,,,72.0,,
2026-01-21 02:00:00,1259203,Seia/Aeródromo,40.45517056,-7.68614846,5.8,9.2,,6,1.0,1.6,92.0,1012.7,SW
2026-01-21 02:00:00,1259204,Seia/Senhora do Espinheiro,40.412775,-7.673406,,5.4,,0,,,99.0,1012.9,
2026-01-21 02:00:00,5210758,Alcochete / Campo Tiro,38.7627,-8.7825,15.5,12.0,,5,0.9,4.3,98.0,1013.9,S
2026-01-21 02:00:00,6210817,Ponte de Sôr / Aeródromo,39.21536,-8.05417,13.0,10.9,,5,,3.6,95.0,1014.4,S
2026-01-21 02:00:00,6210872,Loulé (CML),37.129946,-8.06523593,3.2,9.0,,2,0.0,0.9,,1017.9,NE
2026-01-21 02:00:00,6210879,Portimão (Praia da Rocha),37.11670461,-8.52946314,9.0,11.3,,7,0.0,2.5,94.0,,W
2026-01-21 02:00:00,6211211,Monção - Guimil (CIM),42.042944,-8.421872,42.8,,0.0,5,,11.9,,1004.4,S
2026-01-21 02:00:00,6211213,Paredes De Coura - Vascões (CIM),41.913444,-8.492111,7.9,8.5,0.0,5,,2.2,99.0,1007.0,S
2026-01-21 02:00:00,6211216,Arcos De Valdevez - Heliporto (CIM),41.831,-8.44375,10.1,10.0,,6,1.9,2.8,98.0,1007.8,SW
2026-01-21 02:00:00,6211218,Ponte De Lima - Anais (CIM),41.698083,-8.522444,16.2,10.0,0.6,4,,4.5,97.0,1007.4,SE
2026-01-21 02:00:00,6212121,Terras de Bouro/Barral (CIM),41.70225278,-8.31808611,9.7,10.2,,6,5.3,2.7,95.0,1007.0,SW
2026-01-21 02:00:00,6212122,Amares Caldelas (CIM),41.66796389,-8.37977778,9.7,11.4,,6,2.5,2.7,95.0,1008.8,SW
2026-01-21 02:00:00,6212123,Vila Verde (CIM),41.64686111,-8.43398056,7.2,11.3,,5,,2.0,91.0,1008.2,S
2026-01-21 02:00:00,6212124,Braga (CIM),41.53568333,-8.42514722,20.5,11.0,,5,2.2,5.7,97.0,1009.1,S
2026-01-21 02:00:00,6212125,Barcelos (CIM),41.529375,-8.62705278,19.8,12.6,,5,3.5,5.5,97.0,1008.9,S
2026-01-21 02:00:00,6212126,Esposende (CIM),41.52645556,-8.77984444,34.6,12.7,,5,3.1,9.6,98.0,1008.1,S
2026-01-21 02:00:00,6213012,Carregal do Sal (CIM),40.46718056,-7.92626389,9.7,9.3,,6,,2.7,95.0,,SW
2026-01-21 02:00:00,6213013,Castro Daire / Mézio (CIM),40.98086111,-7.88318889,28.1,6.0,,5,,7.8,100.0,,S
2026-01-21 02:00:00,6213014,Mangualde / Chãs de Tavares  (CIM),40.61096111,-7.60838889,13.7,7.3,,6,0.7,3.8,100.0,,SW
2026-01-21 02:00:00,6213016,Oliveira de Frades (CIM),40.716925,-8.20133889,33.8,8.1,,4,,9.4,96.0,,SE
2026-01-21 02:00:00,6213017,Penalva do Castelo (CIM),40.65706389,-7.69655278,10.8,8.7,,6,0.3,3.0,100.0,,SW
2026-01-21 02:00:00,6213020,Satão (CIM),40.76072778,-7.72019722,9.7,7.1,,6,0.4,2.7,100.0,,SW
2026-01-21 02:00:00,6213022,Vila Nova de Paiva (CIM),40.85595,-7.72716389,22.0,6.5,,6,2.8,6.1,,,SW
2026-01-21 02:00:00,6213611,Arganil / Aeródromo (CIM),40.274578,-7.974399,6.5,10.2,,7,1.0,1.8,91.0,,W
2026-01-21 02:00:00,6213612,Cantanhede / Fonte Dom Pedro (CIM),40.341894,-8.577613,15.8,11.1,,5,0.5,4.4,96.0,,S
2026-01-21 02:00:00,6213613,Coimbra / Mata de São Pedro (CIM),40.330787,-8.374887,9.4,9.1,,5,,2.6,100.0,,S
2026-01-21 02:00:00,6213614,Góis / Quinta da Ribeira (CIM),40.171642,-8.103238,16.2,,,6,,4.5,,,SW
2026-01-21 02:00:00,6213615,Mealhada / Quinta do Vale (CIM),40.373343,-8.4388429,12.6,10.8,,5,0.3,3.5,99.0,,S
2026-01-21 02:00:00,6213616,Mortágua / Aeródromo (CIM),40.426239,-8.232142,5.0,10.2,,5,0.4,1.4,100.0,,S
2026-01-21 02:00:00,6213617,Penacova / Hombres (CIM),40.280921,-8.198685,13.0,,,6,0.1,3.6,92.0,,SW
2026-01-21 02:00:00,6213619,Vila Nova de Poiares (CIM),40.211411,-8.241995,6.1,11.6,,5,0.7,1.7,89.0,,S
2026-01-21 02:00:00,6213620,Oliveira do Hospital (CIM),40.413306,-7.867972,10.1,9.4,,5,0.4,2.8,90.0,,S
2026-01-21 02:00:00,6214119,Pedrógão Grande (CMPG),39.926573,-8.150912,14.0,9.1,,5,,3.9,100.0,1013.7,S
2026-01-21 02:00:00,6215302,"Lisboa, Carnide (CML)",38.7751,-9.1855,19.1,12.2,,6,2.3,5.3,97.0,1013.2,SW
2026-01-21 02:00:00,6215360,Oeiras / Vila Fria (CMO),38.7239536,-9.2939255,20.5,12.3,0.0,6,4.7,5.7,98.0,1013.9,SW
2026-01-21 02:00:00,7240919,"Lisboa, Amoreiras (LFCL)",38.7239,-9.1649,16.9,11.9,,7,2.7,4.7,100.0,1014.4,W
2026-01-21 03:00:00,11217160,Santa Maria / Praia Formosa (DROTRH),36.9542,-25.0917,20.2,15.5,0.0,2,0.0,5.6,93.0,,NE
2026-01-21 03:00:00,11217165,Santa Maria / Maia (DROTRH),36.9412,-25.0176,23.4,15.3,0.0,8,0.0,6.5,90.0,,NW
2026-01-21 03:00:00,11217217,São Miguel / Santana (DROTRH),37.8049,-25.5618,7.6,16.7,0.0,6,0.0,2.1,90.0,,SW
2026-01-21 03:00:00,11217225,São Miguel / Sete Cidades (DROTRH),37.8679,-25.772,15.1,14.6,0.0,7,0.0,4.2,99.0,,W
2026-01-21 03:00:00,11217255,São Miguel / Lagoa das Furnas (DROTRH),37.7619,-25.3291,12.2,15.9,0.0,5,0.0,3.4,87.0,,S
2026-01-21 03:00:00,11217370,Terceira / Ribeira das Nove (DROTRH),38.754,-27.3245,6.8,12.5,0.0,6,0.0,1.9,100.0,,SW
2026-01-21 03:00:00,11217372,Terceira / Serra do Cume (DROTRH),38.7002,-27.1031,26.3,14.1,0.0,8,0.2,7.3,100.0,,NW
2026-01-21 03:00:00,11217430,Graciosa / Serra das Fontes (DROTRH),39.0672,-28.0038,34.2,14.7,0.0,8,0.0,9.5,100.0,,NW
2026-01-21 03:00:00,11217510,São Jorge / Pico do Areeiro (DROTRH),38.6435,-28.0591,36.4,11.9,0.0,6,0.8,10.1,100.0,,SW
2026-01-21 03:00:00,11217645,Pico / Cabecinho (DROTRH),38.4338,-28.1141,13.0,15.1,0.0,8,0.0,3.6,95.0,,NW
2026-01-21 03:00:00,11217710,Faial / Alto do Cabouco (DROTRH),38.587,-28.6992,,12.4,0.0,7,0.5,,99.0,,W
2026-01-21 03:00:00,11217730,Faial / Cabeço Verde (DROTRH),38.5843,-28.7576,7.9,13.7,0.0,6,0.1,2.2,100.0,,SW
2026-01-21 03:00:00,1200501,Flores (Aeródromo),39.45819,-31.1301,21.2,17.9,0.0,7,0.0,5.9,88.0,1021.3,W
2026-01-21 03:00:00,1200502,Corvo (Aeródromo),39.67389,-31.11362,31.0,17.0,0.0,7,0.0,8.6,94.0,1020.6,W
2026-01-21 03:00:00,1200504,Pico (Aeródromo),38.55219,-28.44137,14.8,17.0,0.0,7,0.0,4.1,90.0,1022.9,W
2026-01-21 03:00:00,1200505,Horta / Aeroporto,38.5211,-28.7128,24.1,17.1,,7,0.0,6.7,88.0,1022.6,W
2026-01-21 03:00:00,1200506,Horta (Obs. Principe Alberto),38.540781,-28.63225,14.4,16.6,0.0,6,0.4,4.0,96.0,1023.5,SW
2026-01-21 03:00:00,1200510,São Jorge,38.66,-28.17,19.1,16.2,0.0,7,0.0,5.3,,1022.6,W
2026-01-21 03:00:00,1200511,Angra do Heroísmo,38.6659435,-27.216567,19.1,16.1,0.0,7,0.7,5.3,93.0,1022.2,W
2026-01-21 03:00:00,1200512,P. Delgada (Aeródromo),37.74414,-25.6953048,29.2,16.1,0.0,7,0.0,8.1,93.0,1022.0,W
2026-01-21 03:00:00,1200515,Santa Maria (Aeródromo),36.967175,-25.1679,27.7,16.4,0.0,8,0.0,7.7,87.0,1023.4,NW
2026-01-21 03:00:00,1200521,Santa Catarina (Aeródromo),32.69688,-16.77612,,15.2,0.1,0,0.0,,66.0,1022.8,
2026-01-21 03:00:00,1200522,Funchal,32.64786,-16.888,4.7,15.0,0.0,2,0.0,1.3,65.0,1023.0,NE
2026-01-21 03:00:00,1200524,Porto Santo,33.074029,-16.34868,24.5,15.8,0.1,8,0.0,6.8,74.0,1022.3,NW
2026-01-21 03:00:00,1200531,Cabo Carvoeiro,39.38,-9.40737778,33.5,12.9,,5,3.5,9.3,98.0,1010.3,S
2026-01-21 03:00:00,1200533,Sagres,37.012835,-8.949089,24.8,14.1,,6,0.6,6.9,75.0,1016.1,SW
2026-01-21 03:00:00,1200535,Lisboa (Geofísico),38.71907778,-9.14972222,21.6,12.1,0.0,6,3.2,6.0,100.0,1012.8,SW
2026-01-21 03:00:00,1200541,Sines,37.954504,-8.838271,23.8,12.7,0.0,6,0.5,6.6,100.0,1014.7,SW
2026-01-21 03:00:00,1200545,"Porto, Pedras Rubras (Aeródromo)",41.233502,-8.681332,32.8,11.7,0.0,5,3.7,9.1,98.0,1007.4,S
2026-01-21 03:00:00,1200548,Coimbra (Aeródromo),40.15006944,-8.46669167,23.8,11.0,0.0,5,0.0,6.6,97.0,1010.5,S
2026-01-21 03:00:00,1200551,"Viana Castelo, Chafé",41.648875,-8.804606,13.3,12.5,0.0,5,1.7,3.7,100.0,1005.8,S
2026-01-21 03:00:00,1200554,Faro (Aeródromo),37.016579,-7.971953,22.7,13.7,0.0,7,0.1,6.3,85.0,1016.6,W
2026-01-21 03:00:00,1200558,Évora (C.Coordenação),38.53336389,-7.88338056,13.0,9.9,0.0,5,0.9,3.6,,1015.5,S
2026-01-21 03:00:00,1200559,Viseu (Aeródromo),40.72645,-7.887472,22.7,7.6,,5,0.5,6.3,99.0,1010.4,S
2026-01-21 03:00:00,1200560,Viseu (C.Coordenação),40.71492222,-7.89592222,21.2,7.3,,5,0.4,5.9,100.0,1011.1,S
2026-01-21 03:00:00,1200562,Beja,38.02493056,-7.867275,17.6,9.8,0.0,6,1.0,4.9,100.0,1015.1,SW
2026-01-21 03:00:00,1200567,Vila Real,41.27418611,-7.7171,7.6,8.2,0.0,5,0.1,2.1,100.0,1009.3,S
2026-01-21 03:00:00,1200568,Penhas Douradas,40.41136667,-7.55865278,9.4,3.0,0.0,4,,2.6,100.0,,SE
2026-01-21 03:00:00,1200570,Castelo Branco,39.83339444,-7.46678889,11.9,9.2,0.0,5,1.7,3.3,100.0,1013.1,S
2026-01-21 03:00:00,1200571,Portalegre,39.29546944,-7.41996944,4.7,7.9,0.0,5,3.4,1.3,100.0,1015.2,S
2026-01-21 03:00:00,1200575,Bragança,41.80388889,-6.74283889,15.1,6.8,0.0,5,0.3,4.2,93.0,1010.6,S
2026-01-21 03:00:00,1200576,Bragança (Aeródromo),41.85763611,-6.70796389,12.2,6.8,,5,0.2,3.4,99.0,1009.8,S
2026-01-21 03:00:00,1200843,Évora (Aeródromo),38.5296,-7.8916,14.0,9.7,,5,0.6,3.9,98.0,1015.2,S
2026-01-21 03:00:00,1210513,P. Delgada (Obs. A. Chaves),37.7464,-25.662283,6.1,16.3,0.5,0,0.0,1.7,100.0,,
2026-01-21 03:00:00,1210517,Flores / Morro Alto,39.4633,-31.2207,49.3,12.4,,7,0.5,13.7,100.0,1018.7,W
2026-01-21 03:00:00,1210518,São Miguel - Pico Santos De Cima,37.819,-25.7512,33.1,11.5,,8,4.4,9.2,100.0,1021.9,NW
2026-01-21 03:00:00,1210520,Ilhas selvagens,30.140595,-15.869153,20.5,16.3,2.5,9,0.0,5.7,74.0,1023.4,N
2026-01-21 03:00:00,1210550,Coruche / Cruz Do Leão,39.07101,-8.4,11.2,10.4,,5,1.0,3.1,100.0,1013.7,S
2026-01-21 03:00:00,1210553,Loulé / Cavalos De Caldeirão,37.3042,-7.9534,33.1,8.4,,6,0.0,9.2,100.0,1016.9,SW
2026-01-21 03:00:00,1210577,"Odemira, S.Teotónio",37.54710833,-8.72899167,18.0,12.4,0.0,6,2.6,5.0,96.0,,SW
2026-01-21 03:00:00,1210580,"Lisboa, Relógio",38.7618,-9.1254,,11.5,,0,2.1,,97.0,1013.1,
2026-01-21 03:00:00,1210604,V.N.Cerveira (Aeródromo),41.96673056,-8.66676111,19.1,12.4,0.0,5,3.4,5.3,96.0,1005.0,S
2026-01-21 03:00:00,1210605,"Monção, Valinha",42.06669,-8.383347,25.2,12.8,0.0,5,0.2,7.0,88.0,,S
2026-01-21 03:00:00,1210606,"Lamas de Mouro, P.Ribeiro",42.03333333,-8.18333333,23.8,7.8,0.0,5,0.8,6.6,97.0,1006.1,S
2026-01-21 03:00:00,1210611,Montalegre,41.82276667,-7.78797778,8.6,6.4,0.0,6,2.4,2.4,99.0,,SW
2026-01-21 03:00:00,1210612,Vinhais,41.8434,-7.0034416,14.0,6.5,,5,0.1,3.9,100.0,,S
2026-01-21 03:00:00,1210615,Ponte de Lima,41.75013889,-8.56671389,9.7,12.5,0.0,5,2.6,2.7,95.0,,S
2026-01-21 03:00:00,1210616,Chaves (Aeródromo),41.72516667,-7.46540833,7.9,9.7,0.0,5,0.0,2.2,83.0,1007.7,S
2026-01-21 03:00:00,1210619,Cabril,41.71666667,-8.01666667,4.0,8.9,,7,3.4,1.1,99.0,,W
2026-01-21 03:00:00,1210622,"Braga, Merelim",41.56678056,-8.45003056,20.9,11.8,0.0,5,1.8,5.8,97.0,1007.1,S
2026-01-21 03:00:00,1210625,Guimarães,41.4289,-8.3178,,11.4,0.0,0,,,91.0,1007.6,
2026-01-21 03:00:00,1210630,Cabeceiras de Basto,41.53333333,-7.96666667,6.1,10.7,0.0,3,1.0,1.7,100.0,,E
2026-01-21 03:00:00,1210632,Mirandela,41.51478611,-7.19083889,1.8,6.1,0.0,6,0.0,0.5,96.0,,SW
2026-01-21 03:00:00,1210633,"Macedo Cavaleiros, Bagueixe",41.56666667,-6.78333333,14.0,6.7,,6,0.4,3.9,100.0,,SW
2026-01-21 03:00:00,1210635,Miranda do Douro,41.51666667,-6.28333333,15.1,6.8,,6,1.0,4.2,99.0,,SW
2026-01-21 03:00:00,1210637,Mogadouro,41.33333333,-6.73333333,29.2,6.9,0.0,5,0.2,8.1,99.0,,S
2026-01-21 03:00:00,1210643,Paços Ferreira,41.27365,-8.38012,16.6,10.3,,5,1.0,4.6,98.0,,S
2026-01-21 03:00:00,1210644,Carrazêda de Ansiães,41.23333333,-7.28333333,13.0,7.4,0.0,6,0.0,3.6,92.0,,SW
2026-01-21 03:00:00,1210654,Moncorvo,41.18333333,-7.01666667,25.9,8.8,0.0,5,0.0,7.2,84.0,1010.3,S
2026-01-21 03:00:00,1210655,"Pinhão, Santa Bárbara",41.172775,-7.5489722,5.0,7.8,,5,0.1,1.4,98.0,,S
2026-01-21 03:00:00,1210657,Luzim,41.14585,-8.2490333,13.7,9.7,2.2,6,0.0,3.8,92.0,,SW
2026-01-21 03:00:00,1210663,Moimenta da Beira,40.98333333,-7.6,23.8,7.6,0.0,5,0.2,6.6,91.0,,S
2026-01-21 03:00:00,1210666,"Trancoso, Bandarra",40.78333333,-7.36666667,22.7,6.3,0.0,5,0.3,6.3,99.0,,S
2026-01-21 03:00:00,1210669,Arouca,40.93333333,-8.25,6.1,11.8,0.0,9,0.1,1.7,83.0,,N
2026-01-21 03:00:00,1210671,"F. Castelo Rodrigo, V.Torpim",40.75,-6.88333333,21.6,7.4,0.0,5,0.3,6.0,99.0,,S
2026-01-21 03:00:00,1210683,Guarda,40.53333333,-7.26666667,24.5,5.0,2.4,5,0.6,6.8,100.0,,S
2026-01-21 03:00:00,1210685,Nelas,40.51666667,-7.85,7.2,8.7,0.0,6,0.1,2.0,98.0,,SW
2026-01-21 03:00:00,1210686,"Pampilhosa da Serra, Fajão",40.145653,-7.92704,60.5,5.8,,5,0.2,16.8,100.0,,S
2026-01-21 03:00:00,1210687,Covilhã (Aeródromo),40.264309,-7.482302,13.7,8.4,0.0,6,,3.8,99.0,,SW
2026-01-21 03:00:00,1210690,Aldeia Souto (Q. Lageosa),40.35425833,-7.38931111,7.6,8.5,0.0,5,0.3,2.1,97.0,,S
2026-01-21 03:00:00,1210697,Lousã (Aeródromo),40.143922,-8.244066,13.0,12.6,,5,0.1,3.6,86.0,,S
2026-01-21 03:00:00,1210698,Fundão,40.14063611,-7.55362778,7.9,9.3,0.5,6,0.6,2.2,86.0,,SW
2026-01-21 03:00:00,1210702,Aveiro (Universidade),40.63529722,-8.65958333,18.0,11.8,0.0,5,0.0,5.0,96.0,1009.4,S
2026-01-21 03:00:00,1210704,Dunas de Mira,40.445955,-8.76168055,10.1,12.2,0.0,5,2.4,2.8,97.0,,S
2026-01-21 03:00:00,1210705,Anadia,40.438852,-8.439996,7.6,11.5,0.0,5,0.2,2.1,93.0,,S
2026-01-21 03:00:00,1210707,"Coimbra, Bencanta",40.2134694,-8.45515277,14.4,12.0,2.0,5,0.1,4.0,100.0,,S
2026-01-21 03:00:00,1210713,"Figueira da Foz, Vila Verde",40.139764,-8.805945,19.4,12.1,0.0,5,1.5,5.4,,,S
2026-01-21 03:00:00,1210716,Ansião,39.9,-8.4,13.7,9.6,0.0,5,0.3,3.8,98.0,,S
2026-01-21 03:00:00,1210718,Leiria (Aeródromo),39.780553,-8.818166,18.4,11.6,0.0,4,1.5,5.1,96.0,1011.0,SE
2026-01-21 03:00:00,1210724,"Tomar, Valdonas",39.6,-8.36666667,18.0,11.5,100.8,5,1.6,5.0,97.0,,S
2026-01-21 03:00:00,1210726,Alcobaça,39.51666667,-8.96666667,10.1,12.2,0.0,5,2.6,2.8,91.0,,S
2026-01-21 03:00:00,1210729,Rio Maior,39.35,-8.93333333,7.2,11.4,18.1,5,2.3,2.0,98.0,,S
2026-01-21 03:00:00,1210734,"Santarém, Fonte Boa",39.201216,-8.736656,22.0,11.6,0.0,5,1.2,6.1,98.0,1012.6,S
2026-01-21 03:00:00,1210735,Chamusca / Chouto,39.27,-8.3508,14.4,11.0,,4,1.6,4.0,100.0,1013.3,SE
2026-01-21 03:00:00,1210739,"Torres Vedras, Dois Portos",39.04389444,-9.179,22.3,11.5,0.0,5,1.6,6.2,99.0,,S
2026-01-21 03:00:00,1210744,Coruche,38.94096667,-8.51073611,11.9,11.7,0.0,5,0.7,3.3,,,S
2026-01-21 03:00:00,1210746,Santa Cruz (Aeródromo),39.12594166,-9.3790388,22.0,10.8,0.0,5,3.4,6.1,98.0,1011.3,S
2026-01-21 03:00:00,1210750,Cabo da Roca,38.78171,-9.4975361,40.7,12.2,0.1,5,1.9,11.3,100.0,,S
2026-01-21 03:00:00,1210752,Sintra/Tapada do Mouco,38.781669,-9.400398,9.7,9.3,,4,4.3,2.7,100.0,,SE
2026-01-21 03:00:00,1210762,"Lisboa, Tapada da Ajuda",38.70956111,-9.182825,13.0,12.2,0.0,6,3.6,3.6,100.0,,SW
2026-01-21 03:00:00,1210765,Cabo Raso,38.70900833,-9.48538333,24.1,13.5,,6,4.0,6.7,96.0,,SW
2026-01-21 03:00:00,1210766,"Barreiro, Lavradio",38.67448611,-9.04766111,13.3,13.2,0.0,5,1.7,3.7,93.0,,S
2026-01-21 03:00:00,1210767,Pegões,38.65079,-8.63503,10.4,11.5,0.0,5,3.1,2.9,100.0,,S
2026-01-21 03:00:00,1210770,Setúbal,38.54846008,-8.89077058,13.3,12.7,0.0,6,1.0,3.7,89.0,,SW
2026-01-21 03:00:00,1210773,"Almada, P.Rainha",38.617111,-9.212804,19.1,,0.0,5,2.6,5.3,,,S
2026-01-21 03:00:00,1210776,"Alcácer do Sal, Barrosinha",38.36666667,-8.48333333,11.9,11.3,0.0,5,1.8,3.3,97.0,,S
2026-01-21 03:00:00,1210783,Alvalade,37.946806,-8.394504,10.8,11.6,0.0,5,1.3,3.0,95.0,,S
2026-01-21 03:00:00,1210785,Ourique / Santana Da Serra,37.5025,-8.3019,11.5,10.8,0.0,3,0.0,3.2,92.0,1016.2,E
2026-01-21 03:00:00,1210789,Aljezur,37.31675278,-8.80001667,4.7,12.9,2.2,6,1.7,1.3,95.0,,SW
2026-01-21 03:00:00,1210790,Fóia,37.3143,-8.595733,35.3,7.1,0.1,6,0.8,9.8,,,SW
2026-01-21 03:00:00,1210800,"Sabugal, Martim Rei",40.33918056,-7.03693333,25.2,6.4,0.0,5,2.2,7.0,99.0,,S
2026-01-21 03:00:00,1210803,Zebreira,39.86666667,-7.01666667,7.6,8.6,1.5,4,1.0,2.1,99.0,,SE
2026-01-21 03:00:00,1210806,"Proença-a-Nova, P.Moitas",39.73333333,-7.86666667,13.3,9.2,12.0,6,1.4,3.7,100.0,,SW
2026-01-21 03:00:00,1210812,Alvega,39.46666667,-8.05,10.4,11.4,,5,1.1,2.9,100.0,,S
2026-01-21 03:00:00,1210824,"Avis, Benavila",39.1,-7.86666667,11.9,10.6,0.0,5,1.3,3.3,99.0,,S
2026-01-21 03:00:00,1210826,Mora,38.94068,-8.16406,12.2,10.7,0.0,5,1.3,3.4,99.0,,S
2026-01-21 03:00:00,1210835,Elvas,38.8908,-7.13976111,13.3,9.3,0.0,6,0.6,3.7,99.0,,SW
2026-01-21 03:00:00,1210837,Estremoz,38.86666667,-7.51666667,10.4,9.3,0.0,5,0.0,2.9,100.0,,S
2026-01-21 03:00:00,1210840,"Reguengos, S. P. do Corval",38.484866,-7.4729166,13.7,8.7,0.0,5,0.3,3.8,99.0,,S
2026-01-21 03:00:00,1210846,Montemor-O-Novo,38.6451,-8.1991,11.9,10.5,,5,1.2,3.3,100.0,1015.4,S
2026-01-21 03:00:00,1210847,Viana do Alentejo,38.3319194,-8.04553888,15.5,9.7,0.0,5,,4.3,,,S
2026-01-21 03:00:00,1210848,"Portel, Oriola",38.31666667,-7.86666667,13.0,10.1,,5,1.7,3.6,94.0,,S
2026-01-21 03:00:00,1210851,Amareleja,38.2007,-7.2261,9.4,,0.0,5,0.0,2.6,,1015.6,S
2026-01-21 03:00:00,1210863,"Mértola, Vale Formoso",37.75,-7.55,7.2,9.4,0.0,4,0.0,2.0,92.0,,SE
2026-01-21 03:00:00,1210864,"Castro Verde, N.Corvo",37.57655833,-7.97211389,9.7,11.1,0.0,6,0.0,2.7,99.0,,SW
2026-01-21 03:00:00,1210865,"Alcoutim, Mart.Longo",37.43333333,-7.76666667,6.5,9.7,,5,0.0,1.8,95.0,1016.7,S
2026-01-21 03:00:00,1210866,Vila Real de S.António,37.1871055,-7.416325,,9.9,,0,0.0,,90.0,,
2026-01-21 03:00:00,1210867,Castro Marim (RN Sapal),37.21666667,-7.45,7.9,9.6,0.0,1,0.0,2.2,94.0,,N
2026-01-21 03:00:00,1210874,Albufeira,37.0935,-8.262,11.5,12.7,,6,0.0,3.2,85.0,,SW
2026-01-21 03:00:00,1210878,Portimão (Aeródromo),37.149167,-8.581389,1.4,8.8,0.0,3,0.1,0.4,96.0,1016.4,E
2026-01-21 03:00:00,1210881,"Olhão, EPPO",37.033,-7.821,4.0,11.8,0.0,7,2.5,1.1,95.0,1017.3,W
2026-01-21 03:00:00,1210883,Tavira,37.12166968,-7.62050375,7.6,9.4,,8,0.0,2.1,94.0,1018.1,NW
2026-01-21 03:00:00,1210907,Faja / Ilha das Flores,39.45328,-31.2647,5.8,17.1,,7,0.0,1.6,97.0,1022.7,W
2026-01-21 03:00:00,1210932,"S. Miguel, Nordeste",37.83256,-25.150108,24.5,16.7,,8,0.0,6.8,86.0,,NW
2026-01-21 03:00:00,1210956,"Madeira, Porto Moniz",32.867477,-17.171373,,16.6,0.0,0,0.0,,69.0,,
2026-01-21 03:00:00,1210960,"Madeira, S. Jorge, Santana",32.83446944,-16.906219,28.8,13.8,0.0,8,0.0,8.0,78.0,1022.6,NW
2026-01-21 03:00:00,1210965,"Madeira, Santana",32.808238,-16.8864166,,10.9,28.0,0,0.0,,86.0,,
2026-01-21 03:00:00,1210967,"Madeira, São Vicente",32.8001833,-17.044722,,12.0,4.3,0,0.0,,87.0,,
2026-01-21 03:00:00,1210972,"Madeira, Pico Alto",32.693491,-16.903955,15.8,10.3,0.0,1,,4.4,,,N
2026-01-21 03:00:00,1210973,"Madeira, Areeiro",32.71666667,-16.91666667,9.4,8.3,0.0,1,0.0,2.6,79.0,,N
2026-01-21 03:00:00,1210974,"Madeira, Pico do Areeiro",32.735107,-16.928271,,7.0,,0,0.0,,83.0,,
2026-01-21 03:00:00,1210975,"Madeira, Santo da Serra",32.7258972,-16.816822,,8.9,0.0,0,0.0,,87.0,,
2026-01-21 03:00:00,1210976,"Madeira, Monte",32.675833,-16.906944,3.2,9.9,0.0,1,0.0,0.9,82.0,,N
2026-01-21 03:00:00,1210977,"Madeira, Cancela",32.64500556,-16.86575,1.8,12.7,0.0,2,0.0,0.5,87.0,,NE
2026-01-21 03:00:00,1210978,"Madeira, S. Lourenço",32.747,-16.706,5.8,15.3,0.0,9,0.0,1.6,76.0,,N
2026-01-21 03:00:00,1210984,"Madeira, Quinta Grande",32.6629722,-17.01503611,,10.8,0.3,0,0.0,,70.0,,
2026-01-21 03:00:00,1210986,Ponta do Sol/Lugar de Baixo,32.681502,-17.104167,2.9,15.4,0.0,3,0.0,0.8,66.0,,E
2026-01-21 03:00:00,1210987,Prazeres (Calheta),32.757205,-17.201551,17.6,10.8,0.0,8,0.0,4.9,93.0,,NW
2026-01-21 03:00:00,1240546,"Porto, Serra do Pilar",41.1385194,-8.6025,19.4,11.6,0.0,5,1.8,5.4,100.0,1007.4,S
2026-01-21 03:00:00,1240566,Vila Real (Cidade),41.30898056,-7.740522,2.9,8.1,,8,0.2,0.8,100.0,,NW
2026-01-21 03:00:00,1240610,Viana do Castelo,41.695,-8.82916,,12.8,,0,1.2,,99.0,,
2026-01-21 03:00:00,1240675,Viseu (Cidade),40.662738,-7.9039694,,8.5,,0,0.4,,98.0,,
2026-01-21 03:00:00,1240903,"Porto, Massarelos",41.15257,-8.62598,,11.5,,0,,,100.0,,
2026-01-21 03:00:00,1240971,"Madeira, Funchal, Lido",32.63655,-16.935592,0.0,15.8,0.0,0,0.0,0.0,66.0,,
2026-01-21 03:00:00,1259201,Lousã/Trevim,40.09328521,-8.17904215,,4.9,,0,,,100.0,,
2026-01-21 03:00:00,1259202,Lousã/Candal,40.08090803,-8.20484533,,8.0,,0,,,72.0,,
2026-01-21 03:00:00,1259203,Seia/Aeródromo,40.45517056,-7.68614846,10.8,10.2,,6,0.1,3.0,79.0,1010.7,SW
2026-01-21 03:00:00,5210758,Alcochete / Campo Tiro,38.7627,-8.7825,12.6,11.8,,5,1.1,3.5,97.0,1013.1,S
2026-01-21 03:00:00,6210817,Ponte de Sôr / Aeródromo,39.21536,-8.05417,16.2,10.9,,5,,4.5,96.0,1013.7,S
2026-01-21 03:00:00,6210872,Loulé (CML),37.129946,-8.06523593,1.8,9.2,,3,0.0,0.5,,1017.0,E
2026-01-21 03:00:00,6210879,Portimão (Praia da Rocha),37.11670461,-8.52946314,14.8,14.1,,7,0.0,4.1,85.0,,W
2026-01-21 03:00:00,6211211,Monção - Guimil (CIM),42.042944,-8.421872,50.0,,0.4,5,,13.9,,1002.7,S
2026-01-21 03:00:00,6211213,Paredes De Coura - Vascões (CIM),41.913444,-8.492111,11.5,8.5,0.0,5,,3.2,99.0,1005.9,S
2026-01-21 03:00:00,6211216,Arcos De Valdevez - Heliporto (CIM),41.831,-8.44375,6.1,10.1,,5,3.0,1.7,99.0,1006.6,S
2026-01-21 03:00:00,6211218,Ponte De Lima - Anais (CIM),41.698083,-8.522444,19.1,10.0,0.5,4,,5.3,97.0,1006.4,SE
2026-01-21 03:00:00,6212121,Terras de Bouro/Barral (CIM),41.70225278,-8.31808611,10.8,10.2,,6,7.1,3.0,94.0,1006.0,SW
2026-01-21 03:00:00,6212122,Amares Caldelas (CIM),41.66796389,-8.37977778,9.0,11.3,,5,2.2,2.5,95.0,1007.6,S
2026-01-21 03:00:00,6212123,Vila Verde (CIM),41.64686111,-8.43398056,5.0,11.2,,5,,1.4,91.0,1007.0,S
2026-01-21 03:00:00,6212124,Braga (CIM),41.53568333,-8.42514722,22.7,10.8,,5,2.6,6.3,98.0,1007.9,S
2026-01-21 03:00:00,6212125,Barcelos (CIM),41.529375,-8.62705278,19.8,12.6,,5,3.2,5.5,96.0,1007.7,S
2026-01-21 03:00:00,6212126,Esposende (CIM),41.52645556,-8.77984444,38.5,12.6,,5,2.9,10.7,98.0,1006.9,S
2026-01-21 03:00:00,6213012,Carregal do Sal (CIM),40.46718056,-7.92626389,8.3,9.3,,5,,2.3,94.0,,S
2026-01-21 03:00:00,6213013,Castro Daire / Mézio (CIM),40.98086111,-7.88318889,34.6,6.0,,5,,9.6,100.0,,S
2026-01-21 03:00:00,6213014,Mangualde / Chãs de Tavares  (CIM),40.61096111,-7.60838889,16.2,7.3,,6,0.1,4.5,100.0,,SW
2026-01-21 03:00:00,6213016,Oliveira de Frades (CIM),40.716925,-8.20133889,24.5,7.8,,4,,6.8,96.0,,SE
2026-01-21 03:00:00,6213017,Penalva do Castelo (CIM),40.65706389,-7.69655278,5.4,8.5,,7,0.2,1.5,100.0,,W
2026-01-21 03:00:00,6213020,Satão (CIM),40.76072778,-7.72019722,10.8,6.9,,6,0.4,3.0,100.0,,SW
2026-01-21 03:00:00,6213022,Vila Nova de Paiva (CIM),40.85595,-7.72716389,20.9,6.3,,6,0.9,5.8,,,SW
2026-01-21 03:00:00,6213611,Arganil / Aeródromo (CIM),40.274578,-7.974399,14.8,10.6,,6,0.1,4.1,86.0,,SW
2026-01-21 03:00:00,6213612,Cantanhede / Fonte Dom Pedro (CIM),40.341894,-8.577613,19.1,10.8,,5,1.3,5.3,96.0,,S
2026-01-21 03:00:00,6213613,Coimbra / Mata de São Pedro (CIM),40.330787,-8.374887,9.7,9.1,,5,,2.7,100.0,,S
2026-01-21 03:00:00,6213614,Góis / Quinta da Ribeira (CIM),40.171642,-8.103238,14.4,,,7,,4.0,,,W
2026-01-21 03:00:00,6213615,Mealhada / Quinta do Vale (CIM),40.373343,-8.4388429,11.5,10.8,,5,0.4,3.2,99.0,,S
2026-01-21 03:00:00,6213616,Mortágua / Aeródromo (CIM),40.426239,-8.232142,11.2,10.3,,5,0.2,3.1,100.0,,S
2026-01-21 03:00:00,6213617,Penacova / Hombres (CIM),40.280921,-8.198685,15.1,,,6,0.2,4.2,91.0,,SW
2026-01-21 03:00:00,6213619,Vila Nova de Poiares (CIM),40.211411,-8.241995,6.5,11.3,,6,0.2,1.8,89.0,,SW
2026-01-21 03:00:00,6213620,Oliveira do Hospital (CIM),40.413306,-7.867972,11.9,9.6,,6,0.0,3.3,85.0,,SW
2026-01-21 03:00:00,6214119,Pedrógão Grande (CMPG),39.926573,-8.150912,16.6,9.3,,5,,4.6,100.0,1012.6,S
2026-01-21 03:00:00,6215302,"Lisboa, Carnide (CML)",38.7751,-9.1855,22.3,11.8,,5,1.9,6.2,98.0,1012.2,S
2026-01-21 03:00:00,6215360,Oeiras / Vila Fria (CMO),38.7239536,-9.2939255,22.7,12.1,0.0,5,5.9,6.3,100.0,1012.9,S
2026-01-21 03:00:00,7240919,"Lisboa, Amoreiras (LFCL)",38.7239,-9.1649,13.7,11.4,,6,2.8,3.8,100.0,1013.5,SW
2026-01-21 04:00:00,11217160,Santa Maria / Praia Formosa (DROTRH),36.9542,-25.0917,15.5,15.7,0.0,3,0.0,4.3,95.0,,E
2026-01-21 04:00:00,11217165,Santa Maria / Maia (DROTRH),36.9412,-25.0176,17.3,15.4,0.0,8,0.0,4.8,91.0,,NW
2026-01-21 04:00:00,11217217,São Miguel / Santana (DROTRH),37.8049,-25.5618,7.6,16.9,0.0,7,0.0,2.1,91.0,,W
2026-01-21 04:00:00,11217225,São Miguel / Sete Cidades (DROTRH),37.8679,-25.772,15.1,14.7,0.0,7,0.0,4.2,100.0,,W
2026-01-21 04:00:00,11217255,São Miguel / Lagoa das Furnas (DROTRH),37.7619,-25.3291,10.1,16.0,0.0,5,0.0,2.8,87.0,,S
2026-01-21 04:00:00,11217370,Terceira / Ribeira das Nove (DROTRH),38.754,-27.3245,7.2,12.6,0.0,6,0.0,2.0,100.0,,SW
2026-01-21 04:00:00,11217372,Terceira / Serra do Cume (DROTRH),38.7002,-27.1031,26.3,14.2,0.0,7,0.1,7.3,100.0,,W
2026-01-21 04:00:00,11217430,Graciosa / Serra das Fontes (DROTRH),39.0672,-28.0038,31.0,14.7,0.0,8,0.0,8.6,100.0,,NW
2026-01-21 04:00:00,11217510,São Jorge / Pico do Areeiro (DROTRH),38.6435,-28.0591,37.1,12.0,0.0,6,0.6,10.3,100.0,,SW
2026-01-21 04:00:00,11217645,Pico / Cabecinho (DROTRH),38.4338,-28.1141,10.4,14.2,0.0,7,0.0,2.9,99.0,,W
2026-01-21 04:00:00,11217710,Faial / Alto do Cabouco (DROTRH),38.587,-28.6992,,12.6,0.0,4,0.9,,99.0,,SE
2026-01-21 04:00:00,11217730,Faial / Cabeço Verde (DROTRH),38.5843,-28.7576,5.4,13.9,0.0,7,0.1,1.5,100.0,,W
2026-01-21 04:00:00,1200501,Flores (Aeródromo),39.45819,-31.1301,9.7,17.9,0.0,7,0.4,2.7,88.0,1021.6,W
2026-01-21 04:00:00,1200502,Corvo (Aeródromo),39.67389,-31.11362,28.8,16.9,952.4,7,0.0,8.0,95.0,1020.6,W
2026-01-21 04:00:00,1200504,Pico (Aeródromo),38.55219,-28.44137,17.6,16.9,0.0,6,0.0,4.9,92.0,1022.4,SW
2026-01-21 04:00:00,1200505,Horta / Aeroporto,38.5211,-28.7128,25.6,16.9,,7,0.0,7.1,91.0,1022.2,W
2026-01-21 04:00:00,1200506,Horta (Obs. Principe Alberto),38.540781,-28.63225,11.9,16.5,0.0,6,1.1,3.3,98.0,1023.1,SW
2026-01-21 04:00:00,1200510,São Jorge,38.66,-28.17,16.2,15.9,0.0,8,0.0,4.5,,1022.2,NW
2026-01-21 04:00:00,1200511,Angra do Heroísmo,38.6659435,-27.216567,23.0,15.9,0.0,7,0.3,6.4,96.0,1021.9,W
2026-01-21 04:00:00,1200512,P. Delgada (Aeródromo),37.74414,-25.6953048,25.6,16.1,0.0,7,0.0,7.1,94.0,1021.8,W
2026-01-21 04:00:00,1200515,Santa Maria (Aeródromo),36.967175,-25.1679,32.0,16.6,0.0,8,0.0,8.9,88.0,1023.1,NW
2026-01-21 04:00:00,1200521,Santa Catarina (Aeródromo),32.69688,-16.77612,,15.1,0.0,0,0.0,,68.0,1022.2,
2026-01-21 04:00:00,1200522,Funchal,32.64786,-16.888,4.0,15.1,0.0,1,0.0,1.1,65.0,1022.2,N
2026-01-21 04:00:00,1200524,Porto Santo,33.074029,-16.34868,24.1,15.7,0.0,7,0.0,6.7,74.0,1021.7,W
2026-01-21 04:00:00,1200531,Cabo Carvoeiro,39.38,-9.40737778,36.7,13.2,,5,2.2,10.2,100.0,1009.3,S
2026-01-21 04:00:00,1200533,Sagres,37.012835,-8.949089,28.4,13.6,,6,1.1,7.9,81.0,1015.5,SW
2026-01-21 04:00:00,1200535,Lisboa (Geofísico),38.71907778,-9.14972222,15.5,12.0,0.0,6,7.3,4.3,100.0,1012.0,SW
2026-01-21 04:00:00,1200541,Sines,37.954504,-8.838271,24.5,12.5,0.0,6,1.0,6.8,100.0,1013.9,SW
2026-01-21 04:00:00,1200545,"Porto, Pedras Rubras (Aeródromo)",41.233502,-8.681332,28.8,11.5,0.0,5,2.5,8.0,98.0,1006.5,S
2026-01-21 04:00:00,1200548,Coimbra (Aeródromo),40.15006944,-8.46669167,29.9,11.2,0.0,5,0.5,8.3,97.0,1009.4,S
2026-01-21 04:00:00,1200551,"Viana Castelo, Chafé",41.648875,-8.804606,14.0,12.3,0.0,5,3.7,3.9,100.0,1005.0,S
2026-01-21 04:00:00,1200554,Faro (Aeródromo),37.016579,-7.971953,18.7,14.1,0.0,7,0.2,5.2,82.0,1016.1,W
2026-01-21 04:00:00,1200558,Évora (C.Coordenação),38.53336389,-7.88338056,15.8,9.9,0.0,5,0.7,4.4,,1014.7,S
2026-01-21 04:00:00,1200559,Viseu (Aeródromo),40.72645,-7.887472,24.5,7.4,,5,0.8,6.8,99.0,1009.5,S
2026-01-21 04:00:00,1200560,Viseu (C.Coordenação),40.71492222,-7.89592222,22.7,7.1,,5,0.8,6.3,100.0,1010.2,S
2026-01-21 04:00:00,1200562,Beja,38.02493056,-7.867275,18.7,9.9,0.0,5,1.2,5.2,100.0,1014.7,S
2026-01-21 04:00:00,1200567,Vila Real,41.27418611,-7.7171,8.6,8.3,0.0,5,1.0,2.4,100.0,1008.4,S
2026-01-21 04:00:00,1200568,Penhas Douradas,40.41136667,-7.55865278,7.2,3.0,0.0,4,,2.0,100.0,,SE
2026-01-21 04:00:00,1200570,Castelo Branco,39.83339444,-7.46678889,14.4,9.2,0.0,5,0.4,4.0,100.0,1012.2,S
2026-01-21 04:00:00,1200571,Portalegre,39.29546944,-7.41996944,6.5,7.9,0.0,5,1.9,1.8,100.0,1014.4,S
2026-01-21 04:00:00,1200575,Bragança,41.80388889,-6.74283889,18.7,7.1,0.0,4,0.3,5.2,93.0,1009.6,SE
2026-01-21 04:00:00,1200576,Bragança (Aeródromo),41.85763611,-6.70796389,14.0,6.9,,5,0.5,3.9,99.0,1009.0,S
2026-01-21 04:00:00,1200843,Évora (Aeródromo),38.5296,-7.8916,15.8,9.8,,5,0.5,4.4,98.0,1014.3,S
2026-01-21 04:00:00,1210513,P. Delgada (Obs. A. Chaves),37.7464,-25.662283,7.9,16.2,0.6,9,0.0,2.2,100.0,,N
2026-01-21 04:00:00,1210517,Flores / Morro Alto,39.4633,-31.2207,47.2,12.5,,7,0.4,13.1,100.0,1018.7,W
2026-01-21 04:00:00,1210518,São Miguel - Pico Santos De Cima,37.819,-25.7512,38.2,11.7,,8,2.3,10.6,100.0,1021.5,NW
2026-01-21 04:00:00,1210520,Ilhas selvagens,30.140595,-15.869153,22.7,16.2,0.1,9,0.0,6.3,74.0,1023.2,N
2026-01-21 04:00:00,1210550,Coruche / Cruz Do Leão,39.07101,-8.4,13.3,10.6,,5,1.3,3.7,100.0,1012.6,S
2026-01-21 04:00:00,1210553,Loulé / Cavalos De Caldeirão,37.3042,-7.9534,29.2,8.7,,6,0.2,8.1,100.0,1016.3,SW
2026-01-21 04:00:00,1210577,"Odemira, S.Teotónio",37.54710833,-8.72899167,20.2,12.3,0.0,6,1.8,5.6,98.0,,SW
2026-01-21 04:00:00,1210580,"Lisboa, Relógio",38.7618,-9.1254,,11.4,,0,3.0,,97.0,1012.2,
2026-01-21 04:00:00,1210604,V.N.Cerveira (Aeródromo),41.96673056,-8.66676111,21.2,12.6,0.0,5,4.0,5.9,95.0,1004.0,S
2026-01-21 04:00:00,1210605,"Monção, Valinha",42.06669,-8.383347,29.5,13.0,0.0,5,0.1,8.2,87.0,,S
2026-01-21 04:00:00,1210606,"Lamas de Mouro, P.Ribeiro",42.03333333,-8.18333333,18.4,7.8,0.0,5,0.5,5.1,97.0,1005.0,S
2026-01-21 04:00:00,1210611,Montalegre,41.82276667,-7.78797778,14.0,6.6,0.0,6,3.4,3.9,99.0,,SW
2026-01-21 04:00:00,1210612,Vinhais,41.8434,-7.0034416,17.3,6.6,,5,0.3,4.8,100.0,,S
2026-01-21 04:00:00,1210615,Ponte de Lima,41.75013889,-8.56671389,9.4,12.5,0.0,5,3.7,2.6,95.0,,S
2026-01-21 04:00:00,1210616,Chaves (Aeródromo),41.72516667,-7.46540833,6.1,9.7,0.0,7,0.0,1.7,83.0,1006.8,W
2026-01-21 04:00:00,1210619,Cabril,41.71666667,-8.01666667,7.9,8.9,,7,4.2,2.2,99.0,,W
2026-01-21 04:00:00,1210622,"Braga, Merelim",41.56678056,-8.45003056,27.4,11.8,0.0,5,0.8,7.6,96.0,1006.0,S
2026-01-21 04:00:00,1210625,Guimarães,41.4289,-8.3178,,11.3,0.0,0,,,91.0,1006.6,
2026-01-21 04:00:00,1210630,Cabeceiras de Basto,41.53333333,-7.96666667,6.5,10.7,0.0,2,1.6,1.8,99.0,,NE
2026-01-21 04:00:00,1210632,Mirandela,41.51478611,-7.19083889,14.8,8.2,0.0,5,0.0,4.1,93.0,,S
2026-01-21 04:00:00,1210633,"Macedo Cavaleiros, Bagueixe",41.56666667,-6.78333333,11.5,6.9,,5,0.0,3.2,100.0,,S
2026-01-21 04:00:00,1210635,Miranda do Douro,41.51666667,-6.28333333,18.4,7.0,,6,0.0,5.1,99.0,,SW
2026-01-21 04:00:00,1210637,Mogadouro,41.33333333,-6.73333333,34.6,6.6,0.0,5,0.0,9.6,99.0,,S
2026-01-21 04:00:00,1210643,Paços Ferreira,41.27365,-8.38012,19.8,10.1,,5,1.1,5.5,98.0,,S
2026-01-21 04:00:00,1210644,Carrazêda de Ansiães,41.23333333,-7.28333333,11.9,7.4,0.0,5,0.0,3.3,88.0,,S
2026-01-21 04:00:00,1210654,Moncorvo,41.18333333,-7.01666667,24.1,9.0,0.0,5,0.0,6.7,81.0,1009.0,S
2026-01-21 04:00:00,1210655,"Pinhão, Santa Bárbara",41.172775,-7.5489722,3.2,8.3,,2,0.0,0.9,96.0,,NE
2026-01-21 04:00:00,1210657,Luzim,41.14585,-8.2490333,13.0,9.6,1.8,6,0.6,3.6,92.0,,SW
2026-01-21 04:00:00,1210663,Moimenta da Beira,40.98333333,-7.6,15.5,7.3,0.0,5,0.3,4.3,93.0,,S
2026-01-21 04:00:00,1210666,"Trancoso, Bandarra",40.78333333,-7.36666667,22.0,6.1,0.0,5,0.1,6.1,99.0,,S
2026-01-21 04:00:00,1210669,Arouca,40.93333333,-8.25,7.9,12.2,0.0,8,0.1,2.2,81.0,,NW
2026-01-21 04:00:00,1210671,"F. Castelo Rodrigo, V.Torpim",40.75,-6.88333333,28.1,7.5,0.0,5,0.0,7.8,96.0,,S
2026-01-21 04:00:00,1210683,Guarda,40.53333333,-7.26666667,24.8,5.0,2.4,5,0.1,6.9,100.0,,S
2026-01-21 04:00:00,1210685,Nelas,40.51666667,-7.85,11.5,8.7,0.0,6,0.3,3.2,96.0,,SW
2026-01-21 04:00:00,1210686,"Pampilhosa da Serra, Fajão",40.145653,-7.92704,60.1,6.0,,5,0.3,16.7,100.0,,S
2026-01-21 04:00:00,1210687,Covilhã (Aeródromo),40.264309,-7.482302,7.2,8.6,0.0,6,,2.0,99.0,,SW
2026-01-21 04:00:00,1210690,Aldeia Souto (Q. Lageosa),40.35425833,-7.38931111,5.8,8.5,0.0,5,0.4,1.6,97.0,,S
2026-01-21 04:00:00,1210697,Lousã (Aeródromo),40.143922,-8.244066,10.1,13.1,,6,0.0,2.8,82.0,,SW
2026-01-21 04:00:00,1210698,Fundão,40.14063611,-7.55362778,14.4,9.3,0.6,5,0.0,4.0,83.0,,S
2026-01-21 04:00:00,1210702,Aveiro (Universidade),40.63529722,-8.65958333,19.1,11.6,0.0,5,0.0,5.3,97.0,1008.4,S
2026-01-21 04:00:00,1210704,Dunas de Mira,40.445955,-8.76168055,10.4,11.8,0.0,5,1.6,2.9,97.0,,S
2026-01-21 04:00:00,1210705,Anadia,40.438852,-8.439996,8.3,11.4,0.0,5,1.0,2.3,94.0,,S
2026-01-21 04:00:00,1210707,"Coimbra, Bencanta",40.2134694,-8.45515277,10.1,12.2,0.3,5,0.8,2.8,100.0,,S
2026-01-21 04:00:00,1210713,"Figueira da Foz, Vila Verde",40.139764,-8.805945,24.8,11.8,0.0,5,1.4,6.9,,,S
2026-01-21 04:00:00,1210716,Ansião,39.9,-8.4,14.0,9.8,0.0,5,0.4,3.9,98.0,,S
2026-01-21 04:00:00,1210718,Leiria (Aeródromo),39.780553,-8.818166,13.7,11.7,0.6,4,0.9,3.8,96.0,1009.8,SE
2026-01-21 04:00:00,1210724,"Tomar, Valdonas",39.6,-8.36666667,14.4,11.6,109.6,5,0.8,4.0,97.0,,S
2026-01-21 04:00:00,1210726,Alcobaça,39.51666667,-8.96666667,9.4,12.4,0.0,5,1.4,2.6,90.0,,S
2026-01-21 04:00:00,1210729,Rio Maior,39.35,-8.93333333,9.7,11.6,19.6,5,3.3,2.7,98.0,,S
2026-01-21 04:00:00,1210734,"Santarém, Fonte Boa",39.201216,-8.736656,26.6,11.6,0.2,5,1.7,7.4,98.0,1011.5,S
2026-01-21 04:00:00,1210735,Chamusca / Chouto,39.27,-8.3508,15.5,11.1,,4,0.5,4.3,99.0,1012.2,SE
2026-01-21 04:00:00,1210739,"Torres Vedras, Dois Portos",39.04389444,-9.179,26.3,12.0,0.0,5,1.2,7.3,99.0,,S
2026-01-21 04:00:00,1210744,Coruche,38.94096667,-8.51073611,13.7,12.0,0.0,6,0.8,3.8,,,SW
2026-01-21 04:00:00,1210746,Santa Cruz (Aeródromo),39.12594166,-9.3790388,25.6,11.3,0.0,5,3.3,7.1,99.0,1010.3,S
2026-01-21 04:00:00,1210750,Cabo da Roca,38.78171,-9.4975361,44.3,12.5,0.0,5,2.7,12.3,100.0,,S
2026-01-21 04:00:00,1210752,Sintra/Tapada do Mouco,38.781669,-9.400398,6.1,9.8,,5,8.3,1.7,100.0,,S
2026-01-21 04:00:00,1210762,"Lisboa, Tapada da Ajuda",38.70956111,-9.182825,9.4,12.2,0.0,5,8.2,2.6,100.0,,S
2026-01-21 04:00:00,1210765,Cabo Raso,38.70900833,-9.48538333,30.6,13.8,,6,2.9,8.5,98.0,,SW
2026-01-21 04:00:00,1210766,"Barreiro, Lavradio",38.67448611,-9.04766111,11.9,12.9,0.0,5,4.1,3.3,95.0,,S
2026-01-21 04:00:00,1210767,Pegões,38.65079,-8.63503,12.2,11.8,0.0,6,2.8,3.4,100.0,,SW
2026-01-21 04:00:00,1210770,Setúbal,38.54846008,-8.89077058,9.0,12.6,0.0,5,1.7,2.5,91.0,,S
2026-01-21 04:00:00,1210773,"Almada, P.Rainha",38.617111,-9.212804,25.2,,0.0,5,3.2,7.0,,,S
2026-01-21 04:00:00,1210776,"Alcácer do Sal, Barrosinha",38.36666667,-8.48333333,9.0,11.5,0.0,5,1.1,2.5,97.0,,S
2026-01-21 04:00:00,1210783,Alvalade,37.946806,-8.394504,9.0,11.4,0.0,4,1.5,2.5,97.0,,SE
2026-01-21 04:00:00,1210785,Ourique / Santana Da Serra,37.5025,-8.3019,14.8,10.9,0.0,4,0.0,4.1,93.0,1015.4,SE
2026-01-21 04:00:00,1210789,Aljezur,37.31675278,-8.80001667,6.5,13.0,1.0,6,1.9,1.8,96.0,,SW
2026-01-21 04:00:00,1210790,Fóia,37.3143,-8.595733,34.6,6.8,0.2,6,1.1,9.6,,,SW
2026-01-21 04:00:00,1210800,"Sabugal, Martim Rei",40.33918056,-7.03693333,25.2,6.4,0.0,5,1.7,7.0,99.0,,S
2026-01-21 04:00:00,1210803,Zebreira,39.86666667,-7.01666667,9.0,8.6,0.0,4,1.0,2.5,99.0,,SE
2026-01-21 04:00:00,1210806,"Proença-a-Nova, P.Moitas",39.73333333,-7.86666667,17.6,9.1,12.0,6,1.0,4.9,100.0,,SW
2026-01-21 04:00:00,1210812,Alvega,39.46666667,-8.05,9.7,11.4,,5,0.9,2.7,100.0,,S
2026-01-21 04:00:00,1210824,"Avis, Benavila",39.1,-7.86666667,13.7,10.5,0.0,5,0.7,3.8,99.0,,S
2026-01-21 04:00:00,1210826,Mora,38.94068,-8.16406,13.3,10.9,0.0,5,0.9,3.7,99.0,,S
2026-01-21 04:00:00,1210835,Elvas,38.8908,-7.13976111,15.1,9.2,0.0,6,1.1,4.2,100.0,,SW
2026-01-21 04:00:00,1210837,Estremoz,38.86666667,-7.51666667,12.6,9.2,0.0,5,0.0,3.5,100.0,,S
2026-01-21 04:00:00,1210840,"Reguengos, S. P. do Corval",38.484866,-7.4729166,17.3,8.6,0.0,5,1.3,4.8,100.0,,S
2026-01-21 04:00:00,1210846,Montemor-O-Novo,38.6451,-8.1991,12.6,10.6,,5,1.1,3.5,100.0,1014.6,S
2026-01-21 04:00:00,1210847,Viana do Alentejo,38.3319194,-8.04553888,17.6,10.0,0.0,5,,4.9,,,S
2026-01-21 04:00:00,1210848,"Portel, Oriola",38.31666667,-7.86666667,17.3,10.2,,5,1.2,4.8,96.0,,S
2026-01-21 04:00:00,1210851,Amareleja,38.2007,-7.2261,10.8,,0.0,5,0.1,3.0,,1015.2,S
2026-01-21 04:00:00,1210863,"Mértola, Vale Formoso",37.75,-7.55,6.5,9.8,0.0,4,0.4,1.8,93.0,,SE
2026-01-21 04:00:00,1210864,"Castro Verde, N.Corvo",37.57655833,-7.97211389,9.0,11.2,0.0,6,0.6,2.5,99.0,,SW
2026-01-21 04:00:00,1210865,"Alcoutim, Mart.Longo",37.43333333,-7.76666667,4.0,10.3,,5,0.1,1.1,92.0,1016.1,S
2026-01-21 04:00:00,1210866,Vila Real de S.António,37.1871055,-7.416325,,10.3,,0,0.0,,90.0,,
2026-01-21 04:00:00,1210867,Castro Marim (RN Sapal),37.21666667,-7.45,7.9,10.6,0.0,7,0.1,2.2,94.0,,W
2026-01-21 04:00:00,1210874,Albufeira,37.0935,-8.262,13.3,12.7,,6,0.3,3.7,87.0,,SW
2026-01-21 04:00:00,1210878,Portimão (Aeródromo),37.149167,-8.581389,1.8,9.4,0.0,8,0.4,0.5,97.0,1015.8,NW
2026-01-21 04:00:00,1210881,"Olhão, EPPO",37.033,-7.821,6.5,11.7,0.0,8,0.1,1.8,95.0,1016.7,NW
2026-01-21 04:00:00,1210883,Tavira,37.12166968,-7.62050375,6.1,10.9,,9,0.1,1.7,94.0,1017.5,N
2026-01-21 04:00:00,1210907,Faja / Ilha das Flores,39.45328,-31.2647,,17.0,,0,,,98.0,1022.6,
2026-01-21 04:00:00,1210932,"S. Miguel, Nordeste",37.83256,-25.150108,29.9,16.8,,8,0.0,8.3,87.0,,NW
2026-01-21 04:00:00,1210956,"Madeira, Porto Moniz",32.867477,-17.171373,,16.8,0.0,0,0.0,,70.0,,
2026-01-21 04:00:00,1210960,"Madeira, S. Jorge, Santana",32.83446944,-16.906219,21.2,13.9,2.1,7,0.0,5.9,79.0,1022.2,W
2026-01-21 04:00:00,1210965,"Madeira, Santana",32.808238,-16.8864166,,11.1,26.6,0,0.0,,88.0,,
2026-01-21 04:00:00,1210967,"Madeira, São Vicente",32.8001833,-17.044722,,12.1,3.7,0,0.0,,87.0,,
2026-01-21 04:00:00,1210972,"Madeira, Pico Alto",32.693491,-16.903955,1.4,11.0,0.0,9,,0.4,,,N
2026-01-21 04:00:00,1210973,"Madeira, Areeiro",32.71666667,-16.91666667,9.0,8.7,0.0,1,0.0,2.5,79.0,,N
2026-01-21 04:00:00,1210974,"Madeira, Pico do Areeiro",32.735107,-16.928271,,7.4,,0,0.0,,84.0,,
2026-01-21 04:00:00,1210975,"Madeira, Santo da Serra",32.7258972,-16.816822,,8.9,0.0,0,0.0,,91.0,,
2026-01-21 04:00:00,1210976,"Madeira, Monte",32.675833,-16.906944,4.7,10.1,0.1,1,0.0,1.3,82.0,,N
2026-01-21 04:00:00,1210977,"Madeira, Cancela",32.64500556,-16.86575,2.5,12.6,0.0,3,0.0,0.7,87.0,,E
2026-01-21 04:00:00,1210978,"Madeira, S. Lourenço",32.747,-16.706,12.2,15.3,0.0,9,0.0,3.4,76.0,,N
2026-01-21 04:00:00,1210984,"Madeira, Quinta Grande",32.6629722,-17.01503611,,11.5,0.2,0,0.0,,72.0,,
2026-01-21 04:00:00,1210986,Ponta do Sol/Lugar de Baixo,32.681502,-17.104167,6.8,15.4,0.0,4,0.0,1.9,69.0,,SE
2026-01-21 04:00:00,1210987,Prazeres (Calheta),32.757205,-17.201551,20.2,10.9,0.0,8,0.0,5.6,94.0,,NW
2026-01-21 04:00:00,1240546,"Porto, Serra do Pilar",41.1385194,-8.6025,22.3,11.4,0.0,5,1.5,6.2,100.0,1006.5,S
2026-01-21 04:00:00,1240566,Vila Real (Cidade),41.30898056,-7.740522,2.5,8.1,,5,0.9,0.7,100.0,,S
2026-01-21 04:00:00,1240610,Viana do Castelo,41.695,-8.82916,,12.8,,0,3.3,,99.0,,
2026-01-21 04:00:00,1240675,Viseu (Cidade),40.662738,-7.9039694,,8.4,,0,1.3,,98.0,,
2026-01-21 04:00:00,1240903,"Porto, Massarelos",41.15257,-8.62598,,11.4,,0,,,100.0,,
2026-01-21 04:00:00,1240971,"Madeira, Funchal, Lido",32.63655,-16.935592,0.0,15.7,0.0,0,0.0,0.0,66.0,,
2026-01-21 04:00:00,1259202,Lousã/Candal,40.08090803,-8.20484533,,8.0,,0,,,72.0,,
2026-01-21 04:00:00,1259203,Seia/Aeródromo,40.45517056,-7.68614846,12.6,11.4,,6,0.0,3.5,73.0,1009.4,SW
2026-01-21 04:00:00,5210758,Alcochete / Campo Tiro,38.7627,-8.7825,19.1,11.6,,5,1.5,5.3,98.0,1012.2,S
2026-01-21 04:00:00,6210817,Ponte de Sôr / Aeródromo,39.21536,-8.05417,18.7,11.0,,5,,5.2,96.0,1012.8,S
2026-01-21 04:00:00,6210872,Loulé (CML),37.129946,-8.06523593,1.4,9.0,,3,0.2,0.4,,1016.5,E
2026-01-21 04:00:00,6210879,Portimão (Praia da Rocha),37.11670461,-8.52946314,15.5,13.5,,7,0.8,4.3,87.0,,W
2026-01-21 04:00:00,6211211,Monção - Guimil (CIM),42.042944,-8.421872,46.4,,0.4,5,,12.9,,1002.5,S
2026-01-21 04:00:00,6211213,Paredes De Coura - Vascões (CIM),41.913444,-8.492111,7.6,8.6,0.1,5,,2.1,99.0,1005.1,S
2026-01-21 04:00:00,6211216,Arcos De Valdevez - Heliporto (CIM),41.831,-8.44375,7.2,10.1,,6,2.0,2.0,99.0,1005.9,SW
2026-01-21 04:00:00,6211218,Ponte De Lima - Anais (CIM),41.698083,-8.522444,15.1,10.0,0.4,4,,4.2,97.0,1005.8,SE
2026-01-21 04:00:00,6212121,Terras de Bouro/Barral (CIM),41.70225278,-8.31808611,10.8,10.3,,6,6.5,3.0,93.0,1005.0,SW
2026-01-21 04:00:00,6212122,Amares Caldelas (CIM),41.66796389,-8.37977778,7.9,11.3,,5,1.4,2.2,95.0,1006.7,S
2026-01-21 04:00:00,6212123,Vila Verde (CIM),41.64686111,-8.43398056,7.6,11.2,,5,,2.1,91.0,1006.0,S
2026-01-21 04:00:00,6212124,Braga (CIM),41.53568333,-8.42514722,25.6,10.8,,5,1.9,7.1,98.0,1006.9,S
2026-01-21 04:00:00,6212125,Barcelos (CIM),41.529375,-8.62705278,23.0,12.4,,5,1.8,6.4,97.0,1006.8,S
2026-01-21 04:00:00,6212126,Esposende (CIM),41.52645556,-8.77984444,39.2,12.6,,5,3.9,10.9,98.0,1006.0,S
2026-01-21 04:00:00,6213012,Carregal do Sal (CIM),40.46718056,-7.92626389,12.6,9.5,,5,,3.5,90.0,,S
2026-01-21 04:00:00,6213013,Castro Daire / Mézio (CIM),40.98086111,-7.88318889,25.9,5.9,,5,,7.2,100.0,,S
2026-01-21 04:00:00,6213014,Mangualde / Chãs de Tavares  (CIM),40.61096111,-7.60838889,24.5,7.6,,6,0.0,6.8,96.0,,SW
2026-01-21 04:00:00,6213016,Oliveira de Frades (CIM),40.716925,-8.20133889,31.7,8.0,,4,,8.8,98.0,,SE
2026-01-21 04:00:00,6213017,Penalva do Castelo (CIM),40.65706389,-7.69655278,5.0,8.0,,7,0.1,1.4,100.0,,W
2026-01-21 04:00:00,6213020,Satão (CIM),40.76072778,-7.72019722,11.2,6.7,,5,0.6,3.1,100.0,,S
2026-01-21 04:00:00,6213022,Vila Nova de Paiva (CIM),40.85595,-7.72716389,18.0,6.0,,5,1.5,5.0,,,S
2026-01-21 04:00:00,6213611,Arganil / Aeródromo (CIM),40.274578,-7.974399,11.9,11.3,,6,0.0,3.3,83.0,,SW
2026-01-21 04:00:00,6213612,Cantanhede / Fonte Dom Pedro (CIM),40.341894,-8.577613,19.4,10.7,,5,1.8,5.4,96.0,,S
2026-01-21 04:00:00,6213613,Coimbra / Mata de São Pedro (CIM),40.330787,-8.374887,10.8,9.2,,5,,3.0,100.0,,S
2026-01-21 04:00:00,6213614,Góis / Quinta da Ribeira (CIM),40.171642,-8.103238,12.2,,,6,,3.4,,,SW
2026-01-21 04:00:00,6213615,Mealhada / Quinta do Vale (CIM),40.373343,-8.4388429,14.4,10.8,,5,1.8,4.0,99.0,,S
2026-01-21 04:00:00,6213616,Mortágua / Aeródromo (CIM),40.426239,-8.232142,6.8,10.3,,2,1.5,1.9,100.0,,NE
2026-01-21 04:00:00,6213617,Penacova / Hombres (CIM),40.280921,-8.198685,11.2,,,6,0.6,3.1,92.0,,SW
2026-01-21 04:00:00,6213619,Vila Nova de Poiares (CIM),40.211411,-8.241995,6.5,12.2,,6,0.1,1.8,85.0,,SW
2026-01-21 04:00:00,6213620,Oliveira do Hospital (CIM),40.413306,-7.867972,11.5,10.1,,6,0.0,3.2,80.0,,SW
2026-01-21 04:00:00,6214119,Pedrógão Grande (CMPG),39.926573,-8.150912,17.6,9.2,,5,,4.9,100.0,1011.8,S
2026-01-21 04:00:00,6215302,"Lisboa, Carnide (CML)",38.7751,-9.1855,17.3,11.7,,5,3.1,4.8,99.0,1011.3,S
2026-01-21 04:00:00,6215360,Oeiras / Vila Fria (CMO),38.7239536,-9.2939255,14.4,12.2,0.0,5,12.7,4.0,100.0,1012.0,S
2026-01-21 04:00:00,7240919,"Lisboa, Amoreiras (LFCL)",38.7239,-9.1649,11.2,11.3,,6,7.1,3.1,100.0,1012.7,SW
2026-01-21 05:00:00,11217160,Santa Maria / Praia Formosa (DROTRH),36.9542,-25.0917,21.2,15.8,0.0,2,0.0,5.9,97.0,,NE
2026-01-21 05:00:00,11217165,Santa Maria / Maia (DROTRH),36.9412,-25.0176,19.1,15.6,0.0,8,0.0,5.3,93.0,,NW
2026-01-21 05:00:00,11217217,São Miguel / Santana (DROTRH),37.8049,-25.5618,5.8,17.1,0.0,6,0.0,1.6,90.0,,SW
2026-01-21 05:00:00,11217225,São Miguel / Sete Cidades (DROTRH),37.8679,-25.772,16.9,14.8,0.0,7,0.0,4.7,100.0,,W
2026-01-21 05:00:00,11217255,São Miguel / Lagoa das Furnas (DROTRH),37.7619,-25.3291,10.8,16.2,0.0,5,0.0,3.0,86.0,,S
2026-01-21 05:00:00,11217370,Terceira / Ribeira das Nove (DROTRH),38.754,-27.3245,8.3,12.7,0.0,6,0.1,2.3,100.0,,SW
2026-01-21 05:00:00,11217372,Terceira / Serra do Cume (DROTRH),38.7002,-27.1031,29.5,14.2,0.0,8,0.1,8.2,100.0,,NW
2026-01-21 05:00:00,11217430,Graciosa / Serra das Fontes (DROTRH),39.0672,-28.0038,32.0,14.8,0.0,8,0.0,8.9,100.0,,NW
2026-01-21 05:00:00,11217510,São Jorge / Pico do Areeiro (DROTRH),38.6435,-28.0591,40.3,12.2,0.0,6,0.6,11.2,100.0,,SW
2026-01-21 05:00:00,11217645,Pico / Cabecinho (DROTRH),38.4338,-28.1141,13.0,14.7,0.0,8,0.0,3.6,99.0,,NW
2026-01-21 05:00:00,11217710,Faial / Alto do Cabouco (DROTRH),38.587,-28.6992,,12.8,0.0,6,0.2,,99.0,,SW
2026-01-21 05:00:00,11217730,Faial / Cabeço Verde (DROTRH),38.5843,-28.7576,10.8,14.1,0.0,8,0.1,3.0,100.0,,NW
2026-01-21 05:00:00,1200501,Flores (Aeródromo),39.45819,-31.1301,23.4,17.9,0.0,7,0.3,6.5,89.0,1021.7,W
2026-01-21 05:00:00,1200502,Corvo (Aeródromo),39.67389,-31.11362,35.6,16.8,372.4,7,0.1,9.9,97.0,1020.7,W
2026-01-21 05:00:00,1200504,Pico (Aeródromo),38.55219,-28.44137,19.1,16.9,0.0,6,0.0,5.3,93.0,1022.2,SW
2026-01-21 05:00:00,1200505,Horta / Aeroporto,38.5211,-28.7128,22.7,17.0,,7,0.0,6.3,92.0,1021.9,W
2026-01-21 05:00:00,1200506,Horta (Obs. Principe Alberto),38.540781,-28.63225,13.7,16.6,0.0,6,0.2,3.8,99.0,1022.9,SW
2026-01-21 05:00:00,1200510,São Jorge,38.66,-28.17,19.1,16.0,0.0,7,0.0,5.3,,1021.7,W
2026-01-21 05:00:00,1200511,Angra do Heroísmo,38.6659435,-27.216567,18.4,15.9,0.0,7,0.0,5.1,98.0,1021.4,W
2026-01-21 05:00:00,1200512,P. Delgada (Aeródromo),37.74414,-25.6953048,27.7,16.1,0.0,8,0.0,7.7,95.0,1021.8,NW
2026-01-21 05:00:00,1200515,Santa Maria (Aeródromo),36.967175,-25.1679,38.5,16.6,0.0,8,0.0,10.7,91.0,1022.9,NW
2026-01-21 05:00:00,1200521,Santa Catarina (Aeródromo),32.69688,-16.77612,,14.6,0.0,0,0.0,,68.0,1021.9,
2026-01-21 05:00:00,1200522,Funchal,32.64786,-16.888,3.2,14.9,0.0,2,0.0,0.9,64.0,1021.9,NE
2026-01-21 05:00:00,1200524,Porto Santo,33.074029,-16.34868,24.5,16.1,0.0,7,0.0,6.8,75.0,1021.5,W
2026-01-21 05:00:00,1200531,Cabo Carvoeiro,39.38,-9.40737778,24.8,13.5,,6,2.2,6.9,100.0,1008.7,SW
2026-01-21 05:00:00,1200533,Sagres,37.012835,-8.949089,24.1,13.1,,6,1.4,6.7,84.0,1014.9,SW
