obs_datetime,station_id,station_name,lat,lon,intensidadeVentoKM,temperatura,radiacao,idDireccVento,precAcumulada,intensidadeVento,humidade,pressao,direccVento_txt
2026-01-22 00:00:00,11217160,Santa Maria / Praia Formosa (DROTRH),36.9542,-25.0917,11.2,15.7,2.1,2,0.0,3.1,100.0,,NE
2026-01-22 00:00:00,11217165,Santa Maria / Maia (DROTRH),36.9412,-25.0176,17.6,15.7,6.4,8,0.0,4.9,97.0,,NW
2026-01-22 00:00:00,11217225,São Miguel / Sete Cidades (DROTRH),37.8679,-25.772,16.9,14.8,0.4,6,0.0,4.7,100.0,,SW
2026-01-22 00:00:00,11217255,São Miguel / Lagoa das Furnas (DROTRH),37.7619,-25.3291,7.6,16.2,0.0,5,0.0,2.1,78.0,,S
2026-01-22 00:00:00,11217370,Terceira / Ribeira das Nove (DROTRH),38.754,-27.3245,13.0,12.6,0.0,7,0.0,3.6,100.0,,W
2026-01-22 00:00:00,11217372,Terceira / Serra do Cume (DROTRH),38.7002,-27.1031,42.1,14.0,0.0,7,0.1,11.7,100.0,,W
2026-01-22 00:00:00,11217430,Graciosa / Serra das Fontes (DROTRH),39.0672,-28.0038,33.8,14.4,0.0,8,0.0,9.4,100.0,,NW
2026-01-22 00:00:00,11217510,São Jorge / Pico do Areeiro (DROTRH),38.6435,-28.0591,47.9,12.0,0.0,6,0.2,13.3,100.0,,SW
2026-01-22 00:00:00,11217645,Pico / Cabecinho (DROTRH),38.4338,-28.1141,18.0,14.8,0.0,7,0.0,5.0,86.0,,W
2026-01-22 00:00:00,11217710,Faial / Alto do Cabouco (DROTRH),38.587,-28.6992,,12.5,0.0,4,0.3,,99.0,,SE
2026-01-22 00:00:00,11217730,Faial / Cabeço Verde (DROTRH),38.5843,-28.7576,11.9,14.0,0.0,6,0.0,3.3,100.0,,SW
2026-01-22 00:00:00,1200501,Flores (Aeródromo),39.45819,-31.1301,45.4,18.3,0.0,7,0.1,12.6,85.0,1015.3,W
2026-01-22 00:00:00,1200502,Corvo (Aeródromo),39.67389,-31.11362,43.6,17.6,644.5,7,0.0,12.1,90.0,1014.3,W
2026-01-22 00:00:00,1200504,Pico (Aeródromo),38.55219,-28.44137,25.2,17.1,0.0,7,0.0,7.0,91.0,1018.2,W
2026-01-22 00:00:00,1200505,Horta / Aeroporto,38.5211,-28.7128,32.8,17.2,,7,0.0,9.1,90.0,1018.3,W
2026-01-22 00:00:00,1200506,Horta (Obs. Principe Alberto),38.540781,-28.63225,32.8,16.9,0.0,6,0.0,9.1,97.0,1018.7,SW
2026-01-22 00:00:00,1200510,São Jorge,38.66,-28.17,,16.5,,0,,,,1018.4,
2026-01-22 00:00:00,1200511,Angra do Heroísmo,38.6659435,-27.216567,24.1,16.6,0.0,7,0.0,6.7,91.0,1017.7,W
2026-01-22 00:00:00,1200512,P. Delgada (Aeródromo),37.74414,-25.6953048,33.1,16.1,0.3,7,0.0,9.2,97.0,1018.9,W
2026-01-22 00:00:00,1200515,Santa Maria (Aeródromo),36.967175,-25.1679,31.7,16.4,0.1,8,0.0,8.8,98.0,1020.8,NW
2026-01-22 00:00:00,1200521,Santa Catarina (Aeródromo),32.69688,-16.77612,,17.7,0.0,0,0.0,,79.0,1019.6,
2026-01-22 00:00:00,1200522,Funchal,32.64786,-16.888,4.0,16.9,0.0,1,0.0,1.1,77.0,1019.9,N
2026-01-22 00:00:00,1200524,Porto Santo,33.074029,-16.34868,23.0,16.6,0.2,8,0.0,6.4,93.0,1019.5,NW
2026-01-22 00:00:00,1200531,Cabo Carvoeiro,39.38,-9.40737778,18.4,13.0,,8,0.0,5.1,76.0,1008.0,NW
2026-01-22 00:00:00,1200533,Sagres,37.012835,-8.949089,32.0,13.9,,8,0.0,8.9,75.0,1010.0,NW
2026-01-22 00:00:00,1200535,Lisboa (Geofísico),38.71907778,-9.14972222,7.6,11.9,0.0,6,0.0,2.1,92.0,1008.4,SW
2026-01-22 00:00:00,1200541,Sines,37.954504,-8.838271,31.3,12.5,0.0,8,0.1,8.7,94.0,1009.2,NW
2026-01-22 00:00:00,1200545,"Porto, Pedras Rubras (Aeródromo)",41.233502,-8.681332,24.1,11.1,0.0,8,0.0,6.7,74.0,1004.8,NW
2026-01-22 00:00:00,1200548,Coimbra (Aeródromo),40.15006944,-8.46669167,15.8,9.3,0.0,8,0.1,4.4,88.0,1006.8,NW
2026-01-22 00:00:00,1200551,"Viana Castelo, Chafé",41.648875,-8.804606,12.6,9.8,0.0,8,1.1,3.5,94.0,1004.1,NW
2026-01-22 00:00:00,1200554,Faro (Aeródromo),37.016579,-7.971953,23.0,13.6,0.0,7,0.0,6.4,79.0,1008.8,W
2026-01-22 00:00:00,1200558,Évora (C.Coordenação),38.53336389,-7.88338056,22.0,10.2,0.0,8,0.0,6.1,80.0,1007.8,NW
2026-01-22 00:00:00,1200559,Viseu (Aeródromo),40.72645,-7.887472,25.9,5.7,,8,0.8,7.2,84.0,1005.2,NW
2026-01-22 00:00:00,1200560,Viseu (C.Coordenação),40.71492222,-7.89592222,22.3,5.0,,8,0.6,6.2,93.0,1005.8,NW
2026-01-22 00:00:00,1200562,Beja,38.02493056,-7.867275,16.6,10.7,0.0,8,0.1,4.6,90.0,1007.4,NW
2026-01-22 00:00:00,1200567,Vila Real,41.27418611,-7.7171,8.3,5.9,0.0,7,0.4,2.3,90.0,1004.0,W
2026-01-22 00:00:00,1200568,Penhas Douradas,40.41136667,-7.55865278,34.6,0.2,0.0,8,,9.6,100.0,,NW
2026-01-22 00:00:00,1200570,Castelo Branco,39.83339444,-7.46678889,14.4,7.7,0.0,7,0.0,4.0,100.0,1004.6,W
2026-01-22 00:00:00,1200571,Portalegre,39.29546944,-7.41996944,20.2,5.9,0.0,8,0.0,5.6,100.0,1006.9,NW
2026-01-22 00:00:00,1200575,Bragança,41.80388889,-6.74283889,23.0,4.5,0.0,7,0.0,6.4,85.0,1001.7,W
2026-01-22 00:00:00,1200576,Bragança (Aeródromo),41.85763611,-6.70796389,14.4,4.7,,8,0.0,4.0,86.0,1001.2,NW
2026-01-22 00:00:00,1200843,Évora (Aeródromo),38.5296,-7.8916,20.5,10.1,,7,0.0,5.7,88.0,1007.7,W
2026-01-22 00:00:00,1210513,P. Delgada (Obs. A. Chaves),37.7464,-25.662283,4.3,16.3,3.5,5,0.0,1.2,,,S
2026-01-22 00:00:00,1210517,Flores / Morro Alto,39.4633,-31.2207,82.8,12.3,,6,0.4,23.0,100.0,1010.5,SW
2026-01-22 00:00:00,1210518,São Miguel - Pico Santos De Cima,37.819,-25.7512,55.8,12.0,,7,0.3,15.5,100.0,1018.2,W
2026-01-22 00:00:00,1210520,Ilhas selvagens,30.140595,-15.869153,29.5,17.2,3.0,8,0.0,8.2,88.0,1021.1,NW
2026-01-22 00:00:00,1210550,Coruche / Cruz Do Leão,39.07101,-8.4,7.6,9.5,,8,0.2,2.1,91.0,1007.7,NW
2026-01-22 00:00:00,1210553,Loulé / Cavalos De Caldeirão,37.3042,-7.9534,23.4,8.7,,7,0.0,6.5,97.0,1009.5,W
2026-01-22 00:00:00,1210577,"Odemira, S.Teotónio",37.54710833,-8.72899167,26.6,12.9,0.0,7,0.0,7.4,84.0,,W
2026-01-22 00:00:00,1210604,V.N.Cerveira (Aeródromo),41.96673056,-8.66676111,13.3,7.5,0.0,4,1.1,3.7,97.0,1003.9,SE
2026-01-22 00:00:00,1210605,"Monção, Valinha",42.06669,-8.383347,11.5,8.9,0.0,6,0.5,3.2,90.0,,SW
2026-01-22 00:00:00,1210606,"Lamas de Mouro, P.Ribeiro",42.03333333,-8.18333333,22.0,3.4,0.0,7,2.2,6.1,100.0,1004.4,W
2026-01-22 00:00:00,1210611,Montalegre,41.82276667,-7.78797778,17.3,2.5,0.0,7,0.4,4.8,99.0,,W
2026-01-22 00:00:00,1210612,Vinhais,41.8434,-7.0034416,14.4,3.8,,7,0.1,4.0,100.0,,W
2026-01-22 00:00:00,1210615,Ponte de Lima,41.75013889,-8.56671389,7.9,9.1,0.0,5,0.2,2.2,88.0,,S
2026-01-22 00:00:00,1210616,Chaves (Aeródromo),41.72516667,-7.46540833,4.0,6.6,0.0,5,0.0,1.1,82.0,1002.6,S
2026-01-22 00:00:00,1210619,Cabril,41.71666667,-8.01666667,13.0,4.8,,7,1.6,3.6,99.0,,W
2026-01-22 00:00:00,1210622,"Braga, Merelim",41.56678056,-8.45003056,6.1,8.6,0.4,1,0.7,1.7,94.0,1004.5,N
2026-01-22 00:00:00,1210625,Guimarães,41.4289,-8.3178,,8.0,0.0,0,,,88.0,1004.5,
2026-01-22 00:00:00,1210630,Cabeceiras de Basto,41.53333333,-7.96666667,4.3,8.1,0.0,7,0.4,1.2,88.0,,W
2026-01-22 00:00:00,1210632,Mirandela,41.51478611,-7.19083889,7.6,7.8,0.0,5,0.0,2.1,75.0,,S
2026-01-22 00:00:00,1210633,"Macedo Cavaleiros, Bagueixe",41.56666667,-6.78333333,19.1,3.9,,7,0.0,5.3,95.0,,W
2026-01-22 00:00:00,1210635,Miranda do Douro,41.51666667,-6.28333333,20.2,5.4,,7,0.0,5.6,89.0,,W
2026-01-22 00:00:00,1210637,Mogadouro,41.33333333,-6.73333333,18.0,4.2,0.0,6,0.0,5.0,99.0,,SW
2026-01-22 00:00:00,1210643,Paços Ferreira,41.27365,-8.38012,7.6,7.4,,7,0.0,2.1,94.0,,W
2026-01-22 00:00:00,1210644,Carrazêda de Ansiães,41.23333333,-7.28333333,3.6,4.5,0.0,7,0.0,1.0,86.0,,W
2026-01-22 00:00:00,1210654,Moncorvo,41.18333333,-7.01666667,18.4,6.7,0.0,7,0.0,5.1,75.0,1003.4,W
2026-01-22 00:00:00,1210655,"Pinhão, Santa Bárbara",41.172775,-7.5489722,19.4,9.1,,8,0.7,5.4,76.0,,NW
2026-01-22 00:00:00,1210657,Luzim,41.14585,-8.2490333,4.0,6.7,1.1,6,0.4,1.1,89.0,,SW
2026-01-22 00:00:00,1210663,Moimenta da Beira,40.98333333,-7.6,23.8,4.3,0.0,8,0.6,6.6,94.0,,NW
2026-01-22 00:00:00,1210666,"Trancoso, Bandarra",40.78333333,-7.36666667,28.4,4.0,0.0,7,0.2,7.9,96.0,,W
2026-01-22 00:00:00,1210669,Arouca,40.93333333,-8.25,11.9,8.5,0.0,6,0.5,3.3,88.0,,SW
2026-01-22 00:00:00,1210671,"F. Castelo Rodrigo, V.Torpim",40.75,-6.88333333,20.2,4.2,0.0,7,0.0,5.6,95.0,,W
2026-01-22 00:00:00,1210683,Guarda,40.53333333,-7.26666667,36.7,2.9,5.0,7,0.0,10.2,93.0,,W
2026-01-22 00:00:00,1210685,Nelas,40.51666667,-7.85,9.0,6.6,0.0,7,1.1,2.5,94.0,,W
2026-01-22 00:00:00,1210686,"Pampilhosa da Serra, Fajão",40.145653,-7.92704,29.5,3.8,,8,2.5,8.2,100.0,,NW
2026-01-22 00:00:00,1210687,Covilhã (Aeródromo),40.264309,-7.482302,42.8,7.9,0.7,8,,11.9,69.0,,NW
2026-01-22 00:00:00,1210690,Aldeia Souto (Q. Lageosa),40.35425833,-7.38931111,13.3,8.2,1.7,8,0.1,3.7,61.0,,NW
2026-01-22 00:00:00,1210697,Lousã (Aeródromo),40.143922,-8.244066,6.5,9.6,,6,0.0,1.8,91.0,,SW
2026-01-22 00:00:00,1210698,Fundão,40.14063611,-7.55362778,24.5,6.7,1.7,7,0.2,6.8,85.0,,W
2026-01-22 00:00:00,1210702,Aveiro (Universidade),40.63529722,-8.65958333,28.8,12.1,0.0,8,0.0,8.0,70.0,1006.1,NW
2026-01-22 00:00:00,1210704,Dunas de Mira,40.445955,-8.76168055,18.4,12.1,0.0,8,0.1,5.1,73.0,,NW
2026-01-22 00:00:00,1210705,Anadia,40.438852,-8.439996,4.7,9.7,0.1,7,0.2,1.3,88.0,,W
2026-01-22 00:00:00,1210707,"Coimbra, Bencanta",40.2134694,-8.45515277,10.8,9.7,0.3,7,0.2,3.0,99.0,,W
2026-01-22 00:00:00,1210713,"Figueira da Foz, Vila Verde",40.139764,-8.805945,17.3,12.1,0.0,8,0.4,4.8,,,NW
2026-01-22 00:00:00,1210716,Ansião,39.9,-8.4,19.8,7.5,0.0,7,0.3,5.5,96.0,,W
2026-01-22 00:00:00,1210718,Leiria (Aeródromo),39.780553,-8.818166,12.6,11.6,0.2,7,0.0,3.5,80.0,1007.1,W
2026-01-22 00:00:00,1210724,"Tomar, Valdonas",39.6,-8.36666667,13.7,9.6,183.7,8,0.0,3.8,86.0,,NW
2026-01-22 00:00:00,1210726,Alcobaça,39.51666667,-8.96666667,18.0,12.5,0.0,7,0.1,5.0,70.0,,W
2026-01-22 00:00:00,1210729,Rio Maior,39.35,-8.93333333,13.0,10.9,31.7,8,0.3,3.6,83.0,,NW
2026-01-22 00:00:00,1210734,"Santarém, Fonte Boa",39.201216,-8.736656,10.8,10.8,0.0,7,0.0,3.0,81.0,1007.8,W
2026-01-22 00:00:00,1210735,Chamusca / Chouto,39.27,-8.3508,6.5,10.2,,7,0.0,1.8,83.0,1007.4,W
2026-01-22 00:00:00,1210739,"Torres Vedras, Dois Portos",39.04389444,-9.179,22.7,11.6,0.0,8,0.0,6.3,82.0,,NW
2026-01-22 00:00:00,1210744,Coruche,38.94096667,-8.51073611,16.6,11.2,0.6,8,0.0,4.6,,,NW
2026-01-22 00:00:00,1210746,Santa Cruz (Aeródromo),39.12594166,-9.3790388,28.1,11.9,0.0,8,0.0,7.8,75.0,1008.7,NW
2026-01-22 00:00:00,1210750,Cabo da Roca,38.78171,-9.4975361,23.0,12.2,0.0,2,0.0,6.4,78.0,,NE
2026-01-22 00:00:00,1210752,Sintra/Tapada do Mouco,38.781669,-9.400398,21.2,8.4,,8,0.0,5.9,92.0,,NW
2026-01-22 00:00:00,1210762,"Lisboa, Tapada da Ajuda",38.70956111,-9.182825,5.4,12.3,0.0,6,0.0,1.5,73.0,,SW
2026-01-22 00:00:00,1210765,Cabo Raso,38.70900833,-9.48538333,36.4,13.6,,8,0.1,10.1,82.0,,NW
2026-01-22 00:00:00,1210766,"Barreiro, Lavradio",38.67448611,-9.04766111,18.7,13.2,0.0,7,0.0,5.2,76.0,,W
2026-01-22 00:00:00,1210767,Pegões,38.65079,-8.63503,7.6,10.6,0.0,7,0.0,2.1,100.0,,W
2026-01-22 00:00:00,1210770,Setúbal,38.54846008,-8.89077058,9.7,12.2,0.0,8,0.0,2.7,77.0,,NW
2026-01-22 00:00:00,1210773,"Almada, P.Rainha",38.617111,-9.212804,12.6,,0.0,8,0.0,3.5,,,NW
2026-01-22 00:00:00,1210776,"Alcácer do Sal, Barrosinha",38.36666667,-8.48333333,11.5,11.8,0.0,8,0.0,3.2,85.0,,NW
2026-01-22 00:00:00,1210783,Alvalade,37.946806,-8.394504,31.3,13.3,0.0,8,0.1,8.7,74.0,,NW
2026-01-22 00:00:00,1210785,Ourique / Santana Da Serra,37.5025,-8.3019,20.5,12.1,0.0,6,0.0,5.7,82.0,1008.8,SW
2026-01-22 00:00:00,1210789,Aljezur,37.31675278,-8.80001667,6.5,13.4,0.0,8,0.0,1.8,85.0,,NW
2026-01-22 00:00:00,1210790,Fóia,37.3143,-8.595733,73.4,6.4,0.5,8,0.3,20.4,,,NW
2026-01-22 00:00:00,1210800,"Sabugal, Martim Rei",40.33918056,-7.03693333,11.9,4.6,0.0,7,0.0,3.3,89.0,,W
2026-01-22 00:00:00,1210803,Zebreira,39.86666667,-7.01666667,17.3,7.6,0.0,7,0.0,4.8,81.0,,W
2026-01-22 00:00:00,1210806,"Proença-a-Nova, P.Moitas",39.73333333,-7.86666667,26.6,7.5,9.6,8,0.3,7.4,96.0,,NW
2026-01-22 00:00:00,1210812,Alvega,39.46666667,-8.05,4.0,9.1,,7,0.1,1.1,95.0,,W
2026-01-22 00:00:00,1210824,"Avis, Benavila",39.1,-7.86666667,13.0,10.4,0.0,7,0.0,3.6,98.0,,W
2026-01-22 00:00:00,1210826,Mora,38.94068,-8.16406,10.1,10.5,0.0,8,0.0,2.8,84.0,,NW
2026-01-22 00:00:00,1210835,Elvas,38.8908,-7.13976111,22.3,10.0,0.0,8,0.0,6.2,86.0,,NW
2026-01-22 00:00:00,1210837,Estremoz,38.86666667,-7.51666667,16.2,8.6,0.0,7,0.0,4.5,100.0,,W
2026-01-22 00:00:00,1210840,"Reguengos, S. P. do Corval",38.484866,-7.4729166,29.5,9.3,0.0,7,0.2,8.2,93.0,,W
2026-01-22 00:00:00,1210846,Montemor-O-Novo,38.6451,-8.1991,10.4,9.9,,7,0.0,2.9,91.0,1009.0,W
2026-01-22 00:00:00,1210847,Viana do Alentejo,38.3319194,-8.04553888,17.3,10.7,2.3,8,,4.8,81.0,,NW
2026-01-22 00:00:00,1210848,"Portel, Oriola",38.31666667,-7.86666667,18.4,11.2,,7,0.0,5.1,83.0,,W
2026-01-22 00:00:00,1210851,Amareleja,38.2007,-7.2261,9.0,,0.0,7,0.0,2.5,,1007.2,W
2026-01-22 00:00:00,1210863,"Mértola, Vale Formoso",37.75,-7.55,20.2,11.7,0.0,8,0.0,5.6,83.0,,NW
2026-01-22 00:00:00,1210864,"Castro Verde, N.Corvo",37.57655833,-7.97211389,21.2,11.6,0.0,8,0.0,5.9,99.0,,NW
2026-01-22 00:00:00,1210865,"Alcoutim, Mart.Longo",37.43333333,-7.76666667,14.8,11.0,,7,0.0,4.1,87.0,1008.7,W
2026-01-22 00:00:00,1210866,Vila Real de S.António,37.1871055,-7.416325,,13.0,,0,0.0,,80.0,,
2026-01-22 00:00:00,1210867,Castro Marim (RN Sapal),37.21666667,-7.45,13.3,13.4,0.0,8,0.0,3.7,80.0,,NW
2026-01-22 00:00:00,1210878,Portimão (Aeródromo),37.149167,-8.581389,9.7,13.4,0.0,7,0.0,2.7,77.0,1009.4,W
2026-01-22 00:00:00,1210881,"Olhão, EPPO",37.033,-7.821,4.7,12.6,0.0,7,0.0,1.3,90.0,1009.5,W
2026-01-22 00:00:00,1210932,"S. Miguel, Nordeste",37.83256,-25.150108,11.2,16.6,,7,0.0,3.1,82.0,,W
2026-01-22 00:00:00,1210956,"Madeira, Porto Moniz",32.867477,-17.171373,,17.6,1.3,0,0.8,,93.0,,
2026-01-22 00:00:00,1210960,"Madeira, S. Jorge, Santana",32.83446944,-16.906219,27.7,15.2,0.0,8,0.6,7.7,100.0,1020.1,NW
2026-01-22 00:00:00,1210965,"Madeira, Santana",32.808238,-16.8864166,,14.2,30.6,0,0.2,,100.0,,
2026-01-22 00:00:00,1210967,"Madeira, São Vicente",32.8001833,-17.044722,,16.2,0.0,0,0.1,,96.0,,
2026-01-22 00:00:00,1210972,"Madeira, Pico Alto",32.693491,-16.903955,2.5,11.3,0.0,4,,0.7,,,SE
2026-01-22 00:00:00,1210973,"Madeira, Areeiro",32.71666667,-16.91666667,2.5,8.8,2.0,5,0.0,0.7,93.0,,S
2026-01-22 00:00:00,1210974,"Madeira, Pico do Areeiro",32.735107,-16.928271,,7.2,,0,0.0,,100.0,,
2026-01-22 00:00:00,1210975,"Madeira, Santo da Serra",32.7258972,-16.816822,,12.1,0.0,0,0.0,,99.0,,
2026-01-22 00:00:00,1210976,"Madeira, Monte",32.675833,-16.906944,3.6,13.1,0.0,9,0.0,1.0,93.0,,N
2026-01-22 00:00:00,1210977,"Madeira, Cancela",32.64500556,-16.86575,5.0,16.0,0.0,3,0.0,1.4,89.0,,E
2026-01-22 00:00:00,1210978,"Madeira, S. Lourenço",32.747,-16.706,29.5,16.7,0.0,1,0.0,8.2,98.0,,N
2026-01-22 00:00:00,1210984,"Madeira, Quinta Grande",32.6629722,-17.01503611,,14.6,0.0,0,0.0,,77.0,,
2026-01-22 00:00:00,1210986,Ponta do Sol/Lugar de Baixo,32.681502,-17.104167,2.9,17.5,0.0,2,0.0,0.8,81.0,,NE
2026-01-22 00:00:00,1210987,Prazeres (Calheta),32.757205,-17.201551,22.3,13.6,0.1,9,0.5,6.2,100.0,,N
2026-01-22 00:00:00,1240546,"Porto, Serra do Pilar",41.1385194,-8.6025,,10.6,,0,0.3,,83.0,1004.4,
2026-01-22 00:00:00,1240566,Vila Real (Cidade),41.30898056,-7.740522,15.1,6.8,,7,0.2,4.2,85.0,,W
2026-01-22 00:00:00,1240610,Viana do Castelo,41.695,-8.82916,,10.8,,0,0.4,,79.0,,
2026-01-22 00:00:00,1240675,Viseu (Cidade),40.662738,-7.9039694,,6.6,,0,0.1,,88.0,,
2026-01-22 00:00:00,1240903,"Porto, Massarelos",41.15257,-8.62598,,10.8,,0,,,78.0,,
2026-01-22 00:00:00,1240971,"Madeira, Funchal, Lido",32.63655,-16.935592,0.0,17.8,0.0,0,0.0,0.0,77.0,,
2026-01-22 00:00:00,1259203,Seia/Aeródromo,40.45517056,-7.68614846,7.6,6.9,,7,1.7,2.1,95.0,1006.3,W
2026-01-22 00:00:00,1259204,Seia/Senhora do Espinheiro,40.412775,-7.673406,14.8,2.9,,8,,4.1,100.0,1006.6,NW
2026-01-22 00:00:00,5210758,Alcochete / Campo Tiro,38.7627,-8.7825,9.0,11.2,,8,0.0,2.5,79.0,1008.3,NW
2026-01-22 00:00:00,6210817,Ponte de Sôr / Aeródromo,39.21536,-8.05417,9.0,10.1,,6,,2.5,83.0,1006.8,SW
2026-01-22 00:00:00,6210872,Loulé (CML),37.129946,-8.06523593,4.0,10.7,,5,0.0,1.1,99.0,1009.4,S
2026-01-22 00:00:00,6210879,Portimão (Praia da Rocha),37.11670461,-8.52946314,10.8,13.8,,7,0.0,3.0,79.0,,W
2026-01-22 00:00:00,6211211,Monção - Guimil (CIM),42.042944,-8.421872,23.8,,0.4,7,,6.6,,1002.0,W
2026-01-22 00:00:00,6211213,Paredes De Coura - Vascões (CIM),41.913444,-8.492111,8.3,4.1,0.3,7,,2.3,99.0,1003.7,W
2026-01-22 00:00:00,6211216,Arcos De Valdevez - Heliporto (CIM),41.831,-8.44375,,6.4,,0,1.7,,88.0,1004.3,
2026-01-22 00:00:00,6211218,Ponte De Lima - Anais (CIM),41.698083,-8.522444,18.7,6.9,2.3,8,,5.2,89.0,1003.5,NW
2026-01-22 00:00:00,6212121,Terras de Bouro/Barral (CIM),41.70225278,-8.31808611,7.6,6.5,,8,1.6,2.1,88.0,1002.2,NW
2026-01-22 00:00:00,6212122,Amares Caldelas (CIM),41.66796389,-8.37977778,8.3,7.8,,4,0.6,2.3,93.0,1004.4,SE
2026-01-22 00:00:00,6212123,Vila Verde (CIM),41.64686111,-8.43398056,4.3,8.5,,6,,1.2,91.0,1003.8,SW
2026-01-22 00:00:00,6212124,Braga (CIM),41.53568333,-8.42514722,10.1,8.5,,8,1.4,2.8,87.0,1005.1,NW
2026-01-22 00:00:00,6212125,Barcelos (CIM),41.529375,-8.62705278,17.6,10.3,0.0,8,3.3,4.9,81.0,1005.2,NW
2026-01-22 00:00:00,6212126,Esposende (CIM),41.52645556,-8.77984444,35.6,11.7,,8,0.2,9.9,93.0,1004.7,NW
2026-01-22 00:00:00,6213012,Carregal do Sal (CIM),40.46718056,-7.92626389,7.2,7.0,,7,,2.0,95.0,,W
2026-01-22 00:00:00,6213013,Castro Daire / Mézio (CIM),40.98086111,-7.88318889,29.2,3.0,,7,,8.1,94.0,,W
2026-01-22 00:00:00,6213014,Mangualde / Chãs de Tavares  (CIM),40.61096111,-7.60838889,14.4,4.9,,7,0.4,4.0,97.0,,W
2026-01-22 00:00:00,6213016,Oliveira de Frades (CIM),40.716925,-8.20133889,20.9,5.5,,6,,5.8,91.0,,SW
2026-01-22 00:00:00,6213017,Penalva do Castelo (CIM),40.65706389,-7.69655278,11.9,6.4,,6,0.1,3.3,93.0,,SW
2026-01-22 00:00:00,6213020,Satão (CIM),40.76072778,-7.72019722,19.8,4.5,,7,0.2,5.5,92.0,,W
2026-01-22 00:00:00,6213022,Vila Nova de Paiva (CIM),40.85595,-7.72716389,5.8,3.6,,7,0.6,1.6,,,W
2026-01-22 00:00:00,6213611,Arganil / Aeródromo (CIM),40.274578,-7.974399,5.4,7.6,,5,2.3,1.5,94.0,,S
2026-01-22 00:00:00,6213612,Cantanhede / Fonte Dom Pedro (CIM),40.341894,-8.577613,12.6,10.2,,8,0.0,3.5,81.0,,NW
2026-01-22 00:00:00,6213613,Coimbra / Mata de São Pedro (CIM),40.330787,-8.374887,9.4,7.5,,7,,2.6,92.0,,W
2026-01-22 00:00:00,6213614,Góis / Quinta da Ribeira (CIM),40.171642,-8.103238,3.2,,,6,,0.9,,,SW
2026-01-22 00:00:00,6213615,Mealhada / Quinta do Vale (CIM),40.373343,-8.4388429,8.6,10.4,,7,0.1,2.4,75.0,,W
2026-01-22 00:00:00,6213616,Mortágua / Aeródromo (CIM),40.426239,-8.232142,10.1,8.0,,7,0.1,2.8,93.0,,W
2026-01-22 00:00:00,6213617,Penacova / Hombres (CIM),40.280921,-8.198685,5.8,,,6,0.1,1.6,95.0,,SW
2026-01-22 00:00:00,6213619,Vila Nova de Poiares (CIM),40.211411,-8.241995,11.9,9.8,,7,0.6,3.3,84.0,,W
2026-01-22 00:00:00,6213620,Oliveira do Hospital (CIM),40.413306,-7.867972,5.0,6.7,,6,0.4,1.4,93.0,,SW
2026-01-22 00:00:00,6213621,Soure (CIM),40.02927,-8.504909,34.9,5.7,,8,0.7,9.7,97.0,,NW
2026-01-22 00:00:00,6214119,Pedrógão Grande (CMPG),39.926573,-8.150912,21.2,8.0,,7,0.3,5.9,90.0,1006.8,W
2026-01-22 00:00:00,6215302,"Lisboa, Carnide (CML)",38.7751,-9.1855,18.7,11.9,,8,,5.2,84.0,1007.0,NW
2026-01-22 00:00:00,6215360,Oeiras / Vila Fria (CMO),38.7239536,-9.2939255,31.3,12.2,0.0,8,0.0,8.7,73.0,1007.8,NW
2026-01-22 00:00:00,7240919,"Lisboa, Amoreiras (LFCL)",38.7239,-9.1649,5.0,11.0,,5,0.0,1.4,93.0,1009.1,S
2026-01-22 01:00:00,11217160,Santa Maria / Praia Formosa (DROTRH),36.9542,-25.0917,11.5,15.5,2.6,3,0.0,3.2,100.0,,E
2026-01-22 01:00:00,11217165,Santa Maria / Maia (DROTRH),36.9412,-25.0176,12.6,15.6,0.4,7,0.0,3.5,95.0,,W
2026-01-22 01:00:00,11217225,São Miguel / Sete Cidades (DROTRH),37.8679,-25.772,12.2,14.9,0.0,7,0.0,3.4,100.0,,W
2026-01-22 01:00:00,11217255,São Miguel / Lagoa das Furnas (DROTRH),37.7619,-25.3291,8.6,16.4,0.0,5,0.0,2.4,78.0,,S
2026-01-22 01:00:00,11217370,Terceira / Ribeira das Nove (DROTRH),38.754,-27.3245,11.2,12.4,0.0,8,0.0,3.1,100.0,,NW
2026-01-22 01:00:00,11217372,Terceira / Serra do Cume (DROTRH),38.7002,-27.1031,47.9,14.1,0.0,7,0.0,13.3,100.0,,W
2026-01-22 01:00:00,11217430,Graciosa / Serra das Fontes (DROTRH),39.0672,-28.0038,29.5,14.5,0.0,8,0.0,8.2,100.0,,NW
2026-01-22 01:00:00,11217510,São Jorge / Pico do Areeiro (DROTRH),38.6435,-28.0591,43.2,12.1,0.0,6,0.7,12.0,100.0,,SW
2026-01-22 01:00:00,11217645,Pico / Cabecinho (DROTRH),38.4338,-28.1141,17.6,14.5,0.0,7,0.0,4.9,94.0,,W
2026-01-22 01:00:00,11217710,Faial / Alto do Cabouco (DROTRH),38.587,-28.6992,,12.6,0.0,3,0.5,,99.0,,E
2026-01-22 01:00:00,11217730,Faial / Cabeço Verde (DROTRH),38.5843,-28.7576,12.6,14.1,0.0,6,0.2,3.5,100.0,,SW
2026-01-22 01:00:00,1200501,Flores (Aeródromo),39.45819,-31.1301,36.4,18.3,0.0,6,0.0,10.1,84.0,1014.3,SW
2026-01-22 01:00:00,1200502,Corvo (Aeródromo),39.67389,-31.11362,40.7,17.6,611.5,7,0.0,11.3,90.0,1013.4,W
2026-01-22 01:00:00,1200504,Pico (Aeródromo),38.55219,-28.44137,32.4,17.1,0.0,7,0.0,9.0,92.0,1017.0,W
2026-01-22 01:00:00,1200505,Horta / Aeroporto,38.5211,-28.7128,33.5,17.2,,7,0.0,9.3,90.0,1017.7,W
2026-01-22 01:00:00,1200506,Horta (Obs. Principe Alberto),38.540781,-28.63225,38.5,16.9,0.0,6,0.0,10.7,97.0,1017.5,SW
2026-01-22 01:00:00,1200511,Angra do Heroísmo,38.6659435,-27.216567,24.1,16.8,0.0,7,0.0,6.7,87.0,1017.2,W
2026-01-22 01:00:00,1200512,P. Delgada (Aeródromo),37.74414,-25.6953048,35.3,16.1,0.0,7,0.0,9.8,97.0,1018.3,W
2026-01-22 01:00:00,1200515,Santa Maria (Aeródromo),36.967175,-25.1679,36.0,16.4,0.0,7,0.0,10.0,96.0,1020.4,W
2026-01-22 01:00:00,1200521,Santa Catarina (Aeródromo),32.69688,-16.77612,,17.4,0.1,0,0.0,,81.0,1019.6,
2026-01-22 01:00:00,1200522,Funchal,32.64786,-16.888,4.7,16.8,0.0,2,0.0,1.3,77.0,1019.7,NE
2026-01-22 01:00:00,1200524,Porto Santo,33.074029,-16.34868,25.2,16.6,0.0,8,0.2,7.0,93.0,1019.3,NW
2026-01-22 01:00:00,1200531,Cabo Carvoeiro,39.38,-9.40737778,17.3,13.3,,8,0.1,4.8,74.0,1008.4,NW
2026-01-22 01:00:00,1200533,Sagres,37.012835,-8.949089,33.5,14.2,,8,0.0,9.3,71.0,1010.2,NW
2026-01-22 01:00:00,1200535,Lisboa (Geofísico),38.71907778,-9.14972222,5.4,12.3,0.0,7,0.0,1.5,78.0,1009.2,W
2026-01-22 01:00:00,1200541,Sines,37.954504,-8.838271,25.9,11.7,0.0,8,0.0,7.2,100.0,1009.9,NW
2026-01-22 01:00:00,1200545,"Porto, Pedras Rubras (Aeródromo)",41.233502,-8.681332,19.1,11.0,0.0,8,0.0,5.3,76.0,1005.4,NW
2026-01-22 01:00:00,1200548,Coimbra (Aeródromo),40.15006944,-8.46669167,8.6,9.1,0.0,6,0.0,2.4,85.0,1007.4,SW
2026-01-22 01:00:00,1200551,"Viana Castelo, Chafé",41.648875,-8.804606,17.3,10.0,0.0,8,0.2,4.8,96.0,1004.9,NW
2026-01-22 01:00:00,1200554,Faro (Aeródromo),37.016579,-7.971953,23.0,13.3,0.0,8,0.0,6.4,77.0,1009.1,NW
2026-01-22 01:00:00,1200558,Évora (C.Coordenação),38.53336389,-7.88338056,14.8,9.5,0.0,7,0.0,4.1,99.0,1008.5,W
2026-01-22 01:00:00,1200559,Viseu (Aeródromo),40.72645,-7.887472,19.4,5.6,,8,0.4,5.4,86.0,1006.1,NW
2026-01-22 01:00:00,1200560,Viseu (C.Coordenação),40.71492222,-7.89592222,18.0,4.8,,7,0.4,5.0,95.0,1006.8,W
2026-01-22 01:00:00,1200562,Beja,38.02493056,-7.867275,26.6,9.3,0.0,7,1.5,7.4,99.0,1008.2,W
2026-01-22 01:00:00,1200567,Vila Real,41.27418611,-7.7171,14.4,5.5,0.0,7,1.0,4.0,92.0,1005.0,W
2026-01-22 01:00:00,1200568,Penhas Douradas,40.41136667,-7.55865278,23.8,0.2,0.0,7,,6.6,100.0,,W
2026-01-22 01:00:00,1200570,Castelo Branco,39.83339444,-7.46678889,17.3,7.6,0.0,8,0.0,4.8,98.0,1005.5,NW
2026-01-22 01:00:00,1200571,Portalegre,39.29546944,-7.41996944,19.8,5.5,0.0,8,0.0,5.5,100.0,1007.8,NW
2026-01-22 01:00:00,1200575,Bragança,41.80388889,-6.74283889,20.2,4.4,0.0,7,0.0,5.6,84.0,1002.7,W
2026-01-22 01:00:00,1200576,Bragança (Aeródromo),41.85763611,-6.70796389,23.8,4.6,,7,0.0,6.6,88.0,1002.3,W
2026-01-22 01:00:00,1200843,Évora (Aeródromo),38.5296,-7.8916,12.6,9.5,,7,0.0,3.5,88.0,1008.4,W
2026-01-22 01:00:00,1210513,P. Delgada (Obs. A. Chaves),37.7464,-25.662283,7.2,16.3,4.6,5,0.0,2.0,,,S
2026-01-22 01:00:00,1210517,Flores / Morro Alto,39.4633,-31.2207,77.4,12.3,,6,0.6,21.5,100.0,1010.4,SW
2026-01-22 01:00:00,1210518,São Miguel - Pico Santos De Cima,37.819,-25.7512,64.4,12.1,,7,0.3,17.9,100.0,1017.4,W
2026-01-22 01:00:00,1210520,Ilhas selvagens,30.140595,-15.869153,28.4,17.2,4.5,8,0.0,7.9,86.0,1020.8,NW
2026-01-22 01:00:00,1210550,Coruche / Cruz Do Leão,39.07101,-8.4,9.4,9.1,,8,0.0,2.6,91.0,1008.2,NW
2026-01-22 01:00:00,1210553,Loulé / Cavalos De Caldeirão,37.3042,-7.9534,21.6,8.7,,8,0.0,6.0,95.0,1010.0,NW
2026-01-22 01:00:00,1210577,"Odemira, S.Teotónio",37.54710833,-8.72899167,37.4,13.0,0.0,8,0.0,10.4,78.0,,NW
2026-01-22 01:00:00,1210604,V.N.Cerveira (Aeródromo),41.96673056,-8.66676111,9.4,8.6,0.0,8,1.9,2.6,89.0,1004.4,NW
2026-01-22 01:00:00,1210605,"Monção, Valinha",42.06669,-8.383347,5.4,9.1,0.0,8,1.8,1.5,85.0,,NW
2026-01-22 01:00:00,1210606,"Lamas de Mouro, P.Ribeiro",42.03333333,-8.18333333,20.5,3.3,0.0,7,2.2,5.7,100.0,1005.2,W
2026-01-22 01:00:00,1210611,Montalegre,41.82276667,-7.78797778,14.8,2.3,0.0,7,0.4,4.1,99.0,,W
2026-01-22 01:00:00,1210612,Vinhais,41.8434,-7.0034416,23.8,3.5,,8,0.4,6.6,100.0,,NW
2026-01-22 01:00:00,1210615,Ponte de Lima,41.75013889,-8.56671389,7.9,9.4,0.0,5,0.1,2.2,86.0,,S
2026-01-22 01:00:00,1210616,Chaves (Aeródromo),41.72516667,-7.46540833,2.9,6.3,0.0,4,0.4,0.8,89.0,1003.8,SE
2026-01-22 01:00:00,1210619,Cabril,41.71666667,-8.01666667,13.3,4.7,,7,0.8,3.7,99.0,,W
2026-01-22 01:00:00,1210622,"Braga, Merelim",41.56678056,-8.45003056,3.6,8.1,0.0,6,3.0,1.0,95.0,1005.4,SW
2026-01-22 01:00:00,1210625,Guimarães,41.4289,-8.3178,,8.3,0.0,0,,,83.0,1005.2,
2026-01-22 01:00:00,1210630,Cabeceiras de Basto,41.53333333,-7.96666667,2.9,7.7,0.0,7,1.7,0.8,92.0,,W
2026-01-22 01:00:00,1210632,Mirandela,41.51478611,-7.19083889,1.4,7.8,0.0,1,0.0,0.4,76.0,,N
2026-01-22 01:00:00,1210633,"Macedo Cavaleiros, Bagueixe",41.56666667,-6.78333333,23.0,3.7,,7,0.0,6.4,94.0,,W
2026-01-22 01:00:00,1210635,Miranda do Douro,41.51666667,-6.28333333,13.7,5.2,,7,0.0,3.8,87.0,,W
2026-01-22 01:00:00,1210637,Mogadouro,41.33333333,-6.73333333,19.8,3.9,0.0,7,0.0,5.5,99.0,,W
2026-01-22 01:00:00,1210643,Paços Ferreira,41.27365,-8.38012,13.7,7.7,,7,0.6,3.8,92.0,,W
2026-01-22 01:00:00,1210644,Carrazêda de Ansiães,41.23333333,-7.28333333,3.2,4.7,0.0,6,0.0,0.9,88.0,,SW
2026-01-22 01:00:00,1210654,Moncorvo,41.18333333,-7.01666667,19.8,6.7,0.0,7,0.0,5.5,74.0,1004.4,W
2026-01-22 01:00:00,1210655,"Pinhão, Santa Bárbara",41.172775,-7.5489722,14.4,9.2,,9,2.3,4.0,77.0,,N
2026-01-22 01:00:00,1210657,Luzim,41.14585,-8.2490333,6.1,6.8,3.4,2,0.0,1.7,88.0,,NE
2026-01-22 01:00:00,1210663,Moimenta da Beira,40.98333333,-7.6,19.4,4.4,0.0,8,0.2,5.4,93.0,,NW
2026-01-22 01:00:00,1210666,"Trancoso, Bandarra",40.78333333,-7.36666667,21.6,3.7,0.0,6,0.2,6.0,96.0,,SW
2026-01-22 01:00:00,1210669,Arouca,40.93333333,-8.25,9.4,8.7,0.0,6,0.0,2.6,86.0,,SW
2026-01-22 01:00:00,1210671,"F. Castelo Rodrigo, V.Torpim",40.75,-6.88333333,25.6,4.1,0.0,7,0.0,7.1,96.0,,W
2026-01-22 01:00:00,1210683,Guarda,40.53333333,-7.26666667,28.4,2.5,2.2,7,0.1,7.9,95.0,,W
2026-01-22 01:00:00,1210685,Nelas,40.51666667,-7.85,9.7,6.0,0.0,7,0.3,2.7,95.0,,W
2026-01-22 01:00:00,1210686,"Pampilhosa da Serra, Fajão",40.145653,-7.92704,24.5,3.6,,8,0.2,6.8,100.0,,NW
2026-01-22 01:00:00,1210687,Covilhã (Aeródromo),40.264309,-7.482302,20.9,7.9,0.8,7,,5.8,69.0,,W
2026-01-22 01:00:00,1210690,Aldeia Souto (Q. Lageosa),40.35425833,-7.38931111,11.5,8.0,1.1,8,0.3,3.2,62.0,,NW
2026-01-22 01:00:00,1210697,Lousã (Aeródromo),40.143922,-8.244066,8.3,9.5,,5,0.0,2.3,89.0,,S
2026-01-22 01:00:00,1210698,Fundão,40.14063611,-7.55362778,13.0,6.6,0.4,8,0.0,3.6,83.0,,NW
2026-01-22 01:00:00,1210702,Aveiro (Universidade),40.63529722,-8.65958333,20.2,11.5,0.0,8,0.2,5.6,75.0,1006.8,NW
2026-01-22 01:00:00,1210704,Dunas de Mira,40.445955,-8.76168055,20.9,12.6,0.0,8,0.0,5.8,68.0,,NW
2026-01-22 01:00:00,1210705,Anadia,40.438852,-8.439996,3.6,9.5,0.0,8,0.0,1.0,85.0,,NW
2026-01-22 01:00:00,1210707,"Coimbra, Bencanta",40.2134694,-8.45515277,5.8,9.6,0.3,7,0.1,1.6,95.0,,W
2026-01-22 01:00:00,1210713,"Figueira da Foz, Vila Verde",40.139764,-8.805945,21.2,11.9,0.0,8,0.0,5.9,,,NW
2026-01-22 01:00:00,1210716,Ansião,39.9,-8.4,11.2,7.3,0.0,7,0.5,3.1,94.0,,W
2026-01-22 01:00:00,1210718,Leiria (Aeródromo),39.780553,-8.818166,9.7,11.3,1.2,7,0.7,2.7,81.0,1007.8,W
2026-01-22 01:00:00,1210724,"Tomar, Valdonas",39.6,-8.36666667,7.6,8.7,214.8,8,0.0,2.1,91.0,,NW
2026-01-22 01:00:00,1210726,Alcobaça,39.51666667,-8.96666667,11.2,11.8,0.0,7,1.2,3.1,73.0,,W
2026-01-22 01:00:00,1210729,Rio Maior,39.35,-8.93333333,13.3,10.4,28.5,8,0.2,3.7,84.0,,NW
2026-01-22 01:00:00,1210734,"Santarém, Fonte Boa",39.201216,-8.736656,6.1,10.4,0.8,7,0.1,1.7,84.0,1008.6,W
2026-01-22 01:00:00,1210735,Chamusca / Chouto,39.27,-8.3508,7.2,10.4,,7,0.0,2.0,78.0,1008.0,W
2026-01-22 01:00:00,1210739,"Torres Vedras, Dois Portos",39.04389444,-9.179,23.8,11.3,0.0,8,0.1,6.6,83.0,,NW
2026-01-22 01:00:00,1210744,Coruche,38.94096667,-8.51073611,15.1,11.3,0.0,8,0.0,4.2,,,NW
2026-01-22 01:00:00,1210746,Santa Cruz (Aeródromo),39.12594166,-9.3790388,24.5,11.7,0.0,8,0.0,6.8,74.0,1009.1,NW
2026-01-22 01:00:00,1210750,Cabo da Roca,38.78171,-9.4975361,23.4,11.9,2.3,3,0.1,6.5,83.0,,E
2026-01-22 01:00:00,1210752,Sintra/Tapada do Mouco,38.781669,-9.400398,20.9,8.0,,8,0.1,5.8,97.0,,NW
2026-01-22 01:00:00,1210762,"Lisboa, Tapada da Ajuda",38.70956111,-9.182825,4.7,12.3,0.0,5,0.0,1.3,69.0,,S
2026-01-22 01:00:00,1210765,Cabo Raso,38.70900833,-9.48538333,37.1,13.7,,8,0.1,10.3,78.0,,NW
2026-01-22 01:00:00,1210766,"Barreiro, Lavradio",38.67448611,-9.04766111,20.2,13.8,0.0,8,0.0,5.6,68.0,,NW
2026-01-22 01:00:00,1210767,Pegões,38.65079,-8.63503,8.6,10.8,0.0,8,0.0,2.4,100.0,,NW
2026-01-22 01:00:00,1210770,Setúbal,38.54846008,-8.89077058,13.7,12.9,0.0,8,0.0,3.8,71.0,,NW
2026-01-22 01:00:00,1210773,"Almada, P.Rainha",38.617111,-9.212804,7.9,,0.0,8,0.0,2.2,,,NW
2026-01-22 01:00:00,1210776,"Alcácer do Sal, Barrosinha",38.36666667,-8.48333333,9.0,11.6,0.0,7,0.0,2.5,85.0,,W
2026-01-22 01:00:00,1210783,Alvalade,37.946806,-8.394504,19.8,12.2,0.0,8,0.0,5.5,80.0,,NW
2026-01-22 01:00:00,1210785,Ourique / Santana Da Serra,37.5025,-8.3019,21.2,11.8,0.1,7,0.0,5.9,82.0,1009.4,W
2026-01-22 01:00:00,1210789,Aljezur,37.31675278,-8.80001667,9.7,14.1,0.0,8,0.0,2.7,80.0,,NW
2026-01-22 01:00:00,1210790,Fóia,37.3143,-8.595733,68.8,6.8,0.4,8,0.0,19.1,100.0,,NW
2026-01-22 01:00:00,1210800,"Sabugal, Martim Rei",40.33918056,-7.03693333,18.4,4.4,0.0,7,0.0,5.1,86.0,,W
2026-01-22 01:00:00,1210803,Zebreira,39.86666667,-7.01666667,18.0,7.8,1.0,7,0.0,5.0,80.0,,W
2026-01-22 01:00:00,1210806,"Proença-a-Nova, P.Moitas",39.73333333,-7.86666667,27.0,7.2,6.9,8,0.4,7.5,95.0,,NW
2026-01-22 01:00:00,1210812,Alvega,39.46666667,-8.05,6.5,8.9,,7,0.0,1.8,96.0,,W
2026-01-22 01:00:00,1210824,"Avis, Benavila",39.1,-7.86666667,10.4,9.7,0.0,6,0.0,2.9,99.0,,SW
2026-01-22 01:00:00,1210826,Mora,38.94068,-8.16406,8.3,10.2,0.0,7,0.0,2.3,84.0,,W
2026-01-22 01:00:00,1210835,Elvas,38.8908,-7.13976111,25.6,9.6,0.0,8,0.0,7.1,87.0,,NW
2026-01-22 01:00:00,1210837,Estremoz,38.86666667,-7.51666667,15.1,8.1,0.0,7,0.0,4.2,100.0,,W
2026-01-22 01:00:00,1210840,"Reguengos, S. P. do Corval",38.484866,-7.4729166,23.0,8.8,0.0,7,0.0,6.4,91.0,,W
2026-01-22 01:00:00,1210846,Montemor-O-Novo,38.6451,-8.1991,10.4,9.3,,7,0.0,2.9,94.0,1009.7,W
2026-01-22 01:00:00,1210847,Viana do Alentejo,38.3319194,-8.04553888,11.2,9.8,0.0,7,,3.1,85.0,,W
2026-01-22 01:00:00,1210848,"Portel, Oriola",38.31666667,-7.86666667,11.5,10.2,,7,0.0,3.2,86.0,,W
2026-01-22 01:00:00,1210851,Amareleja,38.2007,-7.2261,15.5,,0.0,8,0.0,4.3,,1007.6,NW
2026-01-22 01:00:00,1210863,"Mértola, Vale Formoso",37.75,-7.55,20.5,11.2,6.9,8,0.2,5.7,86.0,,NW
2026-01-22 01:00:00,1210864,"Castro Verde, N.Corvo",37.57655833,-7.97211389,28.8,11.5,0.0,8,0.0,8.0,98.0,,NW
2026-01-22 01:00:00,1210865,"Alcoutim, Mart.Longo",37.43333333,-7.76666667,28.4,10.7,,7,0.0,7.9,87.0,1009.1,W
2026-01-22 01:00:00,1210866,Vila Real de S.António,37.1871055,-7.416325,,13.4,,0,0.0,,75.0,,
2026-01-22 01:00:00,1210867,Castro Marim (RN Sapal),37.21666667,-7.45,14.8,13.2,0.0,8,0.0,4.1,81.0,,NW
2026-01-22 01:00:00,1210878,Portimão (Aeródromo),37.149167,-8.581389,15.5,13.0,0.0,7,0.0,4.3,81.0,1009.9,W
2026-01-22 01:00:00,1210881,"Olhão, EPPO",37.033,-7.821,5.8,12.2,0.0,7,0.0,1.6,88.0,1009.8,W
2026-01-22 01:00:00,1210932,"S. Miguel, Nordeste",37.83256,-25.150108,16.2,16.9,,8,0.0,4.5,80.0,,NW
2026-01-22 01:00:00,1210956,"Madeira, Porto Moniz",32.867477,-17.171373,,17.3,2.7,0,1.0,,94.0,,
2026-01-22 01:00:00,1210960,"Madeira, S. Jorge, Santana",32.83446944,-16.906219,37.4,15.2,0.2,8,1.3,10.4,100.0,1019.8,NW
2026-01-22 01:00:00,1210965,"Madeira, Santana",32.808238,-16.8864166,,14.3,30.8,0,1.1,,100.0,,
2026-01-22 01:00:00,1210967,"Madeira, São Vicente",32.8001833,-17.044722,,16.3,0.0,0,1.3,,97.0,,
2026-01-22 01:00:00,1210972,"Madeira, Pico Alto",32.693491,-16.903955,6.1,10.9,0.0,2,,1.7,,,NE
2026-01-22 01:00:00,1210973,"Madeira, Areeiro",32.71666667,-16.91666667,2.2,8.6,0.4,9,0.0,0.6,91.0,,N
2026-01-22 01:00:00,1210974,"Madeira, Pico do Areeiro",32.735107,-16.928271,,7.0,,0,0.0,,100.0,,
2026-01-22 01:00:00,1210975,"Madeira, Santo da Serra",32.7258972,-16.816822,,11.8,0.0,0,0.0,,100.0,,
2026-01-22 01:00:00,1210976,"Madeira, Monte",32.675833,-16.906944,4.0,13.0,0.1,1,0.0,1.1,93.0,,N
2026-01-22 01:00:00,1210977,"Madeira, Cancela",32.64500556,-16.86575,3.6,15.1,0.0,3,0.0,1.0,95.0,,E
2026-01-22 01:00:00,1210978,"Madeira, S. Lourenço",32.747,-16.706,24.5,16.6,0.0,2,0.0,6.8,98.0,,NE
2026-01-22 01:00:00,1210984,"Madeira, Quinta Grande",32.6629722,-17.01503611,,13.7,0.0,0,0.0,,81.0,,
2026-01-22 01:00:00,1210986,Ponta do Sol/Lugar de Baixo,32.681502,-17.104167,0.7,17.3,0.0,2,0.0,0.2,81.0,,NE
2026-01-22 01:00:00,1210987,Prazeres (Calheta),32.757205,-17.201551,22.3,13.4,0.0,9,0.7,6.2,100.0,,N
2026-01-22 01:00:00,1240546,"Porto, Serra do Pilar",41.1385194,-8.6025,,10.6,,0,0.1,,85.0,1005.0,
2026-01-22 01:00:00,1240566,Vila Real (Cidade),41.30898056,-7.740522,9.4,6.3,,7,1.2,2.6,88.0,,W
2026-01-22 01:00:00,1240610,Viana do Castelo,41.695,-8.82916,,10.6,,0,0.1,,81.0,,
2026-01-22 01:00:00,1240675,Viseu (Cidade),40.662738,-7.9039694,,6.2,,0,0.8,,89.0,,
2026-01-22 01:00:00,1240903,"Porto, Massarelos",41.15257,-8.62598,,10.7,,0,,,82.0,,
2026-01-22 01:00:00,1240971,"Madeira, Funchal, Lido",32.63655,-16.935592,0.0,17.6,0.0,0,0.0,0.0,79.0,,
2026-01-22 01:00:00,1259203,Seia/Aeródromo,40.45517056,-7.68614846,12.6,6.5,,6,0.4,3.5,94.0,1007.1,SW
2026-01-22 01:00:00,1259204,Seia/Senhora do Espinheiro,40.412775,-7.673406,13.7,2.5,,8,,3.8,100.0,1007.6,NW
2026-01-22 01:00:00,5210758,Alcochete / Campo Tiro,38.7627,-8.7825,12.6,12.0,,8,0.1,3.5,77.0,1008.7,NW
2026-01-22 01:00:00,6210817,Ponte de Sôr / Aeródromo,39.21536,-8.05417,10.8,9.6,,7,,3.0,81.0,1007.5,W
2026-01-22 01:00:00,6210872,Loulé (CML),37.129946,-8.06523593,13.0,11.4,,7,0.0,3.6,86.0,1009.8,W
2026-01-22 01:00:00,6210879,Portimão (Praia da Rocha),37.11670461,-8.52946314,14.4,13.4,,7,0.0,4.0,82.0,,W
2026-01-22 01:00:00,6211211,Monção - Guimil (CIM),42.042944,-8.421872,25.6,,0.8,7,,7.1,,1002.5,W
2026-01-22 01:00:00,6211213,Paredes De Coura - Vascões (CIM),41.913444,-8.492111,10.4,4.2,1.1,7,,2.9,98.0,1004.6,W
2026-01-22 01:00:00,6211216,Arcos De Valdevez - Heliporto (CIM),41.831,-8.44375,,6.5,,0,0.3,,88.0,1004.8,
2026-01-22 01:00:00,6211218,Ponte De Lima - Anais (CIM),41.698083,-8.522444,12.6,6.9,1.4,8,,3.5,88.0,1004.2,NW
2026-01-22 01:00:00,6212121,Terras de Bouro/Barral (CIM),41.70225278,-8.31808611,9.0,6.4,,7,0.6,2.5,91.0,1003.0,W
2026-01-22 01:00:00,6212122,Amares Caldelas (CIM),41.66796389,-8.37977778,5.4,7.5,,5,2.2,1.5,95.0,1005.2,S
2026-01-22 01:00:00,6212123,Vila Verde (CIM),41.64686111,-8.43398056,7.2,8.3,,7,,2.0,91.0,1004.7,W
2026-01-22 01:00:00,6212124,Braga (CIM),41.53568333,-8.42514722,7.6,8.2,,8,0.6,2.1,89.0,1006.0,NW
2026-01-22 01:00:00,6212125,Barcelos (CIM),41.529375,-8.62705278,5.0,9.8,0.0,7,1.0,1.4,78.0,1006.0,W
2026-01-22 01:00:00,6212126,Esposende (CIM),41.52645556,-8.77984444,37.8,11.8,,8,0.0,10.5,92.0,1005.5,NW
2026-01-22 01:00:00,6213012,Carregal do Sal (CIM),40.46718056,-7.92626389,4.3,6.9,,7,,1.2,93.0,,W
2026-01-22 01:00:00,6213013,Castro Daire / Mézio (CIM),40.98086111,-7.88318889,30.2,3.1,,7,,8.4,97.0,,W
2026-01-22 01:00:00,6213014,Mangualde / Chãs de Tavares  (CIM),40.61096111,-7.60838889,11.9,4.5,,7,0.2,3.3,98.0,,W
2026-01-22 01:00:00,6213016,Oliveira de Frades (CIM),40.716925,-8.20133889,20.9,5.5,,6,,5.8,92.0,,SW
2026-01-22 01:00:00,6213017,Penalva do Castelo (CIM),40.65706389,-7.69655278,9.7,6.1,,6,0.1,2.7,95.0,,SW
2026-01-22 01:00:00,6213020,Satão (CIM),40.76072778,-7.72019722,21.6,4.5,,8,0.2,6.0,93.0,,NW
2026-01-22 01:00:00,6213022,Vila Nova de Paiva (CIM),40.85595,-7.72716389,7.9,3.2,,7,0.5,2.2,,,W
2026-01-22 01:00:00,6213611,Arganil / Aeródromo (CIM),40.274578,-7.974399,2.9,7.1,,4,0.1,0.8,96.0,,SE
2026-01-22 01:00:00,6213612,Cantanhede / Fonte Dom Pedro (CIM),40.341894,-8.577613,12.6,10.5,,8,0.0,3.5,79.0,,NW
2026-01-22 01:00:00,6213613,Coimbra / Mata de São Pedro (CIM),40.330787,-8.374887,8.6,7.2,,7,,2.4,93.0,,W
2026-01-22 01:00:00,6213614,Góis / Quinta da Ribeira (CIM),40.171642,-8.103238,2.9,,,4,,0.8,,,SE
2026-01-22 01:00:00,6213615,Mealhada / Quinta do Vale (CIM),40.373343,-8.4388429,7.6,9.7,,8,0.0,2.1,80.0,,NW
2026-01-22 01:00:00,6213616,Mortágua / Aeródromo (CIM),40.426239,-8.232142,13.0,8.1,,8,0.9,3.6,93.0,,NW
2026-01-22 01:00:00,6213617,Penacova / Hombres (CIM),40.280921,-8.198685,5.4,,,6,0.9,1.5,94.0,,SW
2026-01-22 01:00:00,6213619,Vila Nova de Poiares (CIM),40.211411,-8.241995,6.5,9.7,,4,0.0,1.8,84.0,,SE
2026-01-22 01:00:00,6213620,Oliveira do Hospital (CIM),40.413306,-7.867972,5.0,6.4,,6,0.2,1.4,95.0,,SW
2026-01-22 01:00:00,6213621,Soure (CIM),40.02927,-8.504909,31.7,5.3,,8,0.9,8.8,97.0,,NW
2026-01-22 01:00:00,6214119,Pedrógão Grande (CMPG),39.926573,-8.150912,14.4,7.5,,7,0.3,4.0,89.0,1007.5,W
2026-01-22 01:00:00,6215302,"Lisboa, Carnide (CML)",38.7751,-9.1855,15.8,11.8,,8,,4.4,80.0,1008.1,NW
2026-01-22 01:00:00,6215360,Oeiras / Vila Fria (CMO),38.7239536,-9.2939255,22.0,11.8,0.0,8,0.0,6.1,77.0,1008.7,NW
2026-01-22 01:00:00,7240919,"Lisboa, Amoreiras (LFCL)",38.7239,-9.1649,3.6,11.2,,7,0.0,1.0,87.0,1009.9,W
2026-01-22 02:00:00,11217160,Santa Maria / Praia Formosa (DROTRH),36.9542,-25.0917,10.4,15.8,2.7,5,0.0,2.9,100.0,,S
2026-01-22 02:00:00,11217165,Santa Maria / Maia (DROTRH),36.9412,-25.0176,10.4,15.8,0.0,7,0.0,2.9,96.0,,W
2026-01-22 02:00:00,11217225,São Miguel / Sete Cidades (DROTRH),37.8679,-25.772,15.8,14.9,0.0,6,0.0,4.4,100.0,,SW
2026-01-22 02:00:00,11217255,São Miguel / Lagoa das Furnas (DROTRH),37.7619,-25.3291,7.6,16.3,0.0,6,0.0,2.1,80.0,,SW
2026-01-22 02:00:00,11217370,Terceira / Ribeira das Nove (DROTRH),38.754,-27.3245,11.2,12.6,0.0,8,0.0,3.1,100.0,,NW
2026-01-22 02:00:00,11217372,Terceira / Serra do Cume (DROTRH),38.7002,-27.1031,38.2,14.2,0.0,7,0.0,10.6,100.0,,W
2026-01-22 02:00:00,11217430,Graciosa / Serra das Fontes (DROTRH),39.0672,-28.0038,31.0,14.5,0.0,8,0.0,8.6,100.0,,NW
2026-01-22 02:00:00,11217510,São Jorge / Pico do Areeiro (DROTRH),38.6435,-28.0591,40.7,12.2,0.0,6,0.2,11.3,100.0,,SW
2026-01-22 02:00:00,11217645,Pico / Cabecinho (DROTRH),38.4338,-28.1141,37.8,15.0,0.0,7,0.0,10.5,90.0,,W
2026-01-22 02:00:00,11217710,Faial / Alto do Cabouco (DROTRH),38.587,-28.6992,,12.4,0.0,3,0.3,,99.0,,E
2026-01-22 02:00:00,11217730,Faial / Cabeço Verde (DROTRH),38.5843,-28.7576,13.7,14.0,0.0,5,0.0,3.8,100.0,,S
2026-01-22 02:00:00,1200501,Flores (Aeródromo),39.45819,-31.1301,37.1,18.6,0.0,7,0.0,10.3,82.0,1014.5,W
2026-01-22 02:00:00,1200502,Corvo (Aeródromo),39.67389,-31.11362,45.0,17.6,156.7,7,0.0,12.5,90.0,1013.4,W
2026-01-22 02:00:00,1200504,Pico (Aeródromo),38.55219,-28.44137,32.8,17.0,0.0,7,0.1,9.1,93.0,1016.3,W
2026-01-22 02:00:00,1200505,Horta / Aeroporto,38.5211,-28.7128,35.3,17.1,,7,0.0,9.8,91.0,1017.0,W
2026-01-22 02:00:00,1200506,Horta (Obs. Principe Alberto),38.540781,-28.63225,38.2,16.8,0.0,7,0.0,10.6,98.0,1016.7,W
2026-01-22 02:00:00,1200511,Angra do Heroísmo,38.6659435,-27.216567,25.2,16.7,0.0,7,0.0,7.0,89.0,1016.3,W
2026-01-22 02:00:00,1200512,P. Delgada (Aeródromo),37.74414,-25.6953048,35.6,16.3,0.0,7,0.0,9.9,96.0,1018.0,W
2026-01-22 02:00:00,1200515,Santa Maria (Aeródromo),36.967175,-25.1679,36.7,16.7,0.0,7,0.0,10.2,95.0,1019.8,W
2026-01-22 02:00:00,1200521,Santa Catarina (Aeródromo),32.69688,-16.77612,,17.6,0.0,0,0.0,,83.0,1019.4,
2026-01-22 02:00:00,1200522,Funchal,32.64786,-16.888,1.8,17.2,0.0,0,0.0,0.5,74.0,1019.4,
2026-01-22 02:00:00,1200524,Porto Santo,33.074029,-16.34868,22.3,16.6,0.0,8,0.0,6.2,93.0,1018.9,NW
2026-01-22 02:00:00,1200531,Cabo Carvoeiro,39.38,-9.40737778,20.2,12.7,,8,0.4,5.6,78.0,1008.4,NW
2026-01-22 02:00:00,1200533,Sagres,37.012835,-8.949089,32.8,14.0,,8,0.0,9.1,68.0,1010.3,NW
2026-01-22 02:00:00,1200535,Lisboa (Geofísico),38.71907778,-9.14972222,10.8,12.0,0.0,6,0.0,3.0,79.0,1009.2,SW
2026-01-22 02:00:00,1200541,Sines,37.954504,-8.838271,33.5,12.0,0.0,8,0.4,9.3,99.0,1009.7,NW
2026-01-22 02:00:00,1200545,"Porto, Pedras Rubras (Aeródromo)",41.233502,-8.681332,21.6,11.0,0.0,8,0.0,6.0,75.0,1005.6,NW
2026-01-22 02:00:00,1200548,Coimbra (Aeródromo),40.15006944,-8.46669167,4.3,8.7,0.0,8,0.3,1.2,91.0,1007.6,NW
2026-01-22 02:00:00,1200551,"Viana Castelo, Chafé",41.648875,-8.804606,13.3,10.2,0.0,8,0.0,3.7,90.0,1005.1,NW
2026-01-22 02:00:00,1200554,Faro (Aeródromo),37.016579,-7.971953,16.9,12.8,0.0,7,0.0,4.7,76.0,1009.5,W
2026-01-22 02:00:00,1200558,Évora (C.Coordenação),38.53336389,-7.88338056,13.7,8.9,0.0,7,0.0,3.8,,1008.8,W
2026-01-22 02:00:00,1200559,Viseu (Aeródromo),40.72645,-7.887472,16.9,5.5,,7,0.2,4.7,85.0,1006.2,W
2026-01-22 02:00:00,1200560,Viseu (C.Coordenação),40.71492222,-7.89592222,18.4,4.7,,7,0.2,5.1,96.0,1006.9,W
2026-01-22 02:00:00,1200562,Beja,38.02493056,-7.867275,19.4,9.4,0.0,7,0.0,5.4,99.0,1008.2,W
2026-01-22 02:00:00,1200567,Vila Real,41.27418611,-7.7171,7.2,5.0,0.0,8,0.9,2.0,96.0,1005.6,NW
2026-01-22 02:00:00,1200568,Penhas Douradas,40.41136667,-7.55865278,30.2,0.2,0.0,7,,8.4,100.0,,W
2026-01-22 02:00:00,1200570,Castelo Branco,39.83339444,-7.46678889,17.3,7.6,0.0,7,0.0,4.8,95.0,1005.5,W
2026-01-22 02:00:00,1200571,Portalegre,39.29546944,-7.41996944,23.0,5.4,0.0,8,0.0,6.4,100.0,1008.0,NW
2026-01-22 02:00:00,1200575,Bragança,41.80388889,-6.74283889,22.0,4.0,0.0,7,0.0,6.1,81.0,1003.3,W
2026-01-22 02:00:00,1200576,Bragança (Aeródromo),41.85763611,-6.70796389,17.3,4.2,,7,0.0,4.8,87.0,1003.0,W
2026-01-22 02:00:00,1200843,Évora (Aeródromo),38.5296,-7.8916,11.2,9.1,,7,0.0,3.1,90.0,1008.5,W
2026-01-22 02:00:00,1210513,P. Delgada (Obs. A. Chaves),37.7464,-25.662283,7.9,16.5,5.6,6,0.0,2.2,,,SW
2026-01-22 02:00:00,1210517,Flores / Morro Alto,39.4633,-31.2207,77.0,12.2,,6,0.5,21.4,100.0,1010.2,SW
2026-01-22 02:00:00,1210518,São Miguel - Pico Santos De Cima,37.819,-25.7512,67.7,12.1,,7,0.3,18.8,100.0,1017.0,W
2026-01-22 02:00:00,1210520,Ilhas selvagens,30.140595,-15.869153,24.1,17.2,0.0,8,0.0,6.7,86.0,1020.3,NW
2026-01-22 02:00:00,1210550,Coruche / Cruz Do Leão,39.07101,-8.4,7.9,9.3,,8,0.0,2.2,88.0,1008.2,NW
2026-01-22 02:00:00,1210553,Loulé / Cavalos De Caldeirão,37.3042,-7.9534,24.8,8.2,,8,0.7,6.9,99.0,1010.2,NW
2026-01-22 02:00:00,1210577,"Odemira, S.Teotónio",37.54710833,-8.72899167,17.6,12.0,0.0,7,0.0,4.9,83.0,,W
2026-01-22 02:00:00,1210604,V.N.Cerveira (Aeródromo),41.96673056,-8.66676111,6.1,8.4,0.0,6,0.4,1.7,93.0,1004.8,SW
2026-01-22 02:00:00,1210605,"Monção, Valinha",42.06669,-8.383347,7.9,8.0,0.0,5,0.2,2.2,92.0,,S
2026-01-22 02:00:00,1210606,"Lamas de Mouro, P.Ribeiro",42.03333333,-8.18333333,14.8,2.9,0.0,7,2.2,4.1,100.0,1006.1,W
2026-01-22 02:00:00,1210611,Montalegre,41.82276667,-7.78797778,15.8,2.2,0.0,7,1.5,4.4,99.0,,W
2026-01-22 02:00:00,1210612,Vinhais,41.8434,-7.0034416,10.4,3.1,,7,0.0,2.9,100.0,,W
2026-01-22 02:00:00,1210615,Ponte de Lima,41.75013889,-8.56671389,4.3,8.8,0.0,7,0.5,1.2,90.0,,W
2026-01-22 02:00:00,1210616,Chaves (Aeródromo),41.72516667,-7.46540833,3.2,5.7,0.0,7,0.0,0.9,93.0,1004.1,W
2026-01-22 02:00:00,1210619,Cabril,41.71666667,-8.01666667,18.7,5.0,,7,0.3,5.2,98.0,,W
2026-01-22 02:00:00,1210622,"Braga, Merelim",41.56678056,-8.45003056,6.1,7.5,0.0,5,0.1,1.7,95.0,1005.6,S
2026-01-22 02:00:00,1210625,Guimarães,41.4289,-8.3178,,7.8,0.0,0,,,86.0,1005.5,
2026-01-22 02:00:00,1210630,Cabeceiras de Basto,41.53333333,-7.96666667,5.4,7.2,0.0,7,0.8,1.5,95.0,,W
2026-01-22 02:00:00,1210632,Mirandela,41.51478611,-7.19083889,5.8,7.8,0.0,3,0.0,1.6,75.0,,E
2026-01-22 02:00:00,1210633,"Macedo Cavaleiros, Bagueixe",41.56666667,-6.78333333,22.3,3.2,,7,0.1,6.2,96.0,,W
2026-01-22 02:00:00,1210635,Miranda do Douro,41.51666667,-6.28333333,22.7,5.0,,7,0.0,6.3,87.0,,W
2026-01-22 02:00:00,1210637,Mogadouro,41.33333333,-6.73333333,24.5,3.7,0.0,7,0.0,6.8,99.0,,W
2026-01-22 02:00:00,1210643,Paços Ferreira,41.27365,-8.38012,10.8,7.2,,7,0.4,3.0,88.0,,W
2026-01-22 02:00:00,1210644,Carrazêda de Ansiães,41.23333333,-7.28333333,8.3,4.4,0.0,6,0.0,2.3,88.0,,SW
2026-01-22 02:00:00,1210654,Moncorvo,41.18333333,-7.01666667,16.2,6.5,0.0,7,0.0,4.5,77.0,1005.0,W
2026-01-22 02:00:00,1210655,"Pinhão, Santa Bárbara",41.172775,-7.5489722,5.4,8.2,,2,1.1,1.5,84.0,,NE
2026-01-22 02:00:00,1210657,Luzim,41.14585,-8.2490333,2.9,6.3,0.1,6,1.0,0.8,92.0,,SW
2026-01-22 02:00:00,1210663,Moimenta da Beira,40.98333333,-7.6,22.0,4.3,0.0,8,0.9,6.1,93.0,,NW
2026-01-22 02:00:00,1210666,"Trancoso, Bandarra",40.78333333,-7.36666667,20.9,3.7,0.0,6,0.0,5.8,97.0,,SW
2026-01-22 02:00:00,1210669,Arouca,40.93333333,-8.25,8.6,8.6,0.0,6,0.3,2.4,87.0,,SW
2026-01-22 02:00:00,1210671,"F. Castelo Rodrigo, V.Torpim",40.75,-6.88333333,14.4,4.3,0.0,7,0.0,4.0,94.0,,W
2026-01-22 02:00:00,1210683,Guarda,40.53333333,-7.26666667,28.4,2.3,4.3,7,0.3,7.9,99.0,,W
2026-01-22 02:00:00,1210685,Nelas,40.51666667,-7.85,4.3,5.9,0.0,7,0.0,1.2,94.0,,W
2026-01-22 02:00:00,1210686,"Pampilhosa da Serra, Fajão",40.145653,-7.92704,29.5,3.8,,8,0.4,8.2,100.0,,NW
2026-01-22 02:00:00,1210687,Covilhã (Aeródromo),40.264309,-7.482302,23.8,8.3,0.0,8,,6.6,62.0,,NW
2026-01-22 02:00:00,1210690,Aldeia Souto (Q. Lageosa),40.35425833,-7.38931111,9.0,7.7,1.1,8,0.7,2.5,64.0,,NW
2026-01-22 02:00:00,1210697,Lousã (Aeródromo),40.143922,-8.244066,9.4,9.5,,7,0.3,2.6,87.0,,W
2026-01-22 02:00:00,1210698,Fundão,40.14063611,-7.55362778,14.8,6.6,0.0,8,0.0,4.1,84.0,,NW
2026-01-22 02:00:00,1210702,Aveiro (Universidade),40.63529722,-8.65958333,19.4,11.1,0.0,8,0.0,5.4,79.0,1006.9,NW
2026-01-22 02:00:00,1210704,Dunas de Mira,40.445955,-8.76168055,12.2,11.9,0.0,8,0.0,3.4,74.0,,NW
2026-01-22 02:00:00,1210705,Anadia,40.438852,-8.439996,2.2,9.0,0.7,6,0.9,0.6,89.0,,SW
2026-01-22 02:00:00,1210707,"Coimbra, Bencanta",40.2134694,-8.45515277,4.3,9.5,0.7,6,0.5,1.2,100.0,,SW
2026-01-22 02:00:00,1210713,"Figueira da Foz, Vila Verde",40.139764,-8.805945,8.3,11.4,0.0,8,0.0,2.3,,,NW
2026-01-22 02:00:00,1210716,Ansião,39.9,-8.4,10.1,7.0,0.0,7,1.6,2.8,96.0,,W
2026-01-22 02:00:00,1210718,Leiria (Aeródromo),39.780553,-8.818166,10.8,11.5,0.2,8,0.0,3.0,79.0,1007.9,NW
2026-01-22 02:00:00,1210724,"Tomar, Valdonas",39.6,-8.36666667,2.5,8.3,313.9,4,0.0,0.7,94.0,,SE
2026-01-22 02:00:00,1210726,Alcobaça,39.51666667,-8.96666667,11.9,12.0,0.0,7,0.0,3.3,73.0,,W
2026-01-22 02:00:00,1210729,Rio Maior,39.35,-8.93333333,11.9,10.3,24.1,8,0.0,3.3,83.0,,NW
2026-01-22 02:00:00,1210734,"Santarém, Fonte Boa",39.201216,-8.736656,4.7,9.3,0.0,5,0.0,1.3,87.0,1008.6,S
2026-01-22 02:00:00,1210735,Chamusca / Chouto,39.27,-8.3508,7.2,9.8,,7,0.0,2.0,82.0,1008.0,W
2026-01-22 02:00:00,1210739,"Torres Vedras, Dois Portos",39.04389444,-9.179,16.6,11.5,0.0,8,0.0,4.6,79.0,,NW
2026-01-22 02:00:00,1210744,Coruche,38.94096667,-8.51073611,8.6,10.6,0.0,6,0.0,2.4,,,SW
2026-01-22 02:00:00,1210746,Santa Cruz (Aeródromo),39.12594166,-9.3790388,25.2,11.2,0.0,8,0.0,7.0,79.0,1008.9,NW
2026-01-22 02:00:00,1210750,Cabo da Roca,38.78171,-9.4975361,19.1,11.5,0.1,0,0.0,5.3,85.0,,
2026-01-22 02:00:00,1210752,Sintra/Tapada do Mouco,38.781669,-9.400398,15.1,8.1,,8,0.0,4.2,96.0,,NW
2026-01-22 02:00:00,1210762,"Lisboa, Tapada da Ajuda",38.70956111,-9.182825,7.9,12.1,0.0,6,0.0,2.2,72.0,,SW
2026-01-22 02:00:00,1210765,Cabo Raso,38.70900833,-9.48538333,28.1,13.6,,8,0.0,7.8,80.0,,NW
2026-01-22 02:00:00,1210766,"Barreiro, Lavradio",38.67448611,-9.04766111,17.6,13.5,0.0,8,0.0,4.9,68.0,,NW
2026-01-22 02:00:00,1210767,Pegões,38.65079,-8.63503,8.3,11.1,0.0,8,0.0,2.3,100.0,,NW
2026-01-22 02:00:00,1210770,Setúbal,38.54846008,-8.89077058,13.0,12.5,0.0,8,0.0,3.6,69.0,,NW
2026-01-22 02:00:00,1210773,"Almada, P.Rainha",38.617111,-9.212804,14.0,,0.0,8,0.0,3.9,,,NW
2026-01-22 02:00:00,1210776,"Alcácer do Sal, Barrosinha",38.36666667,-8.48333333,7.6,11.7,0.0,7,0.0,2.1,83.0,,W
2026-01-22 02:00:00,1210783,Alvalade,37.946806,-8.394504,18.0,11.8,0.0,7,0.0,5.0,80.0,,W
2026-01-22 02:00:00,1210785,Ourique / Santana Da Serra,37.5025,-8.3019,17.3,10.8,0.2,6,0.0,4.8,85.0,1009.9,SW
2026-01-22 02:00:00,1210789,Aljezur,37.31675278,-8.80001667,6.8,13.8,3.7,8,0.0,1.9,79.0,,NW
2026-01-22 02:00:00,1210790,Fóia,37.3143,-8.595733,66.6,6.4,0.4,8,0.2,18.5,100.0,,NW
2026-01-22 02:00:00,1210800,"Sabugal, Martim Rei",40.33918056,-7.03693333,14.0,4.3,0.0,7,0.0,3.9,86.0,,W
2026-01-22 02:00:00,1210803,Zebreira,39.86666667,-7.01666667,16.6,7.0,0.0,7,0.0,4.6,80.0,,W
2026-01-22 02:00:00,1210806,"Proença-a-Nova, P.Moitas",39.73333333,-7.86666667,25.6,7.0,5.4,8,0.3,7.1,95.0,,NW
2026-01-22 02:00:00,1210812,Alvega,39.46666667,-8.05,4.0,9.0,,7,0.0,1.1,94.0,,W
2026-01-22 02:00:00,1210824,"Avis, Benavila",39.1,-7.86666667,13.0,9.6,0.0,7,0.0,3.6,98.0,,W
2026-01-22 02:00:00,1210826,Mora,38.94068,-8.16406,10.8,9.8,0.0,7,0.0,3.0,85.0,,W
2026-01-22 02:00:00,1210835,Elvas,38.8908,-7.13976111,28.1,9.4,0.0,8,0.0,7.8,84.0,,NW
2026-01-22 02:00:00,1210837,Estremoz,38.86666667,-7.51666667,17.3,7.8,0.0,7,0.0,4.8,100.0,,W
2026-01-22 02:00:00,1210840,"Reguengos, S. P. do Corval",38.484866,-7.4729166,15.5,8.4,0.0,7,0.0,4.3,94.0,,W
2026-01-22 02:00:00,1210846,Montemor-O-Novo,38.6451,-8.1991,9.0,9.0,,7,0.0,2.5,93.0,1009.8,W
2026-01-22 02:00:00,1210847,Viana do Alentejo,38.3319194,-8.04553888,7.6,9.5,0.0,7,,2.1,88.0,,W
2026-01-22 02:00:00,1210848,"Portel, Oriola",38.31666667,-7.86666667,10.4,9.6,,7,0.0,2.9,88.0,,W
2026-01-22 02:00:00,1210851,Amareleja,38.2007,-7.2261,7.6,,0.0,6,0.0,2.1,,1008.0,SW
2026-01-22 02:00:00,1210863,"Mértola, Vale Formoso",37.75,-7.55,15.8,10.5,3.4,8,0.0,4.4,85.0,,NW
2026-01-22 02:00:00,1210864,"Castro Verde, N.Corvo",37.57655833,-7.97211389,18.0,10.5,0.0,8,0.0,5.0,99.0,,NW
2026-01-22 02:00:00,1210865,"Alcoutim, Mart.Longo",37.43333333,-7.76666667,21.6,10.4,,8,0.0,6.0,85.0,1009.6,NW
2026-01-22 02:00:00,1210866,Vila Real de S.António,37.1871055,-7.416325,,13.3,,0,0.0,,75.0,,
2026-01-22 02:00:00,1210867,Castro Marim (RN Sapal),37.21666667,-7.45,21.6,13.1,0.0,8,0.0,6.0,79.0,,NW
2026-01-22 02:00:00,1210878,Portimão (Aeródromo),37.149167,-8.581389,15.8,13.7,0.0,8,0.0,4.4,74.0,1009.9,NW
2026-01-22 02:00:00,1210881,"Olhão, EPPO",37.033,-7.821,6.8,12.9,0.0,7,0.0,1.9,77.0,1010.3,W
2026-01-22 02:00:00,1210932,"S. Miguel, Nordeste",37.83256,-25.150108,26.3,17.0,,8,0.0,7.3,83.0,,NW
2026-01-22 02:00:00,1210956,"Madeira, Porto Moniz",32.867477,-17.171373,,17.2,1.6,0,0.7,,95.0,,
2026-01-22 02:00:00,1210960,"Madeira, S. Jorge, Santana",32.83446944,-16.906219,33.8,15.1,0.0,8,0.9,9.4,100.0,1019.7,NW
2026-01-22 02:00:00,1210965,"Madeira, Santana",32.808238,-16.8864166,,14.1,28.5,0,1.0,,100.0,,
2026-01-22 02:00:00,1210967,"Madeira, São Vicente",32.8001833,-17.044722,,16.2,0.0,0,1.3,,97.0,,
2026-01-22 02:00:00,1210972,"Madeira, Pico Alto",32.693491,-16.903955,2.5,11.1,0.0,8,,0.7,,,NW
2026-01-22 02:00:00,1210973,"Madeira, Areeiro",32.71666667,-16.91666667,2.9,8.7,4.2,8,0.0,0.8,94.0,,NW
2026-01-22 02:00:00,1210974,"Madeira, Pico do Areeiro",32.735107,-16.928271,,7.1,,0,0.0,,100.0,,
2026-01-22 02:00:00,1210975,"Madeira, Santo da Serra",32.7258972,-16.816822,,12.7,0.0,0,0.1,,100.0,,
2026-01-22 02:00:00,1210976,"Madeira, Monte",32.675833,-16.906944,2.9,13.0,0.8,2,0.0,0.8,94.0,,NE
2026-01-22 02:00:00,1210977,"Madeira, Cancela",32.64500556,-16.86575,6.5,15.5,0.0,3,0.0,1.8,94.0,,E
2026-01-22 02:00:00,1210978,"Madeira, S. Lourenço",32.747,-16.706,28.1,16.6,0.0,1,0.0,7.8,98.0,,N
2026-01-22 02:00:00,1210984,"Madeira, Quinta Grande",32.6629722,-17.01503611,,14.1,0.0,0,0.0,,80.0,,
2026-01-22 02:00:00,1210986,Ponta do Sol/Lugar de Baixo,32.681502,-17.104167,3.2,17.2,0.0,8,0.0,0.9,81.0,,NW
2026-01-22 02:00:00,1210987,Prazeres (Calheta),32.757205,-17.201551,23.0,13.3,0.0,9,0.6,6.4,100.0,,N
2026-01-22 02:00:00,1240546,"Porto, Serra do Pilar",41.1385194,-8.6025,,10.7,,0,0.0,,83.0,1005.3,
2026-01-22 02:00:00,1240566,Vila Real (Cidade),41.30898056,-7.740522,15.1,6.0,,8,1.3,4.2,89.0,,NW
2026-01-22 02:00:00,1240610,Viana do Castelo,41.695,-8.82916,,10.3,,0,0.9,,80.0,,
2026-01-22 02:00:00,1240675,Viseu (Cidade),40.662738,-7.9039694,,6.0,,0,1.2,,91.0,,
2026-01-22 02:00:00,1240903,"Porto, Massarelos",41.15257,-8.62598,,10.7,,0,,,82.0,,
2026-01-22 02:00:00,1240971,"Madeira, Funchal, Lido",32.63655,-16.935592,0.0,17.8,0.0,0,0.0,0.0,77.0,,
2026-01-22 02:00:00,1259203,Seia/Aeródromo,40.45517056,-7.68614846,,6.6,,0,,,91.0,1007.3,
2026-01-22 02:00:00,1259204,Seia/Senhora do Espinheiro,40.412775,-7.673406,9.7,2.5,,7,0.0,2.7,100.0,1008.0,W
2026-01-22 02:00:00,5210758,Alcochete / Campo Tiro,38.7627,-8.7825,11.2,11.1,,8,0.0,3.1,81.0,1008.6,NW
2026-01-22 02:00:00,6210817,Ponte de Sôr / Aeródromo,39.21536,-8.05417,10.4,9.7,,5,,2.9,80.0,1007.6,S
2026-01-22 02:00:00,6210872,Loulé (CML),37.129946,-8.06523593,11.9,12.4,,7,0.0,3.3,77.0,1009.9,W
2026-01-22 02:00:00,6210879,Portimão (Praia da Rocha),37.11670461,-8.52946314,13.0,13.8,,7,0.0,3.6,77.0,,W
2026-01-22 02:00:00,6211211,Monção - Guimil (CIM),42.042944,-8.421872,16.9,,0.4,7,,4.7,,1003.5,W
2026-01-22 02:00:00,6211213,Paredes De Coura - Vascões (CIM),41.913444,-8.492111,6.1,4.4,0.4,7,,1.7,97.0,1004.5,W
2026-01-22 02:00:00,6211216,Arcos De Valdevez - Heliporto (CIM),41.831,-8.44375,7.6,6.9,,5,0.9,2.1,85.0,1005.3,S
2026-01-22 02:00:00,6211218,Ponte De Lima - Anais (CIM),41.698083,-8.522444,10.8,6.8,2.2,8,,3.0,89.0,1004.5,NW
2026-01-22 02:00:00,6212121,Terras de Bouro/Barral (CIM),41.70225278,-8.31808611,6.8,6.4,,7,0.9,1.9,91.0,1003.3,W
2026-01-22 02:00:00,6212122,Amares Caldelas (CIM),41.66796389,-8.37977778,3.2,7.4,,2,0.7,0.9,94.0,1005.5,NE
2026-01-22 02:00:00,6212123,Vila Verde (CIM),41.64686111,-8.43398056,2.9,7.9,,3,,0.8,90.0,1005.0,E
2026-01-22 02:00:00,6212124,Braga (CIM),41.53568333,-8.42514722,11.9,8.4,,7,0.5,3.3,86.0,1006.2,W
2026-01-22 02:00:00,6212125,Barcelos (CIM),41.529375,-8.62705278,8.3,10.0,,7,1.2,2.3,82.0,1006.2,W
2026-01-22 02:00:00,6212126,Esposende (CIM),41.52645556,-8.77984444,37.8,11.6,,8,0.2,10.5,92.0,1005.6,NW
2026-01-22 02:00:00,6213012,Carregal do Sal (CIM),40.46718056,-7.92626389,4.0,6.3,,7,,1.1,94.0,,W
2026-01-22 02:00:00,6213013,Castro Daire / Mézio (CIM),40.98086111,-7.88318889,35.6,3.1,,7,,9.9,96.0,,W
2026-01-22 02:00:00,6213014,Mangualde / Chãs de Tavares  (CIM),40.61096111,-7.60838889,13.3,4.2,,6,0.0,3.7,98.0,,SW
2026-01-22 02:00:00,6213016,Oliveira de Frades (CIM),40.716925,-8.20133889,16.2,5.8,,6,,4.5,90.0,,SW
2026-01-22 02:00:00,6213017,Penalva do Castelo (CIM),40.65706389,-7.69655278,14.4,5.9,,6,0.0,4.0,96.0,,SW
2026-01-22 02:00:00,6213020,Satão (CIM),40.76072778,-7.72019722,18.7,4.4,,7,0.0,5.2,91.0,,W
2026-01-22 02:00:00,6213022,Vila Nova de Paiva (CIM),40.85595,-7.72716389,5.8,3.3,,7,1.3,1.6,,,W
2026-01-22 02:00:00,6213611,Arganil / Aeródromo (CIM),40.274578,-7.974399,7.6,7.3,,7,1.3,2.1,96.0,,W
2026-01-22 02:00:00,6213612,Cantanhede / Fonte Dom Pedro (CIM),40.341894,-8.577613,5.4,9.5,,8,1.1,1.5,87.0,,NW
2026-01-22 02:00:00,6213613,Coimbra / Mata de São Pedro (CIM),40.330787,-8.374887,6.1,6.8,,7,,1.7,94.0,,W
2026-01-22 02:00:00,6213614,Góis / Quinta da Ribeira (CIM),40.171642,-8.103238,5.4,,,3,,1.5,,,E
2026-01-22 02:00:00,6213615,Mealhada / Quinta do Vale (CIM),40.373343,-8.4388429,3.2,9.0,,7,0.7,0.9,85.0,,W
2026-01-22 02:00:00,6213616,Mortágua / Aeródromo (CIM),40.426239,-8.232142,8.3,7.9,,8,1.0,2.3,94.0,,NW
2026-01-22 02:00:00,6213617,Penacova / Hombres (CIM),40.280921,-8.198685,4.0,,,6,0.0,1.1,95.0,,SW
2026-01-22 02:00:00,6213619,Vila Nova de Poiares (CIM),40.211411,-8.241995,6.1,9.3,,6,0.7,1.7,84.0,,SW
2026-01-22 02:00:00,6213620,Oliveira do Hospital (CIM),40.413306,-7.867972,10.1,6.3,,5,0.1,2.8,95.0,,S
2026-01-22 02:00:00,6213621,Soure (CIM),40.02927,-8.504909,23.0,5.5,,8,1.1,6.4,98.0,,NW
2026-01-22 02:00:00,6215302,"Lisboa, Carnide (CML)",38.7751,-9.1855,12.6,11.4,,8,,3.5,82.0,1008.5,NW
2026-01-22 02:00:00,6215360,Oeiras / Vila Fria (CMO),38.7239536,-9.2939255,24.1,11.8,0.0,8,0.0,6.7,79.0,1009.2,NW
2026-01-22 02:00:00,7240919,"Lisboa, Amoreiras (LFCL)",38.7239,-9.1649,9.4,11.2,,8,0.0,2.6,88.0,1009.9,NW
2026-01-22 03:00:00,11217160,Santa Maria / Praia Formosa (DROTRH),36.9542,-25.0917,10.1,16.0,0.7,2,0.0,2.8,100.0,,NE
2026-01-22 03:00:00,11217165,Santa Maria / Maia (DROTRH),36.9412,-25.0176,21.6,16.0,0.5,7,0.0,6.0,96.0,,W
2026-01-22 03:00:00,11217225,São Miguel / Sete Cidades (DROTRH),37.8679,-25.772,21.2,14.8,0.0,6,0.0,5.9,100.0,,SW
2026-01-22 03:00:00,11217255,São Miguel / Lagoa das Furnas (DROTRH),37.7619,-25.3291,6.5,16.3,0.0,5,0.0,1.8,80.0,,S
2026-01-22 03:00:00,11217370,Terceira / Ribeira das Nove (DROTRH),38.754,-27.3245,10.8,12.6,0.0,7,0.0,3.0,100.0,,W
2026-01-22 03:00:00,11217372,Terceira / Serra do Cume (DROTRH),38.7002,-27.1031,45.4,14.3,0.0,7,0.0,12.6,100.0,,W
2026-01-22 03:00:00,11217430,Graciosa / Serra das Fontes (DROTRH),39.0672,-28.0038,33.5,14.4,0.0,8,0.0,9.3,100.0,,NW
2026-01-22 03:00:00,11217510,São Jorge / Pico do Areeiro (DROTRH),38.6435,-28.0591,46.4,12.1,0.0,6,0.2,12.9,100.0,,SW
2026-01-22 03:00:00,11217645,Pico / Cabecinho (DROTRH),38.4338,-28.1141,47.2,14.4,0.0,7,0.0,13.1,97.0,,W
2026-01-22 03:00:00,11217710,Faial / Alto do Cabouco (DROTRH),38.587,-28.6992,,12.4,0.0,4,0.1,,99.0,,SE
2026-01-22 03:00:00,11217730,Faial / Cabeço Verde (DROTRH),38.5843,-28.7576,13.0,13.9,0.0,5,0.1,3.6,100.0,,S
2026-01-22 03:00:00,1200501,Flores (Aeródromo),39.45819,-31.1301,33.8,18.7,0.0,7,0.0,9.4,80.0,1014.3,W
2026-01-22 03:00:00,1200502,Corvo (Aeródromo),39.67389,-31.11362,48.2,17.6,0.0,7,0.0,13.4,90.0,1013.0,W
2026-01-22 03:00:00,1200504,Pico (Aeródromo),38.55219,-28.44137,36.4,17.2,0.0,7,0.0,10.1,90.0,1015.6,W
2026-01-22 03:00:00,1200505,Horta / Aeroporto,38.5211,-28.7128,30.6,17.3,,7,0.0,8.5,88.0,1016.3,W
2026-01-22 03:00:00,1200506,Horta (Obs. Principe Alberto),38.540781,-28.63225,44.6,17.0,0.0,7,0.0,12.4,95.0,1015.6,W
2026-01-22 03:00:00,1200510,São Jorge,38.66,-28.17,18.0,,,7,,5.0,,,W
2026-01-22 03:00:00,1200511,Angra do Heroísmo,38.6659435,-27.216567,28.4,16.7,0.0,7,0.0,7.9,90.0,1015.5,W
2026-01-22 03:00:00,1200512,P. Delgada (Aeródromo),37.74414,-25.6953048,41.4,16.3,0.0,7,0.0,11.5,95.0,1017.1,W
2026-01-22 03:00:00,1200515,Santa Maria (Aeródromo),36.967175,-25.1679,40.7,16.8,0.0,7,0.0,11.3,95.0,1019.4,W
2026-01-22 03:00:00,1200521,Santa Catarina (Aeródromo),32.69688,-16.77612,,17.3,0.0,0,0.0,,85.0,1019.0,
2026-01-22 03:00:00,1200522,Funchal,32.64786,-16.888,3.2,17.0,0.0,9,0.0,0.9,77.0,1019.3,N
2026-01-22 03:00:00,1200524,Porto Santo,33.074029,-16.34868,19.8,16.6,0.2,8,0.0,5.5,94.0,1018.7,NW
2026-01-22 03:00:00,1200531,Cabo Carvoeiro,39.38,-9.40737778,18.0,12.6,,8,0.3,5.0,81.0,1008.5,NW
2026-01-22 03:00:00,1200533,Sagres,37.012835,-8.949089,31.3,14.1,,8,0.0,8.7,65.0,1010.3,NW
2026-01-22 03:00:00,1200535,Lisboa (Geofísico),38.71907778,-9.14972222,11.2,11.2,0.0,7,0.2,3.1,98.0,1009.4,W
2026-01-22 03:00:00,1200541,Sines,37.954504,-8.838271,26.3,12.1,0.0,8,0.0,7.3,94.0,1009.7,NW
2026-01-22 03:00:00,1200545,"Porto, Pedras Rubras (Aeródromo)",41.233502,-8.681332,20.9,10.3,0.0,8,0.0,5.8,80.0,1006.1,NW
2026-01-22 03:00:00,1200548,Coimbra (Aeródromo),40.15006944,-8.46669167,6.1,8.7,0.0,6,0.0,1.7,89.0,1007.8,SW
2026-01-22 03:00:00,1200551,"Viana Castelo, Chafé",41.648875,-8.804606,10.8,10.8,0.0,8,0.0,3.0,86.0,1005.4,NW
2026-01-22 03:00:00,1200554,Faro (Aeródromo),37.016579,-7.971953,11.5,13.2,0.0,8,0.0,3.2,77.0,1009.9,NW
2026-01-22 03:00:00,1200558,Évora (C.Coordenação),38.53336389,-7.88338056,14.8,8.5,0.0,7,0.0,4.1,64.0,1008.9,W
2026-01-22 03:00:00,1200559,Viseu (Aeródromo),40.72645,-7.887472,13.3,5.4,,8,0.0,3.7,88.0,1006.6,NW
2026-01-22 03:00:00,1200560,Viseu (C.Coordenação),40.71492222,-7.89592222,14.0,4.7,,7,0.0,3.9,97.0,1007.3,W
2026-01-22 03:00:00,1200562,Beja,38.02493056,-7.867275,16.2,8.8,0.0,7,0.0,4.5,100.0,1008.2,W
2026-01-22 03:00:00,1200567,Vila Real,41.27418611,-7.7171,3.6,5.4,0.0,8,0.2,1.0,92.0,1005.8,NW
2026-01-22 03:00:00,1200568,Penhas Douradas,40.41136667,-7.55865278,27.4,0.2,0.0,7,,7.6,100.0,,W
2026-01-22 03:00:00,1200570,Castelo Branco,39.83339444,-7.46678889,18.0,7.6,0.0,8,0.0,5.0,95.0,1005.8,NW
2026-01-22 03:00:00,1200571,Portalegre,39.29546944,-7.41996944,23.0,5.2,0.0,8,0.0,6.4,100.0,1008.0,NW
2026-01-22 03:00:00,1200575,Bragança,41.80388889,-6.74283889,19.8,3.7,0.0,7,0.0,5.5,84.0,1004.5,W
2026-01-22 03:00:00,1200576,Bragança (Aeródromo),41.85763611,-6.70796389,19.4,3.9,,7,0.0,5.4,90.0,1003.9,W
2026-01-22 03:00:00,1200843,Évora (Aeródromo),38.5296,-7.8916,11.2,8.7,,7,0.0,3.1,88.0,1008.6,W
2026-01-22 03:00:00,1210513,P. Delgada (Obs. A. Chaves),37.7464,-25.662283,8.3,16.4,4.5,6,0.0,2.3,,,SW
2026-01-22 03:00:00,1210517,Flores / Morro Alto,39.4633,-31.2207,70.9,12.3,,6,0.7,19.7,100.0,1009.5,SW
2026-01-22 03:00:00,1210518,São Miguel - Pico Santos De Cima,37.819,-25.7512,68.0,11.8,,7,0.2,18.9,100.0,1015.9,W
2026-01-22 03:00:00,1210520,Ilhas selvagens,30.140595,-15.869153,16.9,16.7,0.2,8,0.0,4.7,92.0,1020.0,NW
2026-01-22 03:00:00,1210550,Coruche / Cruz Do Leão,39.07101,-8.4,6.8,8.6,,8,0.0,1.9,92.0,1008.5,NW
2026-01-22 03:00:00,1210553,Loulé / Cavalos De Caldeirão,37.3042,-7.9534,16.6,7.5,,8,0.0,4.6,98.0,1010.6,NW
2026-01-22 03:00:00,1210577,"Odemira, S.Teotónio",37.54710833,-8.72899167,20.5,12.2,0.0,8,0.0,5.7,85.0,,NW
2026-01-22 03:00:00,1210604,V.N.Cerveira (Aeródromo),41.96673056,-8.66676111,6.5,7.7,0.0,5,0.0,1.8,97.0,1005.0,S
2026-01-22 03:00:00,1210605,"Monção, Valinha",42.06669,-8.383347,5.4,8.1,0.0,5,0.6,1.5,92.0,,S
2026-01-22 03:00:00,1210606,"Lamas de Mouro, P.Ribeiro",42.03333333,-8.18333333,13.0,3.1,0.0,7,3.3,3.6,100.0,1006.2,W
2026-01-22 03:00:00,1210611,Montalegre,41.82276667,-7.78797778,16.9,2.3,0.0,7,0.1,4.7,98.0,,W
2026-01-22 03:00:00,1210612,Vinhais,41.8434,-7.0034416,20.5,2.8,,7,0.5,5.7,100.0,,W
2026-01-22 03:00:00,1210615,Ponte de Lima,41.75013889,-8.56671389,7.2,8.0,0.0,5,0.0,2.0,94.0,,S
2026-01-22 03:00:00,1210616,Chaves (Aeródromo),41.72516667,-7.46540833,4.7,5.8,0.0,5,0.0,1.3,91.0,1004.8,S
2026-01-22 03:00:00,1210619,Cabril,41.71666667,-8.01666667,14.0,5.0,,7,0.4,3.9,98.0,,W
2026-01-22 03:00:00,1210622,"Braga, Merelim",41.56678056,-8.45003056,3.6,8.2,0.0,6,0.0,1.0,94.0,1006.0,SW
2026-01-22 03:00:00,1210625,Guimarães,41.4289,-8.3178,,7.7,0.0,0,,,88.0,1006.0,
2026-01-22 03:00:00,1210630,Cabeceiras de Basto,41.53333333,-7.96666667,6.1,7.3,0.0,7,0.5,1.7,92.0,,W
2026-01-22 03:00:00,1210632,Mirandela,41.51478611,-7.19083889,0.7,7.4,0.0,5,0.0,0.2,76.0,,S
2026-01-22 03:00:00,1210633,"Macedo Cavaleiros, Bagueixe",41.56666667,-6.78333333,16.9,2.8,,7,0.1,4.7,98.0,,W
2026-01-22 03:00:00,1210635,Miranda do Douro,41.51666667,-6.28333333,15.1,4.4,,7,0.0,4.2,90.0,,W
2026-01-22 03:00:00,1210637,Mogadouro,41.33333333,-6.73333333,32.0,3.4,0.0,7,0.0,8.9,99.0,,W
2026-01-22 03:00:00,1210643,Paços Ferreira,41.27365,-8.38012,7.6,7.0,,7,0.2,2.1,89.0,,W
2026-01-22 03:00:00,1210644,Carrazêda de Ansiães,41.23333333,-7.28333333,3.6,3.8,0.0,6,0.0,1.0,89.0,,SW
2026-01-22 03:00:00,1210654,Moncorvo,41.18333333,-7.01666667,17.3,6.0,0.0,7,0.0,4.8,77.0,1005.5,W
2026-01-22 03:00:00,1210655,"Pinhão, Santa Bárbara",41.172775,-7.5489722,4.3,7.8,,3,0.1,1.2,87.0,,E
2026-01-22 03:00:00,1210657,Luzim,41.14585,-8.2490333,2.9,5.8,0.0,1,0.1,0.8,92.0,,N
2026-01-22 03:00:00,1210663,Moimenta da Beira,40.98333333,-7.6,11.9,4.2,0.0,8,0.2,3.3,93.0,,NW
2026-01-22 03:00:00,1210666,"Trancoso, Bandarra",40.78333333,-7.36666667,18.7,3.3,0.0,6,0.6,5.2,99.0,,SW
2026-01-22 03:00:00,1210669,Arouca,40.93333333,-8.25,11.5,8.1,0.0,7,0.0,3.2,92.0,,W
2026-01-22 03:00:00,1210671,"F. Castelo Rodrigo, V.Torpim",40.75,-6.88333333,16.6,4.1,0.0,6,0.0,4.6,95.0,,SW
2026-01-22 03:00:00,1210683,Guarda,40.53333333,-7.26666667,32.8,2.5,5.6,8,0.0,9.1,95.0,,NW
2026-01-22 03:00:00,1210685,Nelas,40.51666667,-7.85,5.8,6.1,0.0,6,0.0,1.6,94.0,,SW
2026-01-22 03:00:00,1210686,"Pampilhosa da Serra, Fajão",40.145653,-7.92704,19.8,3.4,,8,0.6,5.5,100.0,,NW
2026-01-22 03:00:00,1210687,Covilhã (Aeródromo),40.264309,-7.482302,18.4,8.2,0.0,8,,5.1,60.0,,NW
2026-01-22 03:00:00,1210690,Aldeia Souto (Q. Lageosa),40.35425833,-7.38931111,8.3,7.5,3.0,8,0.2,2.3,64.0,,NW
2026-01-22 03:00:00,1210697,Lousã (Aeródromo),40.143922,-8.244066,6.5,8.8,,5,0.0,1.8,93.0,,S
2026-01-22 03:00:00,1210698,Fundão,40.14063611,-7.55362778,14.0,6.5,0.0,8,0.1,3.9,83.0,,NW
2026-01-22 03:00:00,1210702,Aveiro (Universidade),40.63529722,-8.65958333,18.4,10.8,0.0,8,0.4,5.1,79.0,1007.3,NW
2026-01-22 03:00:00,1210704,Dunas de Mira,40.445955,-8.76168055,6.8,12.0,0.0,8,0.0,1.9,75.0,,NW
2026-01-22 03:00:00,1210705,Anadia,40.438852,-8.439996,4.0,8.1,0.0,8,0.8,1.1,95.0,,NW
2026-01-22 03:00:00,1210707,"Coimbra, Bencanta",40.2134694,-8.45515277,6.1,9.3,0.6,6,0.0,1.7,100.0,,SW
2026-01-22 03:00:00,1210713,"Figueira da Foz, Vila Verde",40.139764,-8.805945,7.2,11.1,0.0,8,0.3,2.0,,,NW
2026-01-22 03:00:00,1210716,Ansião,39.9,-8.4,8.3,6.9,0.0,7,0.1,2.3,98.0,,W
2026-01-22 03:00:00,1210718,Leiria (Aeródromo),39.780553,-8.818166,9.4,11.2,0.0,8,0.1,2.6,78.0,1008.1,NW
2026-01-22 03:00:00,1210724,"Tomar, Valdonas",39.6,-8.36666667,5.0,7.4,153.7,4,0.0,1.4,97.0,,SE
2026-01-22 03:00:00,1210726,Alcobaça,39.51666667,-8.96666667,6.5,11.9,0.0,8,0.1,1.8,73.0,,NW
2026-01-22 03:00:00,1210729,Rio Maior,39.35,-8.93333333,13.7,11.1,20.7,8,0.0,3.8,81.0,,NW
2026-01-22 03:00:00,1210734,"Santarém, Fonte Boa",39.201216,-8.736656,5.0,8.7,0.0,5,0.0,1.4,92.0,1008.6,S
2026-01-22 03:00:00,1210735,Chamusca / Chouto,39.27,-8.3508,5.4,9.3,,6,0.0,1.5,84.0,1008.1,SW
2026-01-22 03:00:00,1210739,"Torres Vedras, Dois Portos",39.04389444,-9.179,18.7,11.3,0.0,8,0.0,5.2,80.0,,NW
2026-01-22 03:00:00,1210744,Coruche,38.94096667,-8.51073611,8.6,9.6,0.4,7,0.0,2.4,,,W
2026-01-22 03:00:00,1210746,Santa Cruz (Aeródromo),39.12594166,-9.3790388,31.3,11.1,0.9,8,0.3,8.7,79.0,1008.9,NW
2026-01-22 03:00:00,1210750,Cabo da Roca,38.78171,-9.4975361,18.4,11.8,0.0,2,0.0,5.1,84.0,,NE
2026-01-22 03:00:00,1210752,Sintra/Tapada do Mouco,38.781669,-9.400398,16.9,7.6,,8,0.0,4.7,100.0,,NW
2026-01-22 03:00:00,1210762,"Lisboa, Tapada da Ajuda",38.70956111,-9.182825,6.5,11.4,0.0,8,0.0,1.8,83.0,,NW
2026-01-22 03:00:00,1210765,Cabo Raso,38.70900833,-9.48538333,29.9,13.6,,8,0.0,8.3,77.0,,NW
2026-01-22 03:00:00,1210766,"Barreiro, Lavradio",38.67448611,-9.04766111,15.5,12.5,0.0,8,0.4,4.3,79.0,,NW
2026-01-22 03:00:00,1210767,Pegões,38.65079,-8.63503,9.4,10.7,0.0,7,0.0,2.6,100.0,,W
2026-01-22 03:00:00,1210770,Setúbal,38.54846008,-8.89077058,5.4,12.0,0.0,8,0.1,1.5,76.0,,NW
2026-01-22 03:00:00,1210773,"Almada, P.Rainha",38.617111,-9.212804,10.1,,0.0,8,0.0,2.8,,,NW
2026-01-22 03:00:00,1210776,"Alcácer do Sal, Barrosinha",38.36666667,-8.48333333,12.2,11.7,0.0,8,0.0,3.4,79.0,,NW
2026-01-22 03:00:00,1210783,Alvalade,37.946806,-8.394504,15.8,11.7,0.0,7,0.0,4.4,83.0,,W
2026-01-22 03:00:00,1210785,Ourique / Santana Da Serra,37.5025,-8.3019,14.8,10.5,0.0,6,0.0,4.1,86.0,1009.9,SW
2026-01-22 03:00:00,1210789,Aljezur,37.31675278,-8.80001667,7.2,13.5,4.7,7,0.0,2.0,79.0,,W
2026-01-22 03:00:00,1210790,Fóia,37.3143,-8.595733,67.7,5.8,0.0,8,0.9,18.8,,,NW
2026-01-22 03:00:00,1210800,"Sabugal, Martim Rei",40.33918056,-7.03693333,14.8,3.8,0.0,7,0.0,4.1,87.0,,W
2026-01-22 03:00:00,1210803,Zebreira,39.86666667,-7.01666667,16.9,6.8,0.0,7,0.0,4.7,81.0,,W
2026-01-22 03:00:00,1210806,"Proença-a-Nova, P.Moitas",39.73333333,-7.86666667,29.5,6.8,3.0,8,0.0,8.2,97.0,,NW
2026-01-22 03:00:00,1210812,Alvega,39.46666667,-8.05,2.9,8.4,,7,0.0,0.8,98.0,,W
2026-01-22 03:00:00,1210824,"Avis, Benavila",39.1,-7.86666667,7.6,9.1,0.0,6,0.0,2.1,99.0,,SW
2026-01-22 03:00:00,1210826,Mora,38.94068,-8.16406,8.3,9.8,0.0,6,0.0,2.3,83.0,,SW
2026-01-22 03:00:00,1210835,Elvas,38.8908,-7.13976111,13.0,9.1,0.0,8,0.0,3.6,85.0,,NW
2026-01-22 03:00:00,1210837,Estremoz,38.86666667,-7.51666667,18.0,7.7,0.0,7,0.0,5.0,100.0,,W
2026-01-22 03:00:00,1210840,"Reguengos, S. P. do Corval",38.484866,-7.4729166,13.0,7.8,0.0,7,0.0,3.6,96.0,,W
2026-01-22 03:00:00,1210846,Montemor-O-Novo,38.6451,-8.1991,7.9,8.4,,7,0.0,2.2,93.0,1009.9,W
2026-01-22 03:00:00,1210847,Viana do Alentejo,38.3319194,-8.04553888,9.4,8.8,0.0,7,,2.6,91.0,,W
2026-01-22 03:00:00,1210848,"Portel, Oriola",38.31666667,-7.86666667,8.3,8.9,,7,0.0,2.3,91.0,,W
2026-01-22 03:00:00,1210851,Amareleja,38.2007,-7.2261,7.2,,0.0,7,0.0,2.0,,1008.4,W
2026-01-22 03:00:00,1210863,"Mértola, Vale Formoso",37.75,-7.55,7.9,10.1,0.0,8,0.0,2.2,85.0,,NW
2026-01-22 03:00:00,1210864,"Castro Verde, N.Corvo",37.57655833,-7.97211389,17.3,9.9,0.2,8,0.0,4.8,99.0,,NW
2026-01-22 03:00:00,1210865,"Alcoutim, Mart.Longo",37.43333333,-7.76666667,12.6,9.3,,7,0.0,3.5,95.0,1009.8,W
2026-01-22 03:00:00,1210866,Vila Real de S.António,37.1871055,-7.416325,,12.6,,0,0.0,,75.0,,
2026-01-22 03:00:00,1210867,Castro Marim (RN Sapal),37.21666667,-7.45,17.6,12.4,0.0,7,0.0,4.9,80.0,,W
2026-01-22 03:00:00,1210878,Portimão (Aeródromo),37.149167,-8.581389,18.0,13.3,0.0,8,0.0,5.0,74.0,1010.1,NW
2026-01-22 03:00:00,1210881,"Olhão, EPPO",37.033,-7.821,9.0,12.9,0.0,8,0.0,2.5,79.0,1010.5,NW
2026-01-22 03:00:00,1210932,"S. Miguel, Nordeste",37.83256,-25.150108,19.1,17.0,,7,0.0,5.3,81.0,,W
2026-01-22 03:00:00,1210956,"Madeira, Porto Moniz",32.867477,-17.171373,,17.3,1.0,0,0.0,,95.0,,
2026-01-22 03:00:00,1210960,"Madeira, S. Jorge, Santana",32.83446944,-16.906219,21.6,14.9,0.0,8,0.1,6.0,100.0,1019.2,NW
2026-01-22 03:00:00,1210965,"Madeira, Santana",32.808238,-16.8864166,,13.9,27.8,0,0.2,,100.0,,
2026-01-22 03:00:00,1210967,"Madeira, São Vicente",32.8001833,-17.044722,,16.1,0.0,0,0.1,,97.0,,
2026-01-22 03:00:00,1210972,"Madeira, Pico Alto",32.693491,-16.903955,5.4,10.7,0.0,7,,1.5,,,W
2026-01-22 03:00:00,1210973,"Madeira, Areeiro",32.71666667,-16.91666667,9.4,8.7,3.7,9,0.1,2.6,93.0,,N
2026-01-22 03:00:00,1210974,"Madeira, Pico do Areeiro",32.735107,-16.928271,,6.8,,0,0.0,,100.0,,
2026-01-22 03:00:00,1210975,"Madeira, Santo da Serra",32.7258972,-16.816822,,12.2,0.0,0,0.0,,100.0,,
2026-01-22 03:00:00,1210976,"Madeira, Monte",32.675833,-16.906944,2.2,13.2,0.5,8,0.0,0.6,94.0,,NW
2026-01-22 03:00:00,1210977,"Madeira, Cancela",32.64500556,-16.86575,1.8,15.4,0.0,2,0.0,0.5,94.0,,NE
2026-01-22 03:00:00,1210978,"Madeira, S. Lourenço",32.747,-16.706,25.2,16.4,0.0,1,0.0,7.0,99.0,,N
2026-01-22 03:00:00,1210984,"Madeira, Quinta Grande",32.6629722,-17.01503611,,14.2,0.1,0,0.0,,81.0,,
2026-01-22 03:00:00,1210986,Ponta do Sol/Lugar de Baixo,32.681502,-17.104167,1.1,17.0,0.0,8,0.0,0.3,81.0,,NW
2026-01-22 03:00:00,1210987,Prazeres (Calheta),32.757205,-17.201551,15.5,13.1,0.0,9,0.1,4.3,100.0,,N
2026-01-22 03:00:00,1240546,"Porto, Serra do Pilar",41.1385194,-8.6025,,10.1,,0,1.2,,88.0,1005.7,
2026-01-22 03:00:00,1240566,Vila Real (Cidade),41.30898056,-7.740522,10.1,6.1,,7,0.9,2.8,88.0,,W
2026-01-22 03:00:00,1240610,Viana do Castelo,41.695,-8.82916,,10.8,,0,0.0,,77.0,,
2026-01-22 03:00:00,1240675,Viseu (Cidade),40.662738,-7.9039694,,5.9,,0,0.0,,92.0,,
2026-01-22 03:00:00,1240903,"Porto, Massarelos",41.15257,-8.62598,,10.1,,0,,,87.0,,
2026-01-22 03:00:00,1240971,"Madeira, Funchal, Lido",32.63655,-16.935592,0.0,17.8,0.0,0,0.0,0.0,80.0,,
2026-01-22 03:00:00,1259204,Seia/Senhora do Espinheiro,40.412775,-7.673406,10.4,2.6,,7,0.2,2.9,100.0,1008.2,W
2026-01-22 03:00:00,5210758,Alcochete / Campo Tiro,38.7627,-8.7825,6.8,11.5,,7,0.0,1.9,77.0,1008.8,W
2026-01-22 03:00:00,6210817,Ponte de Sôr / Aeródromo,39.21536,-8.05417,10.4,8.0,,6,,2.9,89.0,1007.9,SW
2026-01-22 03:00:00,6210872,Loulé (CML),37.129946,-8.06523593,11.9,12.4,,6,0.0,3.3,78.0,1010.3,SW
2026-01-22 03:00:00,6210879,Portimão (Praia da Rocha),37.11670461,-8.52946314,10.8,13.5,,7,0.0,3.0,76.0,,W
2026-01-22 03:00:00,6211211,Monção - Guimil (CIM),42.042944,-8.421872,20.5,,0.0,7,,5.7,,1003.5,W
2026-01-22 03:00:00,6211213,Paredes De Coura - Vascões (CIM),41.913444,-8.492111,4.3,4.4,0.3,7,,1.2,99.0,1005.4,W
2026-01-22 03:00:00,6211216,Arcos De Valdevez - Heliporto (CIM),41.831,-8.44375,5.4,6.4,,5,0.5,1.5,92.0,1005.9,S
2026-01-22 03:00:00,6211218,Ponte De Lima - Anais (CIM),41.698083,-8.522444,1.8,6.5,0.6,1,,0.5,88.0,1005.3,N
2026-01-22 03:00:00,6212121,Terras de Bouro/Barral (CIM),41.70225278,-8.31808611,2.9,6.0,,6,0.7,0.8,92.0,1004.0,SW
2026-01-22 03:00:00,6212122,Amares Caldelas (CIM),41.66796389,-8.37977778,8.3,7.1,,4,0.6,2.3,93.0,1006.0,SE
2026-01-22 03:00:00,6212123,Vila Verde (CIM),41.64686111,-8.43398056,3.6,7.1,,7,,1.0,91.0,1005.3,W
2026-01-22 03:00:00,6212124,Braga (CIM),41.53568333,-8.42514722,10.8,8.2,,7,0.0,3.0,86.0,1006.6,W
2026-01-22 03:00:00,6212125,Barcelos (CIM),41.529375,-8.62705278,3.2,9.3,0.0,3,0.7,0.9,87.0,1006.7,E
2026-01-22 03:00:00,6212126,Esposende (CIM),41.52645556,-8.77984444,28.8,12.0,,8,0.0,8.0,90.0,1006.0,NW
2026-01-22 03:00:00,6213012,Carregal do Sal (CIM),40.46718056,-7.92626389,6.5,6.5,,4,,1.8,95.0,,SE
2026-01-22 03:00:00,6213013,Castro Daire / Mézio (CIM),40.98086111,-7.88318889,36.7,2.9,,8,,10.2,95.0,,NW
2026-01-22 03:00:00,6213014,Mangualde / Chãs de Tavares  (CIM),40.61096111,-7.60838889,15.1,4.2,,6,0.0,4.2,99.0,,SW
2026-01-22 03:00:00,6213016,Oliveira de Frades (CIM),40.716925,-8.20133889,18.4,5.8,,6,,5.1,90.0,,SW
2026-01-22 03:00:00,6213017,Penalva do Castelo (CIM),40.65706389,-7.69655278,12.6,6.0,,6,0.0,3.5,95.0,,SW
2026-01-22 03:00:00,6213020,Satão (CIM),40.76072778,-7.72019722,14.0,4.6,,7,0.8,3.9,90.0,,W
2026-01-22 03:00:00,6213022,Vila Nova de Paiva (CIM),40.85595,-7.72716389,5.4,3.0,,7,0.5,1.5,,,W
2026-01-22 03:00:00,6213611,Arganil / Aeródromo (CIM),40.274578,-7.974399,5.4,7.3,,6,0.3,1.5,94.0,,SW
2026-01-22 03:00:00,6213612,Cantanhede / Fonte Dom Pedro (CIM),40.341894,-8.577613,9.0,8.2,,8,0.1,2.5,95.0,,NW
2026-01-22 03:00:00,6213613,Coimbra / Mata de São Pedro (CIM),40.330787,-8.374887,6.8,6.2,,7,,1.9,98.0,,W
2026-01-22 03:00:00,6213614,Góis / Quinta da Ribeira (CIM),40.171642,-8.103238,3.6,,,2,,1.0,,,NE
2026-01-22 03:00:00,6213615,Mealhada / Quinta do Vale (CIM),40.373343,-8.4388429,2.9,7.4,,2,1.2,0.8,97.0,,NE
2026-01-22 03:00:00,6213616,Mortágua / Aeródromo (CIM),40.426239,-8.232142,6.1,7.8,,7,0.3,1.7,95.0,,W
2026-01-22 03:00:00,6213617,Penacova / Hombres (CIM),40.280921,-8.198685,7.2,,,5,0.6,2.0,96.0,,S
2026-01-22 03:00:00,6213619,Vila Nova de Poiares (CIM),40.211411,-8.241995,2.9,8.8,,3,0.0,0.8,87.0,,E
2026-01-22 03:00:00,6213620,Oliveira do Hospital (CIM),40.413306,-7.867972,6.5,6.4,,6,0.5,1.8,94.0,,SW
2026-01-22 03:00:00,6213621,Soure (CIM),40.02927,-8.504909,31.0,5.5,,8,0.6,8.6,98.0,,NW
2026-01-22 03:00:00,6214119,Pedrógão Grande (CMPG),39.926573,-8.150912,6.5,7.0,,8,0.1,1.8,92.0,1008.0,NW
2026-01-22 03:00:00,6215302,"Lisboa, Carnide (CML)",38.7751,-9.1855,7.2,10.8,,5,,2.0,90.0,1008.9,S
2026-01-22 03:00:00,6215360,Oeiras / Vila Fria (CMO),38.7239536,-9.2939255,8.6,11.0,0.0,6,0.0,2.4,84.0,1009.6,SW
2026-01-22 03:00:00,7240919,"Lisboa, Amoreiras (LFCL)",38.7239,-9.1649,6.8,10.8,,8,0.0,1.9,92.0,1010.1,NW
2026-01-22 04:00:00,11217160,Santa Maria / Praia Formosa (DROTRH),36.9542,-25.0917,7.2,15.9,0.0,6,0.0,2.0,100.0,,SW
2026-01-22 04:00:00,11217165,Santa Maria / Maia (DROTRH),36.9412,-25.0176,19.4,15.9,0.0,7,0.0,5.4,94.0,,W
2026-01-22 04:00:00,11217225,São Miguel / Sete Cidades (DROTRH),37.8679,-25.772,16.9,14.8,0.0,6,0.0,4.7,100.0,,SW
2026-01-22 04:00:00,11217255,São Miguel / Lagoa das Furnas (DROTRH),37.7619,-25.3291,6.1,15.9,0.0,3,0.0,1.7,85.0,,E
2026-01-22 04:00:00,11217370,Terceira / Ribeira das Nove (DROTRH),38.754,-27.3245,10.4,12.7,0.0,5,0.0,2.9,100.0,,S
2026-01-22 04:00:00,11217372,Terceira / Serra do Cume (DROTRH),38.7002,-27.1031,38.2,14.2,0.0,7,0.0,10.6,100.0,,W
2026-01-22 04:00:00,11217430,Graciosa / Serra das Fontes (DROTRH),39.0672,-28.0038,41.4,14.5,0.0,8,0.0,11.5,100.0,,NW
2026-01-22 04:00:00,11217510,São Jorge / Pico do Areeiro (DROTRH),38.6435,-28.0591,44.6,12.2,0.0,6,0.3,12.4,100.0,,SW
2026-01-22 04:00:00,11217645,Pico / Cabecinho (DROTRH),38.4338,-28.1141,52.9,14.6,0.0,7,0.1,14.7,95.0,,W
2026-01-22 04:00:00,11217710,Faial / Alto do Cabouco (DROTRH),38.587,-28.6992,,12.5,0.0,4,0.1,,99.0,,SE
2026-01-22 04:00:00,11217730,Faial / Cabeço Verde (DROTRH),38.5843,-28.7576,14.8,14.0,0.0,6,0.0,4.1,100.0,,SW
2026-01-22 04:00:00,1200501,Flores (Aeródromo),39.45819,-31.1301,28.1,18.1,0.0,7,1.4,7.8,85.0,1014.0,W
2026-01-22 04:00:00,1200502,Corvo (Aeródromo),39.67389,-31.11362,53.6,17.4,603.2,7,1.2,14.9,92.0,1012.5,W
2026-01-22 04:00:00,1200504,Pico (Aeródromo),38.55219,-28.44137,32.0,17.3,0.0,7,0.0,8.9,89.0,1015.6,W
2026-01-22 04:00:00,1200505,Horta / Aeroporto,38.5211,-28.7128,33.8,17.5,,7,0.0,9.4,88.0,1015.8,W
2026-01-22 04:00:00,1200506,Horta (Obs. Principe Alberto),38.540781,-28.63225,49.0,17.2,0.0,7,0.0,13.6,94.0,1015.2,W
2026-01-22 04:00:00,1200510,São Jorge,38.66,-28.17,25.9,16.6,0.0,7,0.0,7.2,,1015.8,W
2026-01-22 04:00:00,1200511,Angra do Heroísmo,38.6659435,-27.216567,24.8,16.9,0.0,7,0.0,6.9,89.0,1014.7,W
2026-01-22 04:00:00,1200512,P. Delgada (Aeródromo),37.74414,-25.6953048,40.7,16.3,0.0,7,0.0,11.3,94.0,1016.9,W
2026-01-22 04:00:00,1200515,Santa Maria (Aeródromo),36.967175,-25.1679,41.4,16.7,0.0,7,0.0,11.5,94.0,1018.8,W
2026-01-22 04:00:00,1200521,Santa Catarina (Aeródromo),32.69688,-16.77612,,17.2,0.7,0,0.0,,87.0,1018.8,
2026-01-22 04:00:00,1200522,Funchal,32.64786,-16.888,5.4,16.6,0.0,2,0.0,1.5,80.0,1019.0,NE
2026-01-22 04:00:00,1200524,Porto Santo,33.074029,-16.34868,25.2,16.7,0.2,8,0.0,7.0,93.0,1018.6,NW
2026-01-22 04:00:00,1200531,Cabo Carvoeiro,39.38,-9.40737778,16.6,13.0,,8,0.1,4.6,75.0,1008.7,NW
2026-01-22 04:00:00,1200533,Sagres,37.012835,-8.949089,31.7,13.5,,8,0.0,8.8,72.0,1010.7,NW
2026-01-22 04:00:00,1200535,Lisboa (Geofísico),38.71907778,-9.14972222,15.8,11.2,0.0,8,0.0,4.4,99.0,1009.4,NW
2026-01-22 04:00:00,1200541,Sines,37.954504,-8.838271,29.9,12.0,0.0,8,0.0,8.3,97.0,1009.8,NW
2026-01-22 04:00:00,1200545,"Porto, Pedras Rubras (Aeródromo)",41.233502,-8.681332,15.5,10.8,0.0,8,0.0,4.3,73.0,1006.0,NW
2026-01-22 04:00:00,1200548,Coimbra (Aeródromo),40.15006944,-8.46669167,6.5,8.6,0.0,5,0.3,1.8,94.0,1007.9,S
2026-01-22 04:00:00,1200551,"Viana Castelo, Chafé",41.648875,-8.804606,5.4,8.7,0.0,9,0.6,1.5,92.0,1005.5,N
2026-01-22 04:00:00,1200554,Faro (Aeródromo),37.016579,-7.971953,13.3,13.0,0.0,8,0.0,3.7,75.0,1010.4,NW
2026-01-22 04:00:00,1200558,Évora (C.Coordenação),38.53336389,-7.88338056,15.8,8.1,0.0,7,0.0,4.4,95.0,1009.0,W
2026-01-22 04:00:00,1200559,Viseu (Aeródromo),40.72645,-7.887472,6.5,5.4,,7,0.0,1.8,84.0,1007.0,W
2026-01-22 04:00:00,1200560,Viseu (C.Coordenação),40.71492222,-7.89592222,11.2,4.6,,7,0.0,3.1,95.0,1007.7,W
2026-01-22 04:00:00,1200562,Beja,38.02493056,-7.867275,14.4,8.7,0.0,7,0.0,4.0,99.0,1008.6,W
2026-01-22 04:00:00,1200567,Vila Real,41.27418611,-7.7171,1.4,5.0,0.0,4,0.2,0.4,98.0,1006.3,SE
2026-01-22 04:00:00,1200568,Penhas Douradas,40.41136667,-7.55865278,27.0,0.2,0.0,8,,7.5,100.0,,NW
2026-01-22 04:00:00,1200570,Castelo Branco,39.83339444,-7.46678889,14.4,7.4,0.0,7,0.0,4.0,98.0,1005.9,W
2026-01-22 04:00:00,1200571,Portalegre,39.29546944,-7.41996944,19.1,5.1,0.0,8,0.1,5.3,100.0,1008.2,NW
2026-01-22 04:00:00,1200575,Bragança,41.80388889,-6.74283889,9.4,3.4,0.0,7,0.0,2.6,84.0,1005.1,W
2026-01-22 04:00:00,1200576,Bragança (Aeródromo),41.85763611,-6.70796389,6.1,3.8,,6,0.0,1.7,90.0,1004.5,SW
2026-01-22 04:00:00,1200843,Évora (Aeródromo),38.5296,-7.8916,11.2,8.5,,7,0.0,3.1,88.0,1008.7,W
2026-01-22 04:00:00,1210513,P. Delgada (Obs. A. Chaves),37.7464,-25.662283,10.8,16.4,3.2,6,0.0,3.0,100.0,,SW
2026-01-22 04:00:00,1210517,Flores / Morro Alto,39.4633,-31.2207,73.1,12.3,,6,0.8,20.3,100.0,1008.9,SW
2026-01-22 04:00:00,1210518,São Miguel - Pico Santos De Cima,37.819,-25.7512,68.8,11.8,,7,0.4,19.1,100.0,1015.7,W
2026-01-22 04:00:00,1210520,Ilhas selvagens,30.140595,-15.869153,13.7,16.7,0.5,8,0.0,3.8,93.0,1019.7,NW
2026-01-22 04:00:00,1210550,Coruche / Cruz Do Leão,39.07101,-8.4,5.8,8.8,,7,0.0,1.6,93.0,1008.7,W
2026-01-22 04:00:00,1210553,Loulé / Cavalos De Caldeirão,37.3042,-7.9534,15.5,7.4,,7,0.1,4.3,100.0,1010.8,W
2026-01-22 04:00:00,1210577,"Odemira, S.Teotónio",37.54710833,-8.72899167,12.2,11.8,0.0,7,0.2,3.4,92.0,,W
2026-01-22 04:00:00,1210604,V.N.Cerveira (Aeródromo),41.96673056,-8.66676111,4.0,7.9,0.0,4,0.1,1.1,96.0,1005.2,SE
2026-01-22 04:00:00,1210605,"Monção, Valinha",42.06669,-8.383347,7.2,7.8,0.0,5,1.2,2.0,95.0,,S
2026-01-22 04:00:00,1210606,"Lamas de Mouro, P.Ribeiro",42.03333333,-8.18333333,18.4,2.4,0.0,8,4.7,5.1,100.0,1006.8,NW
2026-01-22 04:00:00,1210611,Montalegre,41.82276667,-7.78797778,13.0,2.3,0.0,7,0.1,3.6,99.0,,W
2026-01-22 04:00:00,1210612,Vinhais,41.8434,-7.0034416,13.0,2.5,,7,0.2,3.6,100.0,,W
2026-01-22 04:00:00,1210615,Ponte de Lima,41.75013889,-8.56671389,8.3,7.7,0.0,5,0.2,2.3,97.0,,S
2026-01-22 04:00:00,1210616,Chaves (Aeródromo),41.72516667,-7.46540833,4.7,6.0,0.0,6,0.0,1.3,88.0,1004.9,SW
2026-01-22 04:00:00,1210619,Cabril,41.71666667,-8.01666667,11.9,4.7,,7,0.3,3.3,99.0,,W
2026-01-22 04:00:00,1210622,"Braga, Merelim",41.56678056,-8.45003056,5.0,7.3,0.0,2,1.4,1.4,97.0,1006.1,NE
2026-01-22 04:00:00,1210625,Guimarães,41.4289,-8.3178,,7.2,0.0,0,,,89.0,1006.0,
2026-01-22 04:00:00,1210630,Cabeceiras de Basto,41.53333333,-7.96666667,5.8,7.0,0.0,3,0.0,1.6,93.0,,E
2026-01-22 04:00:00,1210632,Mirandela,41.51478611,-7.19083889,3.2,7.2,0.0,6,0.0,0.9,76.0,,SW
2026-01-22 04:00:00,1210633,"Macedo Cavaleiros, Bagueixe",41.56666667,-6.78333333,10.4,2.9,,7,0.1,2.9,99.0,,W
2026-01-22 04:00:00,1210635,Miranda do Douro,41.51666667,-6.28333333,10.8,4.3,,7,0.0,3.0,93.0,,W
2026-01-22 04:00:00,1210637,Mogadouro,41.33333333,-6.73333333,23.0,3.3,0.0,7,0.0,6.4,99.0,,W
2026-01-22 04:00:00,1210643,Paços Ferreira,41.27365,-8.38012,5.8,6.7,,7,0.0,1.6,93.0,,W
2026-01-22 04:00:00,1210644,Carrazêda de Ansiães,41.23333333,-7.28333333,2.5,3.8,0.0,7,0.0,0.7,87.0,,W
2026-01-22 04:00:00,1210654,Moncorvo,41.18333333,-7.01666667,19.8,5.8,0.0,7,0.0,5.5,76.0,1005.6,W
2026-01-22 04:00:00,1210655,"Pinhão, Santa Bárbara",41.172775,-7.5489722,4.3,7.4,,8,0.6,1.2,91.0,,NW
2026-01-22 04:00:00,1210657,Luzim,41.14585,-8.2490333,3.6,5.5,0.1,6,0.3,1.0,94.0,,SW
2026-01-22 04:00:00,1210663,Moimenta da Beira,40.98333333,-7.6,19.4,4.1,0.0,8,0.4,5.4,93.0,,NW
2026-01-22 04:00:00,1210666,"Trancoso, Bandarra",40.78333333,-7.36666667,16.9,3.4,0.0,6,0.0,4.7,95.0,,SW
2026-01-22 04:00:00,1210669,Arouca,40.93333333,-8.25,2.5,7.8,0.0,8,0.5,0.7,91.0,,NW
2026-01-22 04:00:00,1210671,"F. Castelo Rodrigo, V.Torpim",40.75,-6.88333333,14.8,3.4,0.0,7,0.0,4.1,96.0,,W
2026-01-22 04:00:00,1210683,Guarda,40.53333333,-7.26666667,23.0,2.3,2.7,8,1.1,6.4,98.0,,NW
2026-01-22 04:00:00,1210685,Nelas,40.51666667,-7.85,9.0,5.6,0.0,6,0.4,2.5,99.0,,SW
2026-01-22 04:00:00,1210686,"Pampilhosa da Serra, Fajão",40.145653,-7.92704,14.0,3.5,,8,1.1,3.9,100.0,,NW
2026-01-22 04:00:00,1210687,Covilhã (Aeródromo),40.264309,-7.482302,12.2,8.2,0.0,3,,3.4,62.0,,E
2026-01-22 04:00:00,1210690,Aldeia Souto (Q. Lageosa),40.35425833,-7.38931111,14.0,8.1,1.6,8,0.0,3.9,59.0,,NW
2026-01-22 04:00:00,1210697,Lousã (Aeródromo),40.143922,-8.244066,7.2,9.1,,5,0.6,2.0,92.0,,S
2026-01-22 04:00:00,1210698,Fundão,40.14063611,-7.55362778,15.5,6.5,0.0,8,0.0,4.3,82.0,,NW
2026-01-22 04:00:00,1210702,Aveiro (Universidade),40.63529722,-8.65958333,18.7,11.8,0.0,8,0.0,5.2,75.0,1007.3,NW
2026-01-22 04:00:00,1210704,Dunas de Mira,40.445955,-8.76168055,12.2,12.2,0.0,8,0.0,3.4,68.0,,NW
2026-01-22 04:00:00,1210705,Anadia,40.438852,-8.439996,1.4,7.6,0.0,2,0.1,0.4,95.0,,NE
2026-01-22 04:00:00,1210707,"Coimbra, Bencanta",40.2134694,-8.45515277,3.6,8.8,0.6,6,0.1,1.0,100.0,,SW
2026-01-22 04:00:00,1210713,"Figueira da Foz, Vila Verde",40.139764,-8.805945,10.8,11.1,0.0,8,0.0,3.0,,,NW
2026-01-22 04:00:00,1210716,Ansião,39.9,-8.4,10.1,6.9,0.0,8,0.1,2.8,97.0,,NW
2026-01-22 04:00:00,1210718,Leiria (Aeródromo),39.780553,-8.818166,4.0,10.8,0.2,7,0.1,1.1,83.0,1008.2,W
2026-01-22 04:00:00,1210724,"Tomar, Valdonas",39.6,-8.36666667,3.6,7.3,107.6,4,0.0,1.0,98.0,,SE
2026-01-22 04:00:00,1210726,Alcobaça,39.51666667,-8.96666667,10.8,12.3,0.0,7,0.0,3.0,69.0,,W
2026-01-22 04:00:00,1210729,Rio Maior,39.35,-8.93333333,11.2,10.7,20.7,8,0.1,3.1,80.0,,NW
2026-01-22 04:00:00,1210734,"Santarém, Fonte Boa",39.201216,-8.736656,5.0,9.7,0.0,7,0.0,1.4,87.0,1008.8,W
2026-01-22 04:00:00,1210735,Chamusca / Chouto,39.27,-8.3508,6.1,9.0,,4,0.0,1.7,86.0,1008.2,SE
2026-01-22 04:00:00,1210739,"Torres Vedras, Dois Portos",39.04389444,-9.179,17.3,10.8,0.0,8,0.0,4.8,85.0,,NW
2026-01-22 04:00:00,1210744,Coruche,38.94096667,-8.51073611,7.6,10.0,0.4,7,0.0,2.1,,,W
2026-01-22 04:00:00,1210746,Santa Cruz (Aeródromo),39.12594166,-9.3790388,20.9,10.9,2.2,8,0.0,5.8,81.0,1009.2,NW
2026-01-22 04:00:00,1210750,Cabo da Roca,38.78171,-9.4975361,17.6,12.0,0.0,3,0.0,4.9,79.0,,E
2026-01-22 04:00:00,1210752,Sintra/Tapada do Mouco,38.781669,-9.400398,16.2,8.3,,8,0.0,4.5,97.0,,NW
2026-01-22 04:00:00,1210762,"Lisboa, Tapada da Ajuda",38.70956111,-9.182825,9.4,11.8,0.0,8,0.0,2.6,78.0,,NW
2026-01-22 04:00:00,1210765,Cabo Raso,38.70900833,-9.48538333,32.0,14.0,,8,0.0,8.9,77.0,,NW
2026-01-22 04:00:00,1210766,"Barreiro, Lavradio",38.67448611,-9.04766111,6.1,12.6,0.0,7,0.0,1.7,82.0,,W
2026-01-22 04:00:00,1210767,Pegões,38.65079,-8.63503,3.2,9.3,0.0,7,0.0,0.9,100.0,,W
2026-01-22 04:00:00,1210770,Setúbal,38.54846008,-8.89077058,10.8,11.5,0.0,8,0.0,3.0,81.0,,NW
2026-01-22 04:00:00,1210773,"Almada, P.Rainha",38.617111,-9.212804,12.6,,0.0,8,0.0,3.5,,,NW
2026-01-22 04:00:00,1210776,"Alcácer do Sal, Barrosinha",38.36666667,-8.48333333,12.2,11.7,0.0,8,0.0,3.4,78.0,,NW
2026-01-22 04:00:00,1210783,Alvalade,37.946806,-8.394504,13.3,11.7,0.0,7,0.0,3.7,83.0,,W
2026-01-22 04:00:00,1210785,Ourique / Santana Da Serra,37.5025,-8.3019,10.4,10.5,0.0,6,0.0,2.9,89.0,1010.0,SW
2026-01-22 04:00:00,1210789,Aljezur,37.31675278,-8.80001667,8.3,13.6,4.7,7,0.0,2.3,79.0,,W
2026-01-22 04:00:00,1210790,Fóia,37.3143,-8.595733,52.6,6.1,0.2,8,0.2,14.6,,,NW
2026-01-22 04:00:00,1210800,"Sabugal, Martim Rei",40.33918056,-7.03693333,5.4,3.8,0.0,8,0.0,1.5,85.0,,NW
2026-01-22 04:00:00,1210803,Zebreira,39.86666667,-7.01666667,12.2,7.0,0.0,7,0.0,3.4,78.0,,W
2026-01-22 04:00:00,1210806,"Proença-a-Nova, P.Moitas",39.73333333,-7.86666667,25.6,6.9,0.0,8,0.1,7.1,94.0,,NW
2026-01-22 04:00:00,1210812,Alvega,39.46666667,-8.05,3.6,8.8,,6,0.0,1.0,95.0,,SW
2026-01-22 04:00:00,1210824,"Avis, Benavila",39.1,-7.86666667,9.0,8.8,0.0,6,0.0,2.5,99.0,,SW
2026-01-22 04:00:00,1210826,Mora,38.94068,-8.16406,10.4,9.2,0.0,6,0.0,2.9,89.0,,SW
2026-01-22 04:00:00,1210835,Elvas,38.8908,-7.13976111,12.6,8.7,0.0,7,0.0,3.5,87.0,,W
2026-01-22 04:00:00,1210837,Estremoz,38.86666667,-7.51666667,16.6,7.5,0.0,7,0.0,4.6,100.0,,W
2026-01-22 04:00:00,1210840,"Reguengos, S. P. do Corval",38.484866,-7.4729166,11.9,7.7,0.0,7,0.0,3.3,95.0,,W
2026-01-22 04:00:00,1210846,Montemor-O-Novo,38.6451,-8.1991,8.3,8.9,,7,0.0,2.3,90.0,1010.0,W
2026-01-22 04:00:00,1210847,Viana do Alentejo,38.3319194,-8.04553888,11.2,8.6,0.0,7,,3.1,93.0,,W
2026-01-22 04:00:00,1210848,"Portel, Oriola",38.31666667,-7.86666667,7.9,8.4,,7,0.0,2.2,93.0,,W
2026-01-22 04:00:00,1210851,Amareleja,38.2007,-7.2261,6.1,,0.0,7,0.0,1.7,,1008.5,W
2026-01-22 04:00:00,1210863,"Mértola, Vale Formoso",37.75,-7.55,7.6,9.5,0.0,8,0.0,2.1,90.0,,NW
2026-01-22 04:00:00,1210864,"Castro Verde, N.Corvo",37.57655833,-7.97211389,10.4,9.6,0.0,7,0.0,2.9,99.0,,W
2026-01-22 04:00:00,1210865,"Alcoutim, Mart.Longo",37.43333333,-7.76666667,6.5,9.3,,7,0.0,1.8,92.0,1010.0,W
2026-01-22 04:00:00,1210866,Vila Real de S.António,37.1871055,-7.416325,,12.0,,0,0.0,,78.0,,
2026-01-22 04:00:00,1210867,Castro Marim (RN Sapal),37.21666667,-7.45,14.8,11.7,0.0,7,0.0,4.1,85.0,,W
2026-01-22 04:00:00,1210878,Portimão (Aeródromo),37.149167,-8.581389,13.0,12.8,0.0,8,0.0,3.6,77.0,1010.4,NW
2026-01-22 04:00:00,1210881,"Olhão, EPPO",37.033,-7.821,10.8,12.9,0.0,7,0.0,3.0,78.0,1010.9,W
2026-01-22 04:00:00,1210932,"S. Miguel, Nordeste",37.83256,-25.150108,14.4,17.0,,7,0.0,4.0,81.0,,W
2026-01-22 04:00:00,1210956,"Madeira, Porto Moniz",32.867477,-17.171373,,17.2,0.3,0,0.7,,95.0,,
2026-01-22 04:00:00,1210960,"Madeira, S. Jorge, Santana",32.83446944,-16.906219,23.4,15.0,0.1,8,0.1,6.5,100.0,1019.1,NW
2026-01-22 04:00:00,1210965,"Madeira, Santana",32.808238,-16.8864166,,13.7,28.1,0,0.2,,100.0,,
2026-01-22 04:00:00,1210967,"Madeira, São Vicente",32.8001833,-17.044722,,15.9,0.0,0,0.1,,97.0,,
2026-01-22 04:00:00,1210972,"Madeira, Pico Alto",32.693491,-16.903955,2.2,10.1,0.0,7,,0.6,,,W
2026-01-22 04:00:00,1210973,"Madeira, Areeiro",32.71666667,-16.91666667,8.6,8.8,0.1,9,0.0,2.4,86.0,,N
2026-01-22 04:00:00,1210974,"Madeira, Pico do Areeiro",32.735107,-16.928271,,6.3,,0,0.0,,100.0,,
2026-01-22 04:00:00,1210975,"Madeira, Santo da Serra",32.7258972,-16.816822,,11.6,0.0,0,0.0,,100.0,,
2026-01-22 04:00:00,1210976,"Madeira, Monte",32.675833,-16.906944,4.0,12.7,0.0,8,0.0,1.1,96.0,,NW
2026-01-22 04:00:00,1210977,"Madeira, Cancela",32.64500556,-16.86575,4.3,15.0,0.3,3,0.0,1.2,99.0,,E
2026-01-22 04:00:00,1210978,"Madeira, S. Lourenço",32.747,-16.706,20.9,16.6,0.0,2,0.0,5.8,97.0,,NE
2026-01-22 04:00:00,1210984,"Madeira, Quinta Grande",32.6629722,-17.01503611,,13.5,0.0,0,0.0,,82.0,,
2026-01-22 04:00:00,1210986,Ponta do Sol/Lugar de Baixo,32.681502,-17.104167,4.0,16.9,0.0,8,0.0,1.1,81.0,,NW
2026-01-22 04:00:00,1210987,Prazeres (Calheta),32.757205,-17.201551,12.6,13.1,1.1,8,0.3,3.5,100.0,,NW
2026-01-22 04:00:00,1240546,"Porto, Serra do Pilar",41.1385194,-8.6025,,9.8,,0,0.2,,88.0,1005.6,
2026-01-22 04:00:00,1240566,Vila Real (Cidade),41.30898056,-7.740522,10.8,6.0,,8,0.4,3.0,90.0,,NW
2026-01-22 04:00:00,1240610,Viana do Castelo,41.695,-8.82916,,9.8,,0,0.5,,76.0,,
2026-01-22 04:00:00,1240675,Viseu (Cidade),40.662738,-7.9039694,,5.3,,0,0.0,,95.0,,
2026-01-22 04:00:00,1240903,"Porto, Massarelos",41.15257,-8.62598,,9.6,,0,,,89.0,,
2026-01-22 04:00:00,1240971,"Madeira, Funchal, Lido",32.63655,-16.935592,0.0,17.3,0.0,0,0.0,0.0,85.0,,
2026-01-22 04:00:00,1259204,Seia/Senhora do Espinheiro,40.412775,-7.673406,10.8,2.5,,8,0.9,3.0,100.0,1008.4,NW
2026-01-22 04:00:00,5210758,Alcochete / Campo Tiro,38.7627,-8.7825,16.2,11.1,,8,0.0,4.5,80.0,1009.0,NW
2026-01-22 04:00:00,6210817,Ponte de Sôr / Aeródromo,39.21536,-8.05417,9.4,7.3,,5,,2.6,92.0,1008.2,S
2026-01-22 04:00:00,6210872,Loulé (CML),37.129946,-8.06523593,6.5,12.1,,7,0.0,1.8,79.0,1010.6,W
2026-01-22 04:00:00,6210879,Portimão (Praia da Rocha),37.11670461,-8.52946314,6.8,13.0,,8,0.0,1.9,80.0,,NW
2026-01-22 04:00:00,6211211,Monção - Guimil (CIM),42.042944,-8.421872,14.4,,0.1,7,,4.0,,1003.5,W
2026-01-22 04:00:00,6211213,Paredes De Coura - Vascões (CIM),41.913444,-8.492111,1.8,4.3,0.5,8,,0.5,99.0,1005.6,NW
2026-01-22 04:00:00,6211216,Arcos De Valdevez - Heliporto (CIM),41.831,-8.44375,9.0,6.6,,6,0.0,2.5,91.0,1005.9,SW
2026-01-22 04:00:00,6211218,Ponte De Lima - Anais (CIM),41.698083,-8.522444,4.3,6.2,1.3,1,,1.2,92.0,1005.3,N
2026-01-22 04:00:00,6212121,Terras de Bouro/Barral (CIM),41.70225278,-8.31808611,7.9,6.0,,7,0.2,2.2,92.0,1004.0,W
2026-01-22 04:00:00,6212122,Amares Caldelas (CIM),41.66796389,-8.37977778,5.0,6.8,,4,0.4,1.4,94.0,1006.0,SE
2026-01-22 04:00:00,6212123,Vila Verde (CIM),41.64686111,-8.43398056,2.5,6.8,,8,,0.7,91.0,1005.3,NW
2026-01-22 04:00:00,6212124,Braga (CIM),41.53568333,-8.42514722,19.4,8.0,,8,0.6,5.4,87.0,1006.6,NW
2026-01-22 04:00:00,6212125,Barcelos (CIM),41.529375,-8.62705278,1.4,8.5,0.0,6,1.1,0.4,93.0,1006.8,SW
2026-01-22 04:00:00,6212126,Esposende (CIM),41.52645556,-8.77984444,10.4,11.3,,9,0.0,2.9,89.0,1006.2,N
2026-01-22 04:00:00,6213012,Carregal do Sal (CIM),40.46718056,-7.92626389,7.2,6.1,,5,,2.0,97.0,,S
2026-01-22 04:00:00,6213013,Castro Daire / Mézio (CIM),40.98086111,-7.88318889,32.0,2.9,,8,,8.9,94.0,,NW
2026-01-22 04:00:00,6213014,Mangualde / Chãs de Tavares  (CIM),40.61096111,-7.60838889,22.0,4.5,,6,0.6,6.1,100.0,,SW
2026-01-22 04:00:00,6213016,Oliveira de Frades (CIM),40.716925,-8.20133889,14.4,5.4,,6,,4.0,91.0,,SW
2026-01-22 04:00:00,6213017,Penalva do Castelo (CIM),40.65706389,-7.69655278,5.4,5.6,,6,0.5,1.5,99.0,,SW
2026-01-22 04:00:00,6213020,Satão (CIM),40.76072778,-7.72019722,14.0,4.1,,7,0.4,3.9,94.0,,W
2026-01-22 04:00:00,6213022,Vila Nova de Paiva (CIM),40.85595,-7.72716389,4.7,2.8,,7,0.3,1.3,,,W
2026-01-22 04:00:00,6213611,Arganil / Aeródromo (CIM),40.274578,-7.974399,6.1,7.0,,5,0.7,1.7,96.0,,S
2026-01-22 04:00:00,6213612,Cantanhede / Fonte Dom Pedro (CIM),40.341894,-8.577613,4.3,7.9,,5,0.0,1.2,96.0,,S
2026-01-22 04:00:00,6213613,Coimbra / Mata de São Pedro (CIM),40.330787,-8.374887,4.3,5.9,,6,,1.2,100.0,,SW
2026-01-22 04:00:00,6213614,Góis / Quinta da Ribeira (CIM),40.171642,-8.103238,1.4,,,8,,0.4,,,NW
2026-01-22 04:00:00,6213615,Mealhada / Quinta do Vale (CIM),40.373343,-8.4388429,5.4,6.8,,6,0.0,1.5,99.0,,SW
2026-01-22 04:00:00,6213616,Mortágua / Aeródromo (CIM),40.426239,-8.232142,7.9,7.5,,5,1.1,2.2,96.0,,S
2026-01-22 04:00:00,6213617,Penacova / Hombres (CIM),40.280921,-8.198685,4.7,,,6,0.0,1.3,97.0,,SW
2026-01-22 04:00:00,6213619,Vila Nova de Poiares (CIM),40.211411,-8.241995,6.1,8.4,,5,1.1,1.7,91.0,,S
2026-01-22 04:00:00,6213620,Oliveira do Hospital (CIM),40.413306,-7.867972,7.2,6.3,,7,0.0,2.0,94.0,,W
2026-01-22 04:00:00,6213621,Soure (CIM),40.02927,-8.504909,30.2,5.3,,8,0.4,8.4,98.0,,NW
2026-01-22 04:00:00,6214119,Pedrógão Grande (CMPG),39.926573,-8.150912,11.5,7.1,,8,,3.2,92.0,1008.2,NW
2026-01-22 04:00:00,6215302,"Lisboa, Carnide (CML)",38.7751,-9.1855,6.5,10.9,,8,,1.8,89.0,1009.1,NW
2026-01-22 04:00:00,6215360,Oeiras / Vila Fria (CMO),38.7239536,-9.2939255,11.5,11.6,0.0,8,0.0,3.2,80.0,1009.7,NW
2026-01-22 04:00:00,7240919,"Lisboa, Amoreiras (LFCL)",38.7239,-9.1649,7.2,10.6,,9,0.0,2.0,95.0,1010.1,N
2026-01-22 05:00:00,11217160,Santa Maria / Praia Formosa (DROTRH),36.9542,-25.0917,11.5,16.0,0.0,4,0.0,3.2,100.0,,SE
2026-01-22 05:00:00,11217165,Santa Maria / Maia (DROTRH),36.9412,-25.0176,20.9,15.9,0.1,7,0.0,5.8,95.0,,W
2026-01-22 05:00:00,11217225,São Miguel / Sete Cidades (DROTRH),37.8679,-25.772,28.8,14.8,0.4,6,0.0,8.0,100.0,,SW
2026-01-22 05:00:00,11217255,São Miguel / Lagoa das Furnas (DROTRH),37.7619,-25.3291,5.0,15.8,0.0,4,0.0,1.4,85.0,,SE
2026-01-22 05:00:00,11217370,Terceira / Ribeira das Nove (DROTRH),38.754,-27.3245,10.8,12.7,0.0,5,0.0,3.0,100.0,,S
2026-01-22 05:00:00,11217372,Terceira / Serra do Cume (DROTRH),38.7002,-27.1031,30.2,14.2,0.0,7,0.2,8.4,100.0,,W
2026-01-22 05:00:00,11217430,Graciosa / Serra das Fontes (DROTRH),39.0672,-28.0038,46.1,14.5,0.0,8,0.0,12.8,100.0,,NW
2026-01-22 05:00:00,11217510,São Jorge / Pico do Areeiro (DROTRH),38.6435,-28.0591,43.2,12.3,0.0,6,0.2,12.0,100.0,,SW
2026-01-22 05:00:00,11217645,Pico / Cabecinho (DROTRH),38.4338,-28.1141,39.2,15.0,0.0,7,0.0,10.9,92.0,,W
2026-01-22 05:00:00,11217710,Faial / Alto do Cabouco (DROTRH),38.587,-28.6992,,12.6,0.0,6,1.2,,99.0,,SW
2026-01-22 05:00:00,11217730,Faial / Cabeço Verde (DROTRH),38.5843,-28.7576,9.4,14.1,0.0,6,0.1,2.6,100.0,,SW
2026-01-22 05:00:00,1200501,Flores (Aeródromo),39.45819,-31.1301,31.0,16.8,0.1,7,2.6,8.6,85.0,1014.4,W
2026-01-22 05:00:00,1200502,Corvo (Aeródromo),39.67389,-31.11362,51.1,16.6,0.2,8,0.0,14.2,90.0,1013.2,NW
2026-01-22 05:00:00,1200504,Pico (Aeródromo),38.55219,-28.44137,26.6,17.4,0.0,7,0.0,7.4,90.0,1015.9,W
2026-01-22 05:00:00,1200505,Horta / Aeroporto,38.5211,-28.7128,38.2,17.6,,7,0.0,10.6,87.0,1015.5,W
2026-01-22 05:00:00,1200506,Horta (Obs. Principe Alberto),38.540781,-28.63225,53.6,17.3,0.0,7,0.0,14.9,93.0,1014.9,W
2026-01-22 05:00:00,1200510,São Jorge,38.66,-28.17,28.8,16.9,0.0,7,0.0,8.0,,1015.2,W
2026-01-22 05:00:00,1200511,Angra do Heroísmo,38.6659435,-27.216567,32.0,16.9,0.0,7,0.0,8.9,90.0,1014.7,W
2026-01-22 05:00:00,1200512,P. Delgada (Aeródromo),37.74414,-25.6953048,39.6,16.4,0.0,7,0.0,11.0,93.0,1016.0,W
2026-01-22 05:00:00,1200515,Santa Maria (Aeródromo),36.967175,-25.1679,47.5,16.8,0.0,7,0.0,13.2,91.0,1018.5,W
2026-01-22 05:00:00,1200521,Santa Catarina (Aeródromo),32.69688,-16.77612,,16.7,0.0,0,0.0,,87.0,1018.7,
2026-01-22 05:00:00,1200522,Funchal,32.64786,-16.888,5.0,16.6,0.0,1,0.0,1.4,79.0,1018.8,N
2026-01-22 05:00:00,1200524,Porto Santo,33.074029,-16.34868,20.9,16.3,0.3,8,0.0,5.8,93.0,1018.3,NW
2026-01-22 05:00:00,1200531,Cabo Carvoeiro,39.38,-9.40737778,27.4,13.1,,8,0.0,7.6,73.0,1008.6,NW
2026-01-22 05:00:00,1200533,Sagres,37.012835,-8.949089,25.2,13.8,,8,0.0,7.0,67.0,1010.8,NW
2026-01-22 05:00:00,1200535,Lisboa (Geofísico),38.71907778,-9.14972222,10.1,11.2,0.0,8,0.0,2.8,92.0,1009.2,NW
2026-01-22 05:00:00,1200541,Sines,37.954504,-8.838271,24.8,12.1,0.0,8,0.0,6.9,92.0,1009.9,NW
2026-01-22 05:00:00,1200545,"Porto, Pedras Rubras (Aeródromo)",41.233502,-8.681332,11.5,10.9,0.0,8,0.0,3.2,74.0,1006.5,NW
2026-01-22 05:00:00,1200548,Coimbra (Aeródromo),40.15006944,-8.46669167,6.1,8.1,0.0,7,0.0,1.7,96.0,1008.1,W
2026-01-22 05:00:00,1200551,"Viana Castelo, Chafé",41.648875,-8.804606,10.4,9.7,0.0,7,0.0,2.9,92.0,1005.7,W
2026-01-22 05:00:00,1200554,Faro (Aeródromo),37.016579,-7.971953,13.7,12.6,0.0,7,0.0,3.8,79.0,1010.7,W
2026-01-22 05:00:00,1200558,Évora (C.Coordenação),38.53336389,-7.88338056,14.8,8.0,0.0,7,0.0,4.1,,1009.2,W
2026-01-22 05:00:00,1200559,Viseu (Aeródromo),40.72645,-7.887472,9.7,5.1,,6,0.0,2.7,86.0,1007.4,SW
2026-01-22 05:00:00,1200560,Viseu (C.Coordenação),40.71492222,-7.89592222,11.9,4.5,,6,0.1,3.3,94.0,1008.1,SW
2026-01-22 05:00:00,1200562,Beja,38.02493056,-7.867275,12.6,8.9,0.0,7,0.0,3.5,93.0,1008.8,W
2026-01-22 05:00:00,1200567,Vila Real,41.27418611,-7.7171,4.0,4.8,0.0,5,0.0,1.1,98.0,1006.6,S
2026-01-22 05:00:00,1200568,Penhas Douradas,40.41136667,-7.55865278,25.2,0.2,0.0,7,,7.0,100.0,,W
2026-01-22 05:00:00,1200570,Castelo Branco,39.83339444,-7.46678889,13.0,7.5,0.0,7,0.0,3.6,93.0,1006.3,W
2026-01-22 05:00:00,1200571,Portalegre,39.29546944,-7.41996944,20.9,5.0,0.0,8,0.0,5.8,100.0,1008.5,NW
2026-01-22 05:00:00,1200575,Bragança,41.80388889,-6.74283889,7.6,3.3,0.0,5,0.0,2.1,84.0,1005.7,S
2026-01-22 05:00:00,1200576,Bragança (Aeródromo),41.85763611,-6.70796389,7.9,3.7,,6,0.0,2.2,89.0,1005.0,SW
2026-01-22 05:00:00,1200843,Évora (Aeródromo),38.5296,-7.8916,10.1,8.1,,7,0.0,2.8,90.0,1008.9,W
2026-01-22 05:00:00,1210513,P. Delgada (Obs. A. Chaves),37.7464,-25.662283,6.1,16.6,4.5,5,0.0,1.7,100.0,,S
2026-01-22 05:00:00,1210517,Flores / Morro Alto,39.4633,-31.2207,57.2,11.0,,7,1.6,15.9,100.0,1011.2,W
2026-01-22 05:00:00,1210518,São Miguel - Pico Santos De Cima,37.819,-25.7512,61.6,11.9,,7,0.3,17.1,100.0,1015.2,W
2026-01-22 05:00:00,1210520,Ilhas selvagens,30.140595,-15.869153,23.0,16.3,0.2,8,0.0,6.4,99.0,1019.5,NW
2026-01-22 05:00:00,1210550,Coruche / Cruz Do Leão,39.07101,-8.4,4.0,8.5,,7,0.0,1.1,94.0,1008.8,W
2026-01-22 05:00:00,1210553,Loulé / Cavalos De Caldeirão,37.3042,-7.9534,20.9,7.5,,8,0.0,5.8,98.0,1011.2,NW
2026-01-22 05:00:00,1210577,"Odemira, S.Teotónio",37.54710833,-8.72899167,14.0,11.8,0.6,8,0.0,3.9,90.0,,NW
2026-01-22 05:00:00,1210604,V.N.Cerveira (Aeródromo),41.96673056,-8.66676111,3.2,6.3,0.0,4,0.0,0.9,98.0,1005.5,SE
2026-01-22 05:00:00,1210605,"Monção, Valinha",42.06669,-8.383347,5.4,7.8,0.0,6,0.0,1.5,95.0,,SW
2026-01-22 05:00:00,1210606,"Lamas de Mouro, P.Ribeiro",42.03333333,-8.18333333,16.2,2.8,0.0,7,0.2,4.5,100.0,1006.9,W
2026-01-22 05:00:00,1210611,Montalegre,41.82276667,-7.78797778,9.7,1.9,0.0,7,0.2,2.7,99.0,,W
2026-01-22 05:00:00,1210612,Vinhais,41.8434,-7.0034416,20.5,2.3,,8,0.1,5.7,100.0,,NW
2026-01-22 05:00:00,1210615,Ponte de Lima,41.75013889,-8.56671389,4.3,7.3,0.0,3,0.1,1.2,95.0,,E
