obs_datetime,station_id,station_name,lat,lon,intensidadeVentoKM,temperatura,radiacao,idDireccVento,precAcumulada,intensidadeVento,humidade,pressao,direccVento_txt
2026-01-27 00:00:00,11217160,Santa Maria / Praia Formosa (DROTRH),36.9542,-25.0917,18.4,11.6,7.1,3,0.4,5.1,84.0,,E
2026-01-27 00:00:00,11217165,Santa Maria / Maia (DROTRH),36.9412,-25.0176,19.8,11.3,9.1,8,0.8,5.5,83.0,,NW
2026-01-27 00:00:00,11217217,São Miguel / Santana (DROTRH),37.8049,-25.5618,7.2,11.2,0.0,3,0.1,2.0,75.0,,E
2026-01-27 00:00:00,11217225,São Miguel / Sete Cidades (DROTRH),37.8679,-25.772,29.2,10.1,3.3,7,0.0,8.1,80.0,,W
2026-01-27 00:00:00,11217255,São Miguel / Lagoa das Furnas (DROTRH),37.7619,-25.3291,10.4,9.5,0.0,5,0.0,2.9,76.0,,S
2026-01-27 00:00:00,11217372,Terceira / Serra do Cume (DROTRH),38.7002,-27.1031,31.0,6.0,0.0,8,0.0,8.6,92.0,,NW
2026-01-27 00:00:00,11217430,Graciosa / Serra das Fontes (DROTRH),39.0672,-28.0038,37.8,7.2,0.0,8,0.2,10.5,92.0,,NW
2026-01-27 00:00:00,11217510,São Jorge / Pico do Areeiro (DROTRH),38.6435,-28.0591,46.8,3.3,0.0,6,0.4,13.0,99.0,,SW
2026-01-27 00:00:00,11217625,Pico / Cabeço do Teicho (DROTRH),38.489,-28.3534,26.3,3.6,0.0,7,0.7,7.3,92.0,,W
2026-01-27 00:00:00,11217645,Pico / Cabecinho (DROTRH),38.4338,-28.1141,20.5,6.2,0.0,8,0.0,5.7,80.0,,NW
2026-01-27 00:00:00,11217710,Faial / Alto do Cabouco (DROTRH),38.587,-28.6992,,3.9,0.0,5,0.1,,97.0,,S
2026-01-27 00:00:00,11217730,Faial / Cabeço Verde (DROTRH),38.5843,-28.7576,14.4,6.8,0.0,7,0.2,4.0,86.0,,W
2026-01-27 00:00:00,1200501,Flores (Aeródromo),39.45819,-31.1301,35.6,10.3,0.0,7,0.4,9.9,67.0,1009.5,W
2026-01-27 00:00:00,1200502,Corvo (Aeródromo),39.67389,-31.11362,64.1,11.1,,7,0.0,17.8,69.0,1007.6,W
2026-01-27 00:00:00,1200504,Pico (Aeródromo),38.55219,-28.44137,21.6,10.8,0.0,7,0.0,6.0,65.0,1009.7,W
2026-01-27 00:00:00,1200505,Horta / Aeroporto,38.5211,-28.7128,37.8,10.9,,7,1.0,10.5,71.0,1009.7,W
2026-01-27 00:00:00,1200506,Horta (Obs. Principe Alberto),38.540781,-28.63225,48.6,10.0,0.0,7,0.4,13.5,78.0,1009.8,W
2026-01-27 00:00:00,1200510,São Jorge,38.66,-28.17,30.2,9.8,6.0,8,0.3,8.4,81.0,1009.3,NW
2026-01-27 00:00:00,1200511,Angra do Heroísmo,38.6659435,-27.216567,33.8,9.9,0.0,7,0.0,9.4,69.0,1008.6,W
2026-01-27 00:00:00,1200512,P. Delgada (Aeródromo),37.74414,-25.6953048,55.8,11.8,0.5,8,0.3,15.5,74.0,1008.8,NW
2026-01-27 00:00:00,1200515,Santa Maria (Aeródromo),36.967175,-25.1679,47.5,12.5,3.7,8,0.1,13.2,81.0,1011.2,NW
2026-01-27 00:00:00,1200521,Santa Catarina (Aeródromo),32.69688,-16.77612,,18.0,0.0,0,0.5,,78.0,1016.5,
2026-01-27 00:00:00,1200522,Funchal,32.64786,-16.888,17.6,18.4,0.0,7,0.0,4.9,74.0,1017.6,W
2026-01-27 00:00:00,1200524,Porto Santo,33.074029,-16.34868,17.3,18.2,0.3,6,0.0,4.8,74.0,1016.0,SW
2026-01-27 00:00:00,1200531,Cabo Carvoeiro,39.38,-9.40737778,41.8,14.2,,6,4.1,11.6,100.0,1000.9,SW
2026-01-27 00:00:00,1200533,Sagres,37.012835,-8.949089,32.8,15.5,,6,0.0,9.1,76.0,1010.7,SW
2026-01-27 00:00:00,1200535,Lisboa (Geofísico),38.71907778,-9.14972222,33.8,14.1,0.0,6,4.1,9.4,100.0,1003.8,SW
2026-01-27 00:00:00,1200541,Sines,37.954504,-8.838271,34.2,14.9,0.0,6,0.0,9.5,100.0,1007.8,SW
2026-01-27 00:00:00,1200545,"Porto, Pedras Rubras (Aeródromo)",41.233502,-8.681332,24.8,13.1,0.2,7,11.3,6.9,97.0,996.2,W
2026-01-27 00:00:00,1200548,Coimbra (Aeródromo),40.15006944,-8.46669167,20.9,13.0,0.0,5,1.3,5.8,97.0,1000.0,S
2026-01-27 00:00:00,1200551,"Viana Castelo, Chafé",41.648875,-8.804606,17.3,11.7,0.0,7,4.4,4.8,100.0,995.8,W
2026-01-27 00:00:00,1200554,Faro (Aeródromo),37.016579,-7.971953,36.0,15.9,0.0,6,0.0,10.0,81.0,1011.8,SW
2026-01-27 00:00:00,1200558,Évora (C.Coordenação),38.53336389,-7.88338056,31.7,13.2,0.0,6,0.2,8.8,72.0,1008.2,SW
2026-01-27 00:00:00,1200559,Viseu (Aeródromo),40.72645,-7.887472,36.4,9.6,,6,7.4,10.1,99.0,998.8,SW
2026-01-27 00:00:00,1200560,Viseu (C.Coordenação),40.71492222,-7.89592222,33.1,9.3,,5,6.5,9.2,100.0,999.6,S
2026-01-27 00:00:00,1200562,Beja,38.02493056,-7.867275,25.6,12.9,0.0,6,0.0,7.1,91.0,1008.5,SW
2026-01-27 00:00:00,1200567,Vila Real,41.27418611,-7.7171,16.2,9.9,0.0,5,5.7,4.5,100.0,997.2,S
2026-01-27 00:00:00,1200568,Penhas Douradas,40.41136667,-7.55865278,29.9,5.3,0.0,5,,8.3,100.0,,S
2026-01-27 00:00:00,1200570,Castelo Branco,39.83339444,-7.46678889,,11.1,0.0,0,2.8,,100.0,1003.3,
2026-01-27 00:00:00,1200571,Portalegre,39.29546944,-7.41996944,9.7,9.8,0.0,5,0.9,2.7,100.0,1007.6,S
2026-01-27 00:00:00,1200575,Bragança,41.80388889,-6.74283889,36.7,9.3,0.0,5,0.6,10.2,86.0,997.7,S
2026-01-27 00:00:00,1200576,Bragança (Aeródromo),41.85763611,-6.70796389,26.3,9.5,,5,0.2,7.3,91.0,997.3,S
2026-01-27 00:00:00,1200843,Évora (Aeródromo),38.5296,-7.8916,31.0,13.1,,5,0.2,8.6,90.0,1007.9,S
2026-01-27 00:00:00,1210513,P. Delgada (Obs. A. Chaves),37.7464,-25.662283,14.0,11.5,9.8,8,0.2,3.9,70.0,,NW
2026-01-27 00:00:00,1210517,Flores / Morro Alto,39.4633,-31.2207,65.2,2.3,,7,0.0,18.1,100.0,1005.7,W
2026-01-27 00:00:00,1210518,São Miguel - Pico Santos De Cima,37.819,-25.7512,54.4,4.2,,8,0.6,15.1,100.0,1008.8,NW
2026-01-27 00:00:00,1210520,Ilhas selvagens,30.140595,-15.869153,48.6,17.1,3.0,7,0.0,13.5,70.0,1022.0,W
2026-01-27 00:00:00,1210550,Coruche / Cruz Do Leão,39.07101,-8.4,20.5,12.8,,5,4.1,5.7,100.0,1004.6,S
2026-01-27 00:00:00,1210553,Loulé / Cavalos De Caldeirão,37.3042,-7.9534,69.1,10.6,,6,0.0,19.2,100.0,1009.8,SW
2026-01-27 00:00:00,1210577,"Odemira, S.Teotónio",37.54710833,-8.72899167,37.4,15.1,0.0,5,0.0,10.4,83.0,,S
2026-01-27 00:00:00,1210580,"Lisboa, Relógio",38.7618,-9.1254,39.6,13.5,,5,4.7,11.0,95.0,1004.1,S
2026-01-27 00:00:00,1210604,V.N.Cerveira (Aeródromo),41.96673056,-8.66676111,17.6,11.3,0.6,7,16.6,4.9,100.0,995.0,W
2026-01-27 00:00:00,1210605,"Monção, Valinha",42.06669,-8.383347,15.8,12.7,0.0,6,11.0,4.4,95.0,,SW
2026-01-27 00:00:00,1210606,"Lamas de Mouro, P.Ribeiro",42.03333333,-8.18333333,,9.0,0.0,0,12.2,,98.0,993.8,
2026-01-27 00:00:00,1210611,Montalegre,41.82276667,-7.78797778,20.9,8.7,0.0,6,7.0,5.8,99.0,,SW
2026-01-27 00:00:00,1210612,Vinhais,41.8434,-7.0034416,22.7,8.4,,5,0.8,6.3,99.0,,S
2026-01-27 00:00:00,1210615,Ponte de Lima,41.75013889,-8.56671389,10.4,13.1,0.0,5,6.3,2.9,94.0,,S
2026-01-27 00:00:00,1210616,Chaves (Aeródromo),41.72516667,-7.46540833,17.6,12.9,0.0,6,1.9,4.9,78.0,994.3,SW
2026-01-27 00:00:00,1210619,Cabril,41.71666667,-8.01666667,48.6,10.9,,7,12.1,13.5,99.0,,W
2026-01-27 00:00:00,1210622,"Braga, Merelim",41.56678056,-8.45003056,19.1,12.8,7.1,6,12.4,5.3,99.0,995.5,SW
2026-01-27 00:00:00,1210625,Guimarães,41.4289,-8.3178,,13.3,0.0,0,,,90.0,995.2,
2026-01-27 00:00:00,1210630,Cabeceiras de Basto,41.53333333,-7.96666667,19.4,13.1,0.0,5,7.3,5.4,95.0,,S
2026-01-27 00:00:00,1210632,Mirandela,41.51478611,-7.19083889,24.5,13.6,0.0,5,0.7,6.8,70.0,,S
2026-01-27 00:00:00,1210633,"Macedo Cavaleiros, Bagueixe",41.56666667,-6.78333333,25.9,9.4,,5,0.0,7.2,91.0,,S
2026-01-27 00:00:00,1210635,Miranda do Douro,41.51666667,-6.28333333,27.0,9.8,,5,0.0,7.5,92.0,,S
2026-01-27 00:00:00,1210637,Mogadouro,41.33333333,-6.73333333,39.6,9.2,0.0,5,0.0,11.0,93.0,,S
2026-01-27 00:00:00,1210643,Paços Ferreira,41.27365,-8.38012,28.8,12.1,,5,9.8,8.0,100.0,,S
2026-01-27 00:00:00,1210644,Carrazêda de Ansiães,41.23333333,-7.28333333,27.4,10.0,0.0,5,0.0,7.6,81.0,,S
2026-01-27 00:00:00,1210654,Moncorvo,41.18333333,-7.01666667,34.9,11.4,0.0,5,0.0,9.7,76.0,998.3,S
2026-01-27 00:00:00,1210655,"Pinhão, Santa Bárbara",41.172775,-7.5489722,14.8,14.7,,5,0.4,4.1,70.0,,S
2026-01-27 00:00:00,1210657,Luzim,41.14585,-8.2490333,17.3,11.2,0.1,6,10.2,4.8,95.0,,SW
2026-01-27 00:00:00,1210663,Moimenta da Beira,40.98333333,-7.6,38.5,9.4,0.0,5,2.9,10.7,94.0,,S
2026-01-27 00:00:00,1210666,"Trancoso, Bandarra",40.78333333,-7.36666667,31.3,8.4,1.5,5,0.3,8.7,99.0,,S
2026-01-27 00:00:00,1210669,Arouca,40.93333333,-8.25,14.0,13.6,0.0,6,7.5,3.9,87.0,,SW
2026-01-27 00:00:00,1210671,"F. Castelo Rodrigo, V.Torpim",40.75,-6.88333333,43.9,10.0,0.0,5,0.1,12.2,90.0,,S
2026-01-27 00:00:00,1210683,Guarda,40.53333333,-7.26666667,41.0,7.0,2.4,5,2.3,11.4,100.0,,S
2026-01-27 00:00:00,1210685,Nelas,40.51666667,-7.85,29.5,11.8,0.0,6,0.6,8.2,90.0,,SW
2026-01-27 00:00:00,1210686,"Pampilhosa da Serra, Fajão",40.145653,-7.92704,59.8,8.3,,5,0.3,16.6,100.0,,S
2026-01-27 00:00:00,1210687,Covilhã (Aeródromo),40.264309,-7.482302,22.3,11.1,0.0,5,,6.2,92.0,,S
2026-01-27 00:00:00,1210690,Aldeia Souto (Q. Lageosa),40.35425833,-7.38931111,15.8,10.6,0.1,6,1.1,4.4,87.0,,SW
2026-01-27 00:00:00,1210697,Lousã (Aeródromo),40.143922,-8.244066,18.4,14.7,,6,0.3,5.1,85.0,,SW
2026-01-27 00:00:00,1210698,Fundão,40.14063611,-7.55362778,22.0,11.3,4.5,5,1.2,6.1,88.0,,S
2026-01-27 00:00:00,1210702,Aveiro (Universidade),40.63529722,-8.65958333,32.4,14.4,0.0,6,3.6,9.0,92.0,998.3,SW
2026-01-27 00:00:00,1210704,Dunas de Mira,40.445955,-8.76168055,30.6,14.6,0.0,5,2.7,8.5,93.0,,S
2026-01-27 00:00:00,1210705,Anadia,40.438852,-8.439996,9.4,13.3,0.0,5,3.3,2.6,94.0,,S
2026-01-27 00:00:00,1210707,"Coimbra, Bencanta",40.2134694,-8.45515277,13.0,14.0,2.0,5,2.9,3.6,100.0,,S
2026-01-27 00:00:00,1210713,"Figueira da Foz, Vila Verde",40.139764,-8.805945,37.1,14.5,0.0,5,2.5,10.3,,,S
2026-01-27 00:00:00,1210716,Ansião,39.9,-8.4,23.4,11.6,0.0,5,1.6,6.5,98.0,,S
2026-01-27 00:00:00,1210718,Leiria (Aeródromo),39.780553,-8.818166,24.8,14.2,1.2,5,3.7,6.9,94.0,1001.1,S
2026-01-27 00:00:00,1210724,"Tomar, Valdonas",39.6,-8.36666667,25.6,13.9,225.2,5,1.0,7.1,94.0,,S
2026-01-27 00:00:00,1210726,Alcobaça,39.51666667,-8.96666667,11.5,14.6,0.0,5,3.7,3.2,89.0,,S
2026-01-27 00:00:00,1210729,Rio Maior,39.35,-8.93333333,17.6,13.8,42.6,5,0.9,4.9,95.0,,S
2026-01-27 00:00:00,1210734,"Santarém, Fonte Boa",39.201216,-8.736656,37.8,13.5,0.0,5,0.9,10.5,97.0,1002.8,S
2026-01-27 00:00:00,1210735,Chamusca / Chouto,39.27,-8.3508,31.0,13.4,,5,2.8,8.6,98.0,1003.8,S
2026-01-27 00:00:00,1210739,"Torres Vedras, Dois Portos",39.04389444,-9.179,47.5,14.4,7.4,6,0.2,13.2,97.0,,SW
2026-01-27 00:00:00,1210744,Coruche,38.94096667,-8.51073611,37.1,14.4,0.2,6,3.8,10.3,,,SW
2026-01-27 00:00:00,1210746,Santa Cruz (Aeródromo),39.12594166,-9.3790388,46.8,13.3,0.5,6,2.0,13.0,94.0,1002.1,SW
2026-01-27 00:00:00,1210750,Cabo da Roca,38.78171,-9.4975361,88.6,13.8,2.9,5,0.3,24.6,100.0,,S
2026-01-27 00:00:00,1210752,Sintra/Tapada do Mouco,38.781669,-9.400398,20.5,11.2,,4,1.5,5.7,100.0,,SE
2026-01-27 00:00:00,1210762,"Lisboa, Tapada da Ajuda",38.70956111,-9.182825,23.8,14.3,0.0,6,3.9,6.6,99.0,,SW
2026-01-27 00:00:00,1210765,Cabo Raso,38.70900833,-9.48538333,,14.4,,0,1.3,,100.0,,
2026-01-27 00:00:00,1210766,"Barreiro, Lavradio",38.67448611,-9.04766111,29.5,15.2,0.0,5,6.2,8.2,91.0,,S
2026-01-27 00:00:00,1210767,Pegões,38.65079,-8.63503,23.4,13.8,0.0,5,4.1,6.5,100.0,,S
2026-01-27 00:00:00,1210770,Setúbal,38.54846008,-8.89077058,17.3,14.5,1.5,5,5.1,4.8,90.0,,S
2026-01-27 00:00:00,1210776,"Alcácer do Sal, Barrosinha",38.36666667,-8.48333333,29.5,15.3,0.0,6,0.0,8.2,83.0,,SW
2026-01-27 00:00:00,1210783,Alvalade,37.946806,-8.394504,24.5,15.7,0.0,6,0.0,6.8,78.0,,SW
2026-01-27 00:00:00,1210785,Ourique / Santana Da Serra,37.5025,-8.3019,28.8,14.1,0.0,4,0.0,8.0,83.0,1010.0,SE
2026-01-27 00:00:00,1210789,Aljezur,37.31675278,-8.80001667,19.4,16.3,0.0,6,0.0,5.4,77.0,,SW
2026-01-27 00:00:00,1210790,Fóia,37.3143,-8.595733,54.0,8.9,0.0,6,0.0,15.0,,,SW
2026-01-27 00:00:00,1210800,"Sabugal, Martim Rei",40.33918056,-7.03693333,37.8,8.6,0.0,5,2.5,10.5,99.0,,S
2026-01-27 00:00:00,1210803,Zebreira,39.86666667,-7.01666667,25.6,11.7,0.0,5,2.4,7.1,90.0,,S
2026-01-27 00:00:00,1210806,"Proença-a-Nova, P.Moitas",39.73333333,-7.86666667,23.8,11.4,13.0,6,2.3,6.6,100.0,,SW
2026-01-27 00:00:00,1210812,Alvega,39.46666667,-8.05,31.3,13.9,,5,2.7,8.7,97.0,,S
2026-01-27 00:00:00,1210824,"Avis, Benavila",39.1,-7.86666667,23.0,13.3,0.0,5,1.3,6.4,99.0,,S
2026-01-27 00:00:00,1210826,Mora,38.94068,-8.16406,27.7,13.2,0.0,5,2.0,7.7,94.0,,S
2026-01-27 00:00:00,1210835,Elvas,38.8908,-7.13976111,22.0,12.7,0.0,6,0.1,6.1,90.0,,SW
2026-01-27 00:00:00,1210837,Estremoz,38.86666667,-7.51666667,18.0,12.1,0.0,5,0.4,5.0,100.0,,S
2026-01-27 00:00:00,1210846,Montemor-O-Novo,38.6451,-8.1991,19.8,13.2,,5,0.6,5.5,94.0,1008.1,S
2026-01-27 00:00:00,1210847,Viana do Alentejo,38.3319194,-8.04553888,29.2,13.8,6.5,6,,8.1,82.0,,SW
2026-01-27 00:00:00,1210848,"Portel, Oriola",38.31666667,-7.86666667,28.4,13.8,,6,0.0,7.9,83.0,,SW
2026-01-27 00:00:00,1210851,Amareleja,38.2007,-7.2261,17.6,,0.0,5,0.0,4.9,,1009.6,S
2026-01-27 00:00:00,1210863,"Mértola, Vale Formoso",37.75,-7.55,13.3,13.9,0.0,5,0.0,3.7,80.0,,S
2026-01-27 00:00:00,1210864,"Castro Verde, N.Corvo",37.57655833,-7.97211389,26.3,14.4,0.0,6,0.0,7.3,98.0,,SW
2026-01-27 00:00:00,1210865,"Alcoutim, Mart.Longo",37.43333333,-7.76666667,29.2,13.8,,6,0.0,8.1,84.0,1010.9,SW
2026-01-27 00:00:00,1210866,Vila Real de S.António,37.1871055,-7.416325,,15.7,,0,0.0,,82.0,,
2026-01-27 00:00:00,1210867,Castro Marim (RN Sapal),37.21666667,-7.45,32.4,15.9,0.0,6,0.0,9.0,84.0,,SW
2026-01-27 00:00:00,1210878,Portimão (Aeródromo),37.149167,-8.581389,24.5,15.7,0.0,6,0.0,6.8,81.0,1011.2,SW
2026-01-27 00:00:00,1210881,"Olhão, EPPO",37.033,-7.821,32.8,15.9,0.0,5,0.0,9.1,82.0,1012.1,S
2026-01-27 00:00:00,1210932,"S. Miguel, Nordeste",37.83256,-25.150108,21.2,10.1,,8,0.0,5.9,78.0,,NW
2026-01-27 00:00:00,1210956,"Madeira, Porto Moniz",32.867477,-17.171373,,19.2,0.0,0,0.0,,68.0,,
2026-01-27 00:00:00,1210960,"Madeira, S. Jorge, Santana",32.83446944,-16.906219,22.3,18.1,2.3,7,0.0,6.2,69.0,1015.5,W
2026-01-27 00:00:00,1210965,"Madeira, Santana",32.808238,-16.8864166,,14.6,26.5,0,0.0,,77.0,,
2026-01-27 00:00:00,1210967,"Madeira, São Vicente",32.8001833,-17.044722,,17.9,0.0,0,0.1,,75.0,,
2026-01-27 00:00:00,1210972,"Madeira, Pico Alto",32.693491,-16.903955,16.9,10.1,0.0,6,,4.7,,,SW
2026-01-27 00:00:00,1210973,"Madeira, Areeiro",32.71666667,-16.91666667,29.2,7.6,17.4,7,5.6,8.1,100.0,,W
2026-01-27 00:00:00,1210974,"Madeira, Pico do Areeiro",32.735107,-16.928271,,6.1,,0,4.7,,100.0,,
2026-01-27 00:00:00,1210975,"Madeira, Santo da Serra",32.7258972,-16.816822,,12.9,0.0,0,0.2,,93.0,,
2026-01-27 00:00:00,1210976,"Madeira, Monte",32.675833,-16.906944,8.6,13.3,3.1,3,0.0,2.4,99.0,,E
2026-01-27 00:00:00,1210977,"Madeira, Cancela",32.64500556,-16.86575,15.1,16.4,0.1,4,0.0,4.2,93.0,,SE
2026-01-27 00:00:00,1210978,"Madeira, S. Lourenço",32.747,-16.706,56.9,17.3,0.0,6,0.0,15.8,84.0,,SW
2026-01-27 00:00:00,1210984,"Madeira, Quinta Grande",32.6629722,-17.01503611,,14.9,1.9,0,0.0,,84.0,,
2026-01-27 00:00:00,1210986,Ponta do Sol/Lugar de Baixo,32.681502,-17.104167,31.7,18.6,0.0,6,0.0,8.8,77.0,,SW
2026-01-27 00:00:00,1210987,Prazeres (Calheta),32.757205,-17.201551,17.3,13.3,0.2,7,0.0,4.8,100.0,,W
2026-01-27 00:00:00,1210990,"Madeira, Calheta",32.81384167,-17.26321389,28.1,15.6,0.0,5,0.0,7.8,91.0,1015.2,S
2026-01-27 00:00:00,1240546,"Porto, Serra do Pilar",41.1385194,-8.6025,,13.0,,0,18.3,,100.0,995.9,
2026-01-27 00:00:00,1240566,Vila Real (Cidade),41.30898056,-7.740522,9.0,10.4,,5,6.2,2.5,99.0,,S
2026-01-27 00:00:00,1240610,Viana do Castelo,41.695,-8.82916,,12.1,,0,2.6,,97.0,,
2026-01-27 00:00:00,1240903,"Porto, Massarelos",41.15257,-8.62598,,13.2,,0,,,100.0,,
2026-01-27 00:00:00,1240971,"Madeira, Funchal, Lido",32.63655,-16.935592,22.0,18.5,0.2,7,0.0,6.1,79.0,,W
2026-01-27 00:00:00,1259201,Lousã/Trevim,40.09328521,-8.17904215,60.1,7.1,,7,,16.7,100.0,,W
2026-01-27 00:00:00,1259204,Seia/Senhora do Espinheiro,40.412775,-7.673406,60.8,8.6,,5,,16.9,91.0,998.7,S
2026-01-27 00:00:00,6210872,Loulé (CML),37.129946,-8.06523593,16.6,14.9,,6,0.0,4.6,84.0,1012.1,SW
2026-01-27 00:00:00,6210879,Portimão (Praia da Rocha),37.11670461,-8.52946314,37.1,15.6,,6,0.1,10.3,86.0,,SW
2026-01-27 00:00:00,6211211,Monção - Guimil (CIM),42.042944,-8.421872,24.1,,1.1,7,,6.7,,992.6,W
2026-01-27 00:00:00,6211213,Paredes De Coura - Vascões (CIM),41.913444,-8.492111,16.2,9.3,0.1,6,,4.5,99.0,993.6,SW
2026-01-27 00:00:00,6211216,Arcos De Valdevez - Heliporto (CIM),41.831,-8.44375,13.3,11.5,,6,9.8,3.7,97.0,994.2,SW
2026-01-27 00:00:00,6211218,Ponte De Lima - Anais (CIM),41.698083,-8.522444,18.0,10.8,0.1,8,,5.0,96.0,994.2,NW
2026-01-27 00:00:00,6212122,Amares Caldelas (CIM),41.66796389,-8.37977778,13.7,12.9,,6,11.8,3.8,95.0,995.6,SW
2026-01-27 00:00:00,6212123,Vila Verde (CIM),41.64686111,-8.43398056,9.0,13.0,,6,,2.5,91.0,995.2,SW
2026-01-27 00:00:00,6212124,Braga (CIM),41.53568333,-8.42514722,16.6,12.2,,6,22.1,4.6,96.0,996.3,SW
2026-01-27 00:00:00,6212126,Esposende (CIM),41.52645556,-8.77984444,20.2,12.3,,6,8.6,5.6,98.0,996.9,SW
2026-01-27 00:00:00,6213012,Carregal do Sal (CIM),40.46718056,-7.92626389,27.7,12.5,,6,,7.7,87.0,,SW
2026-01-27 00:00:00,6213013,Castro Daire / Mézio (CIM),40.98086111,-7.88318889,32.4,7.7,,5,,9.0,100.0,,S
2026-01-27 00:00:00,6213014,Mangualde / Chãs de Tavares  (CIM),40.61096111,-7.60838889,41.0,10.1,,6,0.2,11.4,90.0,,SW
2026-01-27 00:00:00,6213016,Oliveira de Frades (CIM),40.716925,-8.20133889,51.5,10.6,,4,,14.3,94.0,,SE
2026-01-27 00:00:00,6213017,Penalva do Castelo (CIM),40.65706389,-7.69655278,22.3,11.4,,6,1.4,6.2,91.0,,SW
2026-01-27 00:00:00,6213020,Satão (CIM),40.76072778,-7.72019722,15.1,8.8,,5,5.3,4.2,100.0,,S
2026-01-27 00:00:00,6213022,Vila Nova de Paiva (CIM),40.85595,-7.72716389,28.8,8.2,,6,3.1,8.0,,,SW
2026-01-27 00:00:00,6213611,Arganil / Aeródromo (CIM),40.274578,-7.974399,27.0,14.0,,6,0.0,7.5,79.0,,SW
2026-01-27 00:00:00,6213612,Cantanhede / Fonte Dom Pedro (CIM),40.341894,-8.577613,22.7,13.1,,5,6.5,6.3,96.0,,S
2026-01-27 00:00:00,6213613,Coimbra / Mata de São Pedro (CIM),40.330787,-8.374887,17.3,11.1,,5,,4.8,100.0,,S
2026-01-27 00:00:00,6213614,Góis / Quinta da Ribeira (CIM),40.171642,-8.103238,31.3,,,6,,8.7,,,SW
2026-01-27 00:00:00,6213615,Mealhada / Quinta do Vale (CIM),40.373343,-8.4388429,19.4,12.8,,5,6.9,5.4,99.0,,S
2026-01-27 00:00:00,6213616,Mortágua / Aeródromo (CIM),40.426239,-8.232142,24.1,12.7,,5,4.4,6.7,95.0,,S
2026-01-27 00:00:00,6213617,Penacova / Hombres (CIM),40.280921,-8.198685,28.1,,,6,5.7,7.8,95.0,,SW
2026-01-27 00:00:00,6213619,Vila Nova de Poiares (CIM),40.211411,-8.241995,20.9,14.9,,6,0.6,5.8,78.0,,SW
2026-01-27 00:00:00,6213620,Oliveira do Hospital (CIM),40.413306,-7.867972,25.9,12.8,,6,0.1,7.2,80.0,,SW
2026-01-27 00:00:00,6215302,"Lisboa, Carnide (CML)",38.7751,-9.1855,35.6,13.8,,6,,9.9,98.0,1003.2,SW
2026-01-27 00:00:00,6215360,Oeiras / Vila Fria (CMO),38.7239536,-9.2939255,44.3,14.0,0.0,6,2.9,12.3,97.0,1003.9,SW
2026-01-27 00:00:00,7240919,"Lisboa, Amoreiras (LFCL)",38.7239,-9.1649,25.6,13.4,,6,3.4,7.1,100.0,1004.7,SW
2026-01-27 01:00:00,11217160,Santa Maria / Praia Formosa (DROTRH),36.9542,-25.0917,23.4,11.2,4.5,3,1.1,6.5,85.0,,E
2026-01-27 01:00:00,11217165,Santa Maria / Maia (DROTRH),36.9412,-25.0176,28.4,10.9,10.0,7,0.9,7.9,84.0,,W
2026-01-27 01:00:00,11217217,São Miguel / Santana (DROTRH),37.8049,-25.5618,7.9,10.7,1.6,7,0.1,2.2,76.0,,W
2026-01-27 01:00:00,11217225,São Miguel / Sete Cidades (DROTRH),37.8679,-25.772,22.7,10.1,2.9,7,0.0,6.3,80.0,,W
2026-01-27 01:00:00,11217255,São Miguel / Lagoa das Furnas (DROTRH),37.7619,-25.3291,7.9,9.1,6.2,4,0.7,2.2,77.0,,SE
2026-01-27 01:00:00,11217372,Terceira / Serra do Cume (DROTRH),38.7002,-27.1031,29.2,6.3,0.0,8,0.1,8.1,91.0,,NW
2026-01-27 01:00:00,11217430,Graciosa / Serra das Fontes (DROTRH),39.0672,-28.0038,49.3,7.8,0.0,8,0.2,13.7,92.0,,NW
2026-01-27 01:00:00,11217510,São Jorge / Pico do Areeiro (DROTRH),38.6435,-28.0591,55.1,3.3,0.0,6,1.2,15.3,100.0,,SW
2026-01-27 01:00:00,11217625,Pico / Cabeço do Teicho (DROTRH),38.489,-28.3534,28.4,3.7,0.0,7,0.8,7.9,96.0,,W
2026-01-27 01:00:00,11217645,Pico / Cabecinho (DROTRH),38.4338,-28.1141,24.5,6.2,0.0,8,0.2,6.8,81.0,,NW
2026-01-27 01:00:00,11217710,Faial / Alto do Cabouco (DROTRH),38.587,-28.6992,,4.0,0.0,5,0.2,,98.0,,S
2026-01-27 01:00:00,11217730,Faial / Cabeço Verde (DROTRH),38.5843,-28.7576,13.7,6.7,0.0,8,0.1,3.8,90.0,,NW
2026-01-27 01:00:00,1200501,Flores (Aeródromo),39.45819,-31.1301,28.8,10.5,0.1,7,0.8,8.0,70.0,1009.4,W
2026-01-27 01:00:00,1200502,Corvo (Aeródromo),39.67389,-31.11362,58.7,10.9,0.1,7,0.5,16.3,76.0,1007.4,W
2026-01-27 01:00:00,1200504,Pico (Aeródromo),38.55219,-28.44137,20.5,10.6,0.0,7,0.0,5.7,70.0,1010.1,W
2026-01-27 01:00:00,1200505,Horta / Aeroporto,38.5211,-28.7128,34.9,10.9,,7,0.6,9.7,72.0,1009.8,W
2026-01-27 01:00:00,1200506,Horta (Obs. Principe Alberto),38.540781,-28.63225,47.2,9.6,0.3,7,0.9,13.1,85.0,1010.1,W
2026-01-27 01:00:00,1200510,São Jorge,38.66,-28.17,31.0,9.9,7.9,7,1.0,8.6,84.0,1009.6,W
2026-01-27 01:00:00,1200511,Angra do Heroísmo,38.6659435,-27.216567,25.9,10.0,0.0,7,0.6,7.2,72.0,1008.5,W
2026-01-27 01:00:00,1200512,P. Delgada (Aeródromo),37.74414,-25.6953048,52.9,11.3,0.6,8,0.1,14.7,78.0,1009.2,NW
2026-01-27 01:00:00,1200515,Santa Maria (Aeródromo),36.967175,-25.1679,55.4,12.3,1.6,8,0.8,15.4,81.0,1011.4,NW
2026-01-27 01:00:00,1200521,Santa Catarina (Aeródromo),32.69688,-16.77612,,17.7,0.0,0,1.5,,84.0,1015.6,
2026-01-27 01:00:00,1200522,Funchal,32.64786,-16.888,17.3,18.4,0.0,7,0.0,4.8,76.0,1017.0,W
2026-01-27 01:00:00,1200524,Porto Santo,33.074029,-16.34868,16.6,18.6,0.0,6,0.0,4.6,73.0,1015.5,SW
2026-01-27 01:00:00,1200531,Cabo Carvoeiro,39.38,-9.40737778,48.2,14.1,,5,3.1,13.4,100.0,999.5,S
2026-01-27 01:00:00,1200533,Sagres,37.012835,-8.949089,36.0,15.6,,6,0.0,10.0,77.0,1009.4,SW
2026-01-27 01:00:00,1200535,Lisboa (Geofísico),38.71907778,-9.14972222,41.8,14.1,0.0,6,6.3,11.6,100.0,1002.5,SW
2026-01-27 01:00:00,1200541,Sines,37.954504,-8.838271,33.8,14.5,0.0,6,1.4,9.4,100.0,1006.4,SW
2026-01-27 01:00:00,1200545,"Porto, Pedras Rubras (Aeródromo)",41.233502,-8.681332,15.8,11.7,0.3,6,1.6,4.4,98.0,997.3,SW
2026-01-27 01:00:00,1200548,Coimbra (Aeródromo),40.15006944,-8.46669167,23.0,13.0,0.0,5,6.0,6.4,99.0,998.5,S
2026-01-27 01:00:00,1200551,"Viana Castelo, Chafé",41.648875,-8.804606,12.6,11.7,0.0,6,0.4,3.5,100.0,996.3,SW
2026-01-27 01:00:00,1200554,Faro (Aeródromo),37.016579,-7.971953,40.0,16.0,0.0,6,0.0,11.1,81.0,1010.9,SW
2026-01-27 01:00:00,1200558,Évora (C.Coordenação),38.53336389,-7.88338056,32.4,12.7,0.0,5,1.5,9.0,,1006.7,S
2026-01-27 01:00:00,1200559,Viseu (Aeródromo),40.72645,-7.887472,33.1,9.8,,6,8.1,9.2,99.0,997.2,SW
2026-01-27 01:00:00,1200560,Viseu (C.Coordenação),40.71492222,-7.89592222,29.9,9.5,,5,7.1,8.3,100.0,997.9,S
2026-01-27 01:00:00,1200562,Beja,38.02493056,-7.867275,27.4,13.1,0.0,6,0.0,7.6,90.0,1007.2,SW
2026-01-27 01:00:00,1200567,Vila Real,41.27418611,-7.7171,13.7,9.9,0.0,7,13.8,3.8,100.0,995.9,W
2026-01-27 01:00:00,1200568,Penhas Douradas,40.41136667,-7.55865278,36.7,5.6,0.0,5,,10.2,100.0,,S
2026-01-27 01:00:00,1200570,Castelo Branco,39.83339444,-7.46678889,24.5,11.3,0.0,5,0.3,6.8,100.0,1000.7,S
2026-01-27 01:00:00,1200571,Portalegre,39.29546944,-7.41996944,15.1,9.8,0.0,4,1.6,4.2,100.0,1004.8,SE
2026-01-27 01:00:00,1200575,Bragança,41.80388889,-6.74283889,33.8,8.8,0.0,5,4.5,9.4,91.0,996.9,S
2026-01-27 01:00:00,1200576,Bragança (Aeródromo),41.85763611,-6.70796389,24.5,8.9,,5,3.8,6.8,98.0,996.1,S
2026-01-27 01:00:00,1200843,Évora (Aeródromo),38.5296,-7.8916,32.4,12.6,,5,1.6,9.0,94.0,1006.3,S
2026-01-27 01:00:00,1210513,P. Delgada (Obs. A. Chaves),37.7464,-25.662283,11.9,10.8,8.2,9,0.4,3.3,76.0,,N
2026-01-27 01:00:00,1210517,Flores / Morro Alto,39.4633,-31.2207,72.4,2.9,,7,0.0,20.1,100.0,1005.2,W
2026-01-27 01:00:00,1210518,São Miguel - Pico Santos De Cima,37.819,-25.7512,48.6,4.3,,8,0.2,13.5,100.0,1008.9,NW
2026-01-27 01:00:00,1210520,Ilhas selvagens,30.140595,-15.869153,58.7,17.2,0.5,7,0.0,16.3,70.0,1021.2,W
2026-01-27 01:00:00,1210550,Coruche / Cruz Do Leão,39.07101,-8.4,24.8,12.9,,5,4.1,6.9,100.0,1002.9,S
2026-01-27 01:00:00,1210553,Loulé / Cavalos De Caldeirão,37.3042,-7.9534,68.4,10.5,,6,0.0,19.0,100.0,1008.7,SW
2026-01-27 01:00:00,1210577,"Odemira, S.Teotónio",37.54710833,-8.72899167,35.6,14.7,0.0,5,0.0,9.9,88.0,,S
2026-01-27 01:00:00,1210580,"Lisboa, Relógio",38.7618,-9.1254,40.3,13.4,,6,6.5,11.2,97.0,1003.0,SW
2026-01-27 01:00:00,1210604,V.N.Cerveira (Aeródromo),41.96673056,-8.66676111,18.7,11.2,0.3,6,0.6,5.2,97.0,995.6,SW
2026-01-27 01:00:00,1210605,"Monção, Valinha",42.06669,-8.383347,15.5,11.7,0.0,6,0.8,4.3,93.0,,SW
2026-01-27 01:00:00,1210606,"Lamas de Mouro, P.Ribeiro",42.03333333,-8.18333333,,6.9,0.0,0,8.1,,99.0,995.9,
2026-01-27 01:00:00,1210611,Montalegre,41.82276667,-7.78797778,21.2,7.6,0.0,6,10.2,5.9,99.0,,SW
2026-01-27 01:00:00,1210612,Vinhais,41.8434,-7.0034416,20.5,8.2,,5,6.5,5.7,100.0,,S
2026-01-27 01:00:00,1210615,Ponte de Lima,41.75013889,-8.56671389,7.6,11.5,0.0,5,2.3,2.1,97.0,,S
2026-01-27 01:00:00,1210616,Chaves (Aeródromo),41.72516667,-7.46540833,23.0,12.3,0.0,7,10.9,6.4,85.0,993.9,W
2026-01-27 01:00:00,1210619,Cabril,41.71666667,-8.01666667,25.6,9.1,,7,8.5,7.1,99.0,,W
2026-01-27 01:00:00,1210622,"Braga, Merelim",41.56678056,-8.45003056,13.0,11.2,9.2,6,3.1,3.6,100.0,997.1,SW
2026-01-27 01:00:00,1210625,Guimarães,41.4289,-8.3178,,11.5,2.7,0,,,91.0,996.9,
2026-01-27 01:00:00,1210630,Cabeceiras de Basto,41.53333333,-7.96666667,19.4,12.5,0.0,7,8.4,5.4,95.0,,W
2026-01-27 01:00:00,1210632,Mirandela,41.51478611,-7.19083889,20.9,12.3,0.0,5,6.0,5.8,80.0,,S
2026-01-27 01:00:00,1210633,"Macedo Cavaleiros, Bagueixe",41.56666667,-6.78333333,22.7,9.0,,6,4.1,6.3,96.0,,SW
2026-01-27 01:00:00,1210635,Miranda do Douro,41.51666667,-6.28333333,41.4,10.1,,6,0.0,11.5,87.0,,SW
2026-01-27 01:00:00,1210637,Mogadouro,41.33333333,-6.73333333,53.6,9.4,0.4,5,0.2,14.9,89.0,,S
2026-01-27 01:00:00,1210643,Paços Ferreira,41.27365,-8.38012,16.2,10.6,,7,8.5,4.5,100.0,,W
2026-01-27 01:00:00,1210644,Carrazêda de Ansiães,41.23333333,-7.28333333,16.6,9.4,0.0,5,0.7,4.6,89.0,,S
2026-01-27 01:00:00,1210654,Moncorvo,41.18333333,-7.01666667,27.0,11.6,0.0,5,0.1,7.5,76.0,997.0,S
2026-01-27 01:00:00,1210655,"Pinhão, Santa Bárbara",41.172775,-7.5489722,12.2,14.0,,5,2.7,3.4,78.0,,S
2026-01-27 01:00:00,1210657,Luzim,41.14585,-8.2490333,11.2,10.5,0.1,7,10.9,3.1,96.0,,W
2026-01-27 01:00:00,1210663,Moimenta da Beira,40.98333333,-7.6,38.9,9.5,0.0,5,5.3,10.8,97.0,,S
2026-01-27 01:00:00,1210666,"Trancoso, Bandarra",40.78333333,-7.36666667,34.2,8.7,0.0,5,1.2,9.5,99.0,,S
2026-01-27 01:00:00,1210669,Arouca,40.93333333,-8.25,15.5,13.5,0.0,7,9.4,4.3,89.0,,W
2026-01-27 01:00:00,1210671,"F. Castelo Rodrigo, V.Torpim",40.75,-6.88333333,41.8,10.1,0.0,5,0.0,11.6,90.0,,S
2026-01-27 01:00:00,1210683,Guarda,40.53333333,-7.26666667,29.9,7.2,2.4,5,4.6,8.3,100.0,,S
2026-01-27 01:00:00,1210685,Nelas,40.51666667,-7.85,21.6,11.0,0.0,6,5.2,6.0,98.0,,SW
2026-01-27 01:00:00,1210686,"Pampilhosa da Serra, Fajão",40.145653,-7.92704,52.9,8.5,,5,4.2,14.7,100.0,,S
2026-01-27 01:00:00,1210687,Covilhã (Aeródromo),40.264309,-7.482302,19.8,11.1,0.0,6,,5.5,96.0,,SW
2026-01-27 01:00:00,1210690,Aldeia Souto (Q. Lageosa),40.35425833,-7.38931111,11.5,10.7,0.0,5,8.3,3.2,94.0,,S
2026-01-27 01:00:00,1210697,Lousã (Aeródromo),40.143922,-8.244066,18.0,14.4,,6,3.5,5.0,91.0,,SW
2026-01-27 01:00:00,1210698,Fundão,40.14063611,-7.55362778,19.8,11.5,2.2,5,1.4,5.5,88.0,,S
2026-01-27 01:00:00,1210702,Aveiro (Universidade),40.63529722,-8.65958333,26.6,13.4,0.1,7,7.2,7.4,95.0,998.2,W
2026-01-27 01:00:00,1210704,Dunas de Mira,40.445955,-8.76168055,14.8,13.6,0.3,7,8.6,4.1,96.0,,W
2026-01-27 01:00:00,1210705,Anadia,40.438852,-8.439996,8.6,13.3,0.0,6,12.8,2.4,96.0,,SW
2026-01-27 01:00:00,1210707,"Coimbra, Bencanta",40.2134694,-8.45515277,16.2,13.8,1.7,5,5.9,4.5,100.0,,S
2026-01-27 01:00:00,1210713,"Figueira da Foz, Vila Verde",40.139764,-8.805945,22.3,14.0,0.0,7,19.0,6.2,,,W
2026-01-27 01:00:00,1210716,Ansião,39.9,-8.4,23.8,11.7,0.0,5,5.8,6.6,99.0,,S
2026-01-27 01:00:00,1210718,Leiria (Aeródromo),39.780553,-8.818166,30.2,14.0,1.8,5,6.8,8.4,96.0,999.6,S
2026-01-27 01:00:00,1210724,"Tomar, Valdonas",39.6,-8.36666667,19.8,14.1,153.7,5,4.3,5.5,96.0,,S
2026-01-27 01:00:00,1210726,Alcobaça,39.51666667,-8.96666667,15.1,14.7,0.0,5,6.3,4.2,91.0,,S
2026-01-27 01:00:00,1210729,Rio Maior,39.35,-8.93333333,19.8,14.2,36.4,5,6.4,5.5,95.0,,S
2026-01-27 01:00:00,1210734,"Santarém, Fonte Boa",39.201216,-8.736656,40.0,13.7,0.0,5,5.1,11.1,97.0,1001.7,S
2026-01-27 01:00:00,1210735,Chamusca / Chouto,39.27,-8.3508,35.3,13.6,,5,4.6,9.8,97.0,1002.2,S
2026-01-27 01:00:00,1210739,"Torres Vedras, Dois Portos",39.04389444,-9.179,40.7,13.9,3.1,6,5.8,11.3,99.0,,SW
2026-01-27 01:00:00,1210744,Coruche,38.94096667,-8.51073611,40.0,,,6,,11.1,,,SW
2026-01-27 01:00:00,1210746,Santa Cruz (Aeródromo),39.12594166,-9.3790388,46.8,13.1,0.0,5,3.2,13.0,97.0,1001.0,S
2026-01-27 01:00:00,1210750,Cabo da Roca,38.78171,-9.4975361,85.7,13.6,0.0,5,1.0,23.8,100.0,,S
2026-01-27 01:00:00,1210752,Sintra/Tapada do Mouco,38.781669,-9.400398,19.1,11.4,,5,5.5,5.3,100.0,,S
2026-01-27 01:00:00,1210762,"Lisboa, Tapada da Ajuda",38.70956111,-9.182825,29.5,14.3,0.0,6,5.1,8.2,100.0,,SW
2026-01-27 01:00:00,1210765,Cabo Raso,38.70900833,-9.48538333,51.8,14.5,,6,3.5,14.4,100.0,,SW
2026-01-27 01:00:00,1210766,"Barreiro, Lavradio",38.67448611,-9.04766111,32.8,15.3,0.0,5,7.4,9.1,92.0,,S
2026-01-27 01:00:00,1210767,Pegões,38.65079,-8.63503,25.6,13.8,0.0,5,3.9,7.1,100.0,,S
2026-01-27 01:00:00,1210770,Setúbal,38.54846008,-8.89077058,21.6,14.3,1.5,6,6.0,6.0,92.0,,SW
2026-01-27 01:00:00,1210776,"Alcácer do Sal, Barrosinha",38.36666667,-8.48333333,33.8,14.5,0.0,6,2.6,9.4,91.0,,SW
2026-01-27 01:00:00,1210783,Alvalade,37.946806,-8.394504,26.6,15.4,0.0,5,0.3,7.4,81.0,,S
2026-01-27 01:00:00,1210785,Ourique / Santana Da Serra,37.5025,-8.3019,32.8,14.0,0.1,4,0.0,9.1,85.0,1008.5,SE
2026-01-27 01:00:00,1210789,Aljezur,37.31675278,-8.80001667,23.0,16.3,0.0,6,0.0,6.4,80.0,,SW
2026-01-27 01:00:00,1210790,Fóia,37.3143,-8.595733,53.3,9.1,0.0,6,0.4,14.8,,,SW
2026-01-27 01:00:00,1210800,"Sabugal, Martim Rei",40.33918056,-7.03693333,36.0,8.6,0.0,5,1.4,10.0,99.0,,S
2026-01-27 01:00:00,1210803,Zebreira,39.86666667,-7.01666667,23.4,11.5,0.0,5,0.3,6.5,92.0,,S
2026-01-27 01:00:00,1210806,"Proença-a-Nova, P.Moitas",39.73333333,-7.86666667,31.3,11.5,12.1,6,3.7,8.7,100.0,,SW
2026-01-27 01:00:00,1210812,Alvega,39.46666667,-8.05,22.0,14.1,,5,2.0,6.1,96.0,,S
2026-01-27 01:00:00,1210824,"Avis, Benavila",39.1,-7.86666667,29.9,13.1,0.0,5,2.3,8.3,99.0,,S
2026-01-27 01:00:00,1210826,Mora,38.94068,-8.16406,26.3,12.8,0.0,5,4.4,7.3,99.0,,S
2026-01-27 01:00:00,1210835,Elvas,38.8908,-7.13976111,27.7,12.4,0.0,5,0.1,7.7,93.0,,S
2026-01-27 01:00:00,1210837,Estremoz,38.86666667,-7.51666667,24.8,11.5,0.0,5,1.4,6.9,100.0,,S
2026-01-27 01:00:00,1210846,Montemor-O-Novo,38.6451,-8.1991,23.0,12.7,,5,6.2,6.4,100.0,1006.2,S
2026-01-27 01:00:00,1210847,Viana do Alentejo,38.3319194,-8.04553888,33.5,13.3,1.1,6,,9.3,88.0,,SW
2026-01-27 01:00:00,1210848,"Portel, Oriola",38.31666667,-7.86666667,25.2,13.4,,5,0.1,7.0,86.0,,S
2026-01-27 01:00:00,1210851,Amareleja,38.2007,-7.2261,20.9,,0.0,5,0.0,5.8,,1008.3,S
2026-01-27 01:00:00,1210863,"Mértola, Vale Formoso",37.75,-7.55,18.0,14.0,0.0,6,0.0,5.0,82.0,,SW
2026-01-27 01:00:00,1210864,"Castro Verde, N.Corvo",37.57655833,-7.97211389,28.1,14.3,0.0,6,0.0,7.8,98.0,,SW
2026-01-27 01:00:00,1210865,"Alcoutim, Mart.Longo",37.43333333,-7.76666667,32.0,13.9,,5,0.1,8.9,82.0,1009.8,S
2026-01-27 01:00:00,1210866,Vila Real de S.António,37.1871055,-7.416325,,15.7,,0,0.0,,79.0,,
2026-01-27 01:00:00,1210867,Castro Marim (RN Sapal),37.21666667,-7.45,37.1,15.9,0.0,6,0.0,10.3,80.0,,SW
2026-01-27 01:00:00,1210878,Portimão (Aeródromo),37.149167,-8.581389,27.7,15.7,0.0,6,0.0,7.7,81.0,1010.0,SW
2026-01-27 01:00:00,1210881,"Olhão, EPPO",37.033,-7.821,35.6,16.0,0.0,5,0.0,9.9,82.0,1010.9,S
2026-01-27 01:00:00,1210932,"S. Miguel, Nordeste",37.83256,-25.150108,20.5,10.3,,8,0.0,5.7,75.0,,NW
2026-01-27 01:00:00,1210956,"Madeira, Porto Moniz",32.867477,-17.171373,,19.4,0.1,0,0.0,,69.0,,
2026-01-27 01:00:00,1210960,"Madeira, S. Jorge, Santana",32.83446944,-16.906219,18.0,18.5,1.1,7,0.0,5.0,70.0,1014.9,W
2026-01-27 01:00:00,1210965,"Madeira, Santana",32.808238,-16.8864166,,15.5,32.2,0,0.0,,78.0,,
2026-01-27 01:00:00,1210967,"Madeira, São Vicente",32.8001833,-17.044722,,17.5,0.0,0,0.5,,81.0,,
2026-01-27 01:00:00,1210972,"Madeira, Pico Alto",32.693491,-16.903955,22.3,10.4,0.0,6,,6.2,,,SW
2026-01-27 01:00:00,1210973,"Madeira, Areeiro",32.71666667,-16.91666667,23.0,8.0,13.3,7,6.9,6.4,100.0,,W
2026-01-27 01:00:00,1210974,"Madeira, Pico do Areeiro",32.735107,-16.928271,,6.6,,0,5.2,,100.0,,
2026-01-27 01:00:00,1210975,"Madeira, Santo da Serra",32.7258972,-16.816822,,13.4,0.0,0,0.2,,92.0,,
2026-01-27 01:00:00,1210976,"Madeira, Monte",32.675833,-16.906944,7.9,13.4,0.8,6,0.1,2.2,100.0,,SW
2026-01-27 01:00:00,1210977,"Madeira, Cancela",32.64500556,-16.86575,13.3,16.4,4.2,2,0.0,3.7,95.0,,NE
2026-01-27 01:00:00,1210978,"Madeira, S. Lourenço",32.747,-16.706,52.2,17.1,0.0,6,0.0,14.5,87.0,,SW
2026-01-27 01:00:00,1210984,"Madeira, Quinta Grande",32.6629722,-17.01503611,,14.9,2.0,0,0.0,,86.0,,
2026-01-27 01:00:00,1210986,Ponta do Sol/Lugar de Baixo,32.681502,-17.104167,33.5,18.6,0.0,6,0.0,9.3,78.0,,SW
2026-01-27 01:00:00,1210987,Prazeres (Calheta),32.757205,-17.201551,16.6,13.4,0.3,7,0.0,4.6,100.0,,W
2026-01-27 01:00:00,1210990,"Madeira, Calheta",32.81384167,-17.26321389,38.2,15.7,0.0,6,0.0,10.6,91.0,1014.6,SW
2026-01-27 01:00:00,1240546,"Porto, Serra do Pilar",41.1385194,-8.6025,,11.4,,0,3.1,,100.0,996.9,
2026-01-27 01:00:00,1240566,Vila Real (Cidade),41.30898056,-7.740522,10.8,10.2,,6,10.5,3.0,100.0,,SW
2026-01-27 01:00:00,1240610,Viana do Castelo,41.695,-8.82916,,12.1,,0,0.2,,96.0,,
2026-01-27 01:00:00,1240903,"Porto, Massarelos",41.15257,-8.62598,,11.7,,0,,,100.0,,
2026-01-27 01:00:00,1240971,"Madeira, Funchal, Lido",32.63655,-16.935592,21.2,18.5,0.3,7,0.0,5.9,80.0,,W
2026-01-27 01:00:00,1259201,Lousã/Trevim,40.09328521,-8.17904215,47.2,7.6,,8,,13.1,100.0,,NW
2026-01-27 01:00:00,1259204,Seia/Senhora do Espinheiro,40.412775,-7.673406,51.1,8.3,,5,,14.2,97.0,997.1,S
2026-01-27 01:00:00,6210872,Loulé (CML),37.129946,-8.06523593,18.4,15.0,,6,0.0,5.1,82.0,1011.1,SW
2026-01-27 01:00:00,6210879,Portimão (Praia da Rocha),37.11670461,-8.52946314,43.9,15.6,,6,0.0,12.2,87.0,,SW
2026-01-27 01:00:00,6211211,Monção - Guimil (CIM),42.042944,-8.421872,17.3,,1.5,6,,4.8,,993.9,SW
2026-01-27 01:00:00,6211213,Paredes De Coura - Vascões (CIM),41.913444,-8.492111,11.9,7.4,0.1,6,,3.3,100.0,995.4,SW
2026-01-27 01:00:00,6211216,Arcos De Valdevez - Heliporto (CIM),41.831,-8.44375,9.4,9.4,,6,2.8,2.6,99.0,996.2,SW
2026-01-27 01:00:00,6211218,Ponte De Lima - Anais (CIM),41.698083,-8.522444,10.1,9.5,0.5,8,,2.8,95.0,995.4,NW
2026-01-27 01:00:00,6212122,Amares Caldelas (CIM),41.66796389,-8.37977778,8.6,11.1,,6,3.3,2.4,95.0,997.4,SW
2026-01-27 01:00:00,6212123,Vila Verde (CIM),41.64686111,-8.43398056,4.7,11.4,,6,,1.3,91.0,996.8,SW
2026-01-27 01:00:00,6212124,Braga (CIM),41.53568333,-8.42514722,19.4,10.5,,7,4.3,5.4,97.0,998.1,W
2026-01-27 01:00:00,6212126,Esposende (CIM),41.52645556,-8.77984444,22.0,12.4,,7,0.4,6.1,98.0,997.1,W
2026-01-27 01:00:00,6213012,Carregal do Sal (CIM),40.46718056,-7.92626389,21.2,11.6,,6,,5.9,93.0,,SW
2026-01-27 01:00:00,6213013,Castro Daire / Mézio (CIM),40.98086111,-7.88318889,28.8,8.1,,5,,8.0,100.0,,S
2026-01-27 01:00:00,6213014,Mangualde / Chãs de Tavares  (CIM),40.61096111,-7.60838889,27.7,9.9,,6,3.4,7.7,95.0,,SW
2026-01-27 01:00:00,6213016,Oliveira de Frades (CIM),40.716925,-8.20133889,41.4,10.5,,4,,11.5,95.0,,SE
2026-01-27 01:00:00,6213017,Penalva do Castelo (CIM),40.65706389,-7.69655278,22.3,11.0,,6,3.9,6.2,98.0,,SW
2026-01-27 01:00:00,6213020,Satão (CIM),40.76072778,-7.72019722,18.7,9.1,,6,6.6,5.2,100.0,,SW
2026-01-27 01:00:00,6213022,Vila Nova de Paiva (CIM),40.85595,-7.72716389,30.2,8.5,,6,4.4,8.4,,,SW
2026-01-27 01:00:00,6213611,Arganil / Aeródromo (CIM),40.274578,-7.974399,19.4,13.6,,6,2.6,5.4,84.0,,SW
2026-01-27 01:00:00,6213612,Cantanhede / Fonte Dom Pedro (CIM),40.341894,-8.577613,15.8,13.1,,7,16.8,4.4,96.0,,W
2026-01-27 01:00:00,6213613,Coimbra / Mata de São Pedro (CIM),40.330787,-8.374887,14.8,11.0,,5,,4.1,100.0,,S
2026-01-27 01:00:00,6213614,Góis / Quinta da Ribeira (CIM),40.171642,-8.103238,22.7,,,6,,6.3,,,SW
2026-01-27 01:00:00,6213615,Mealhada / Quinta do Vale (CIM),40.373343,-8.4388429,15.5,12.8,,6,12.9,4.3,99.0,,SW
2026-01-27 01:00:00,6213616,Mortágua / Aeródromo (CIM),40.426239,-8.232142,22.3,12.5,,6,6.3,6.2,98.0,,SW
2026-01-27 01:00:00,6213617,Penacova / Hombres (CIM),40.280921,-8.198685,9.7,,,8,11.8,2.7,95.0,,NW
2026-01-27 01:00:00,6213619,Vila Nova de Poiares (CIM),40.211411,-8.241995,23.8,13.9,,5,4.9,6.6,89.0,,S
2026-01-27 01:00:00,6213620,Oliveira do Hospital (CIM),40.413306,-7.867972,24.8,12.1,,6,2.7,6.9,87.0,,SW
2026-01-27 01:00:00,6215302,"Lisboa, Carnide (CML)",38.7751,-9.1855,33.5,13.8,,6,,9.3,100.0,1002.0,SW
2026-01-27 01:00:00,6215360,Oeiras / Vila Fria (CMO),38.7239536,-9.2939255,46.4,14.0,0.0,6,5.3,12.9,100.0,1002.6,SW
2026-01-27 01:00:00,7240919,"Lisboa, Amoreiras (LFCL)",38.7239,-9.1649,27.4,13.5,,6,4.1,7.6,100.0,1003.5,SW
2026-01-27 02:00:00,11217160,Santa Maria / Praia Formosa (DROTRH),36.9542,-25.0917,28.4,10.8,9.7,2,0.4,7.9,85.0,,NE
2026-01-27 02:00:00,11217165,Santa Maria / Maia (DROTRH),36.9412,-25.0176,29.5,10.7,13.2,8,0.3,8.2,84.0,,NW
2026-01-27 02:00:00,11217217,São Miguel / Santana (DROTRH),37.8049,-25.5618,6.8,11.1,0.1,7,0.1,1.9,75.0,,W
2026-01-27 02:00:00,11217225,São Miguel / Sete Cidades (DROTRH),37.8679,-25.772,28.1,10.4,3.5,7,0.1,7.8,77.0,,W
2026-01-27 02:00:00,11217255,São Miguel / Lagoa das Furnas (DROTRH),37.7619,-25.3291,15.8,9.7,1.4,5,0.3,4.4,73.0,,S
2026-01-27 02:00:00,11217372,Terceira / Serra do Cume (DROTRH),38.7002,-27.1031,34.6,5.9,0.0,8,0.7,9.6,99.0,,NW
2026-01-27 02:00:00,11217430,Graciosa / Serra das Fontes (DROTRH),39.0672,-28.0038,42.1,7.9,0.0,8,0.1,11.7,91.0,,NW
2026-01-27 02:00:00,11217510,São Jorge / Pico do Areeiro (DROTRH),38.6435,-28.0591,48.2,3.7,0.0,6,0.1,13.4,100.0,,SW
2026-01-27 02:00:00,11217625,Pico / Cabeço do Teicho (DROTRH),38.489,-28.3534,30.2,3.8,0.0,6,1.4,8.4,95.0,,SW
2026-01-27 02:00:00,11217645,Pico / Cabecinho (DROTRH),38.4338,-28.1141,22.7,6.6,0.0,8,0.0,6.3,79.0,,NW
2026-01-27 02:00:00,11217710,Faial / Alto do Cabouco (DROTRH),38.587,-28.6992,,4.4,0.0,4,0.3,,97.0,,SE
2026-01-27 02:00:00,11217730,Faial / Cabeço Verde (DROTRH),38.5843,-28.7576,10.1,7.1,0.0,8,0.1,2.8,88.0,,NW
2026-01-27 02:00:00,1200501,Flores (Aeródromo),39.45819,-31.1301,40.0,11.3,0.0,7,0.1,11.1,66.0,1009.4,W
2026-01-27 02:00:00,1200502,Corvo (Aeródromo),39.67389,-31.11362,67.3,11.9,941.3,7,0.1,18.7,71.0,1007.2,W
2026-01-27 02:00:00,1200504,Pico (Aeródromo),38.55219,-28.44137,25.6,10.8,0.0,7,0.0,7.1,69.0,1009.9,W
2026-01-27 02:00:00,1200505,Horta / Aeroporto,38.5211,-28.7128,36.0,11.4,,7,1.0,10.0,70.0,1009.6,W
2026-01-27 02:00:00,1200506,Horta (Obs. Principe Alberto),38.540781,-28.63225,42.5,9.5,0.2,7,0.9,11.8,86.0,1010.0,W
2026-01-27 02:00:00,1200510,São Jorge,38.66,-28.17,36.0,10.1,11.8,7,0.1,10.0,84.0,1009.3,W
2026-01-27 02:00:00,1200511,Angra do Heroísmo,38.6659435,-27.216567,32.0,9.4,0.4,7,0.4,8.9,81.0,1008.5,W
2026-01-27 02:00:00,1200512,P. Delgada (Aeródromo),37.74414,-25.6953048,57.2,12.1,0.2,8,0.1,15.9,73.0,1008.9,NW
2026-01-27 02:00:00,1200515,Santa Maria (Aeródromo),36.967175,-25.1679,49.3,12.0,4.0,8,0.2,13.7,80.0,1011.5,NW
2026-01-27 02:00:00,1200521,Santa Catarina (Aeródromo),32.69688,-16.77612,,17.7,0.1,0,1.2,,86.0,1014.7,
2026-01-27 02:00:00,1200522,Funchal,32.64786,-16.888,16.9,18.3,0.0,7,0.2,4.7,78.0,1016.1,W
2026-01-27 02:00:00,1200524,Porto Santo,33.074029,-16.34868,28.1,18.5,0.4,6,0.0,7.8,75.0,1014.8,SW
2026-01-27 02:00:00,1200531,Cabo Carvoeiro,39.38,-9.40737778,23.8,13.2,,7,8.2,6.6,100.0,999.7,W
2026-01-27 02:00:00,1200533,Sagres,37.012835,-8.949089,36.7,15.4,,6,0.8,10.2,80.0,1007.9,SW
2026-01-27 02:00:00,1200535,Lisboa (Geofísico),38.71907778,-9.14972222,44.3,14.2,0.0,6,7.5,12.3,100.0,1000.8,SW
2026-01-27 02:00:00,1200541,Sines,37.954504,-8.838271,40.3,14.0,0.0,6,4.8,11.2,100.0,1004.6,SW
2026-01-27 02:00:00,1200545,"Porto, Pedras Rubras (Aeródromo)",41.233502,-8.681332,17.6,12.2,4.3,6,0.0,4.9,92.0,996.9,SW
2026-01-27 02:00:00,1200548,Coimbra (Aeródromo),40.15006944,-8.46669167,12.6,11.9,0.0,7,14.2,3.5,100.0,998.6,W
2026-01-27 02:00:00,1200551,"Viana Castelo, Chafé",41.648875,-8.804606,12.6,11.8,2.9,6,0.0,3.5,100.0,995.7,SW
2026-01-27 02:00:00,1200554,Faro (Aeródromo),37.016579,-7.971953,40.3,16.1,0.0,6,0.0,11.2,82.0,1009.5,SW
2026-01-27 02:00:00,1200558,Évora (C.Coordenação),38.53336389,-7.88338056,33.8,12.4,0.0,5,5.3,9.4,,1004.8,S
2026-01-27 02:00:00,1200559,Viseu (Aeródromo),40.72645,-7.887472,27.4,9.7,,7,10.6,7.6,99.0,997.1,W
2026-01-27 02:00:00,1200560,Viseu (C.Coordenação),40.71492222,-7.89592222,30.2,9.3,,7,10.1,8.4,100.0,997.8,W
2026-01-27 02:00:00,1200562,Beja,38.02493056,-7.867275,31.7,13.0,0.0,6,1.2,8.8,95.0,1005.5,SW
2026-01-27 02:00:00,1200567,Vila Real,41.27418611,-7.7171,6.8,9.0,0.0,6,6.0,1.9,100.0,996.8,SW
2026-01-27 02:00:00,1200568,Penhas Douradas,40.41136667,-7.55865278,27.0,6.0,0.0,5,,7.5,100.0,,S
2026-01-27 02:00:00,1200570,Castelo Branco,39.83339444,-7.46678889,25.9,11.3,0.0,5,4.8,7.2,100.0,999.6,S
2026-01-27 02:00:00,1200571,Portalegre,39.29546944,-7.41996944,15.1,9.8,0.0,5,1.7,4.2,100.0,1003.2,S
2026-01-27 02:00:00,1200575,Bragança,41.80388889,-6.74283889,18.7,8.8,0.0,5,5.0,5.2,92.0,995.5,S
2026-01-27 02:00:00,1200576,Bragança (Aeródromo),41.85763611,-6.70796389,23.4,8.8,,6,3.9,6.5,99.0,994.8,SW
2026-01-27 02:00:00,1200843,Évora (Aeródromo),38.5296,-7.8916,38.5,12.2,,5,5.0,10.7,97.0,1004.4,S
2026-01-27 02:00:00,1210513,P. Delgada (Obs. A. Chaves),37.7464,-25.662283,13.3,11.6,25.9,9,0.2,3.7,69.0,,N
2026-01-27 02:00:00,1210517,Flores / Morro Alto,39.4633,-31.2207,77.4,3.3,,7,0.0,21.5,100.0,1005.1,W
2026-01-27 02:00:00,1210518,São Miguel - Pico Santos De Cima,37.819,-25.7512,47.9,4.4,,8,0.8,13.3,100.0,1008.8,NW
2026-01-27 02:00:00,1210520,Ilhas selvagens,30.140595,-15.869153,62.3,17.3,0.6,7,0.0,17.3,72.0,1020.6,W
2026-01-27 02:00:00,1210550,Coruche / Cruz Do Leão,39.07101,-8.4,19.4,13.0,,6,10.8,5.4,100.0,1001.3,SW
2026-01-27 02:00:00,1210553,Loulé / Cavalos De Caldeirão,37.3042,-7.9534,70.6,10.6,,6,0.0,19.6,100.0,1006.9,SW
2026-01-27 02:00:00,1210577,"Odemira, S.Teotónio",37.54710833,-8.72899167,41.0,14.1,0.0,5,4.3,11.4,95.0,,S
2026-01-27 02:00:00,1210580,"Lisboa, Relógio",38.7618,-9.1254,42.5,13.6,,6,7.4,11.8,98.0,1001.2,SW
2026-01-27 02:00:00,1210604,V.N.Cerveira (Aeródromo),41.96673056,-8.66676111,16.9,11.4,0.0,7,5.4,4.7,91.0,995.2,W
2026-01-27 02:00:00,1210605,"Monção, Valinha",42.06669,-8.383347,27.0,11.4,0.0,6,2.7,7.5,89.0,,SW
2026-01-27 02:00:00,1210606,"Lamas de Mouro, P.Ribeiro",42.03333333,-8.18333333,,6.1,0.0,0,0.5,,99.0,995.6,
2026-01-27 02:00:00,1210611,Montalegre,41.82276667,-7.78797778,22.0,5.8,0.0,6,2.6,6.1,99.0,,SW
2026-01-27 02:00:00,1210612,Vinhais,41.8434,-7.0034416,13.3,8.1,,7,9.1,3.7,100.0,,W
2026-01-27 02:00:00,1210615,Ponte de Lima,41.75013889,-8.56671389,7.9,12.0,1.2,5,0.0,2.2,90.0,,S
2026-01-27 02:00:00,1210616,Chaves (Aeródromo),41.72516667,-7.46540833,19.1,11.2,0.0,6,2.3,5.3,87.0,995.0,SW
2026-01-27 02:00:00,1210619,Cabril,41.71666667,-8.01666667,13.7,8.1,,7,2.6,3.8,99.0,,W
2026-01-27 02:00:00,1210622,"Braga, Merelim",41.56678056,-8.45003056,13.7,11.3,4.9,5,0.1,3.8,97.0,996.4,S
2026-01-27 02:00:00,1210625,Guimarães,41.4289,-8.3178,,10.8,0.0,0,,,92.0,996.7,
2026-01-27 02:00:00,1210630,Cabeceiras de Basto,41.53333333,-7.96666667,2.9,10.6,0.0,4,1.3,0.8,94.0,,SE
2026-01-27 02:00:00,1210632,Mirandela,41.51478611,-7.19083889,30.6,11.8,0.0,7,7.9,8.5,86.0,,W
2026-01-27 02:00:00,1210633,"Macedo Cavaleiros, Bagueixe",41.56666667,-6.78333333,21.6,8.7,,6,5.1,6.0,100.0,,SW
2026-01-27 02:00:00,1210635,Miranda do Douro,41.51666667,-6.28333333,33.5,9.8,,6,2.7,9.3,91.0,,SW
2026-01-27 02:00:00,1210637,Mogadouro,41.33333333,-6.73333333,70.2,9.1,0.8,5,2.6,19.5,96.0,,S
2026-01-27 02:00:00,1210643,Paços Ferreira,41.27365,-8.38012,8.6,10.0,,6,0.4,2.4,100.0,,SW
2026-01-27 02:00:00,1210644,Carrazêda de Ansiães,41.23333333,-7.28333333,10.4,9.2,0.0,6,8.9,2.9,92.0,,SW
2026-01-27 02:00:00,1210654,Moncorvo,41.18333333,-7.01666667,35.3,11.0,0.0,6,3.1,9.8,83.0,995.6,SW
2026-01-27 02:00:00,1210655,"Pinhão, Santa Bárbara",41.172775,-7.5489722,21.6,13.1,,8,12.8,6.0,84.0,,NW
2026-01-27 02:00:00,1210657,Luzim,41.14585,-8.2490333,7.2,8.9,0.0,5,3.1,2.0,95.0,,S
2026-01-27 02:00:00,1210663,Moimenta da Beira,40.98333333,-7.6,37.4,9.6,0.0,6,8.9,10.4,97.0,,SW
2026-01-27 02:00:00,1210666,"Trancoso, Bandarra",40.78333333,-7.36666667,25.6,8.8,0.0,5,4.7,7.1,99.0,,S
2026-01-27 02:00:00,1210669,Arouca,40.93333333,-8.25,5.8,10.9,0.0,7,7.3,1.6,96.0,,W
2026-01-27 02:00:00,1210671,"F. Castelo Rodrigo, V.Torpim",40.75,-6.88333333,40.3,9.9,0.0,5,1.9,11.2,95.0,,S
2026-01-27 02:00:00,1210683,Guarda,40.53333333,-7.26666667,29.9,7.3,2.4,5,9.2,8.3,100.0,,S
2026-01-27 02:00:00,1210685,Nelas,40.51666667,-7.85,23.0,11.2,0.0,7,9.4,6.4,100.0,,W
2026-01-27 02:00:00,1210686,"Pampilhosa da Serra, Fajão",40.145653,-7.92704,66.6,9.0,,6,6.1,18.5,100.0,,SW
2026-01-27 02:00:00,1210687,Covilhã (Aeródromo),40.264309,-7.482302,22.3,11.0,0.0,5,,6.2,99.0,,S
2026-01-27 02:00:00,1210690,Aldeia Souto (Q. Lageosa),40.35425833,-7.38931111,10.4,10.7,0.0,6,9.7,2.9,97.0,,SW
2026-01-27 02:00:00,1210697,Lousã (Aeródromo),40.143922,-8.244066,19.1,14.1,,7,12.8,5.3,92.0,,W
2026-01-27 02:00:00,1210698,Fundão,40.14063611,-7.55362778,23.0,11.3,0.3,5,6.4,6.4,90.0,,S
2026-01-27 02:00:00,1210702,Aveiro (Universidade),40.63529722,-8.65958333,14.0,12.0,0.1,6,1.1,3.9,97.0,998.5,SW
2026-01-27 02:00:00,1210704,Dunas de Mira,40.445955,-8.76168055,13.3,12.2,2.0,6,0.5,3.7,96.0,,SW
2026-01-27 02:00:00,1210705,Anadia,40.438852,-8.439996,3.2,11.8,0.0,6,2.4,0.9,96.0,,SW
2026-01-27 02:00:00,1210707,"Coimbra, Bencanta",40.2134694,-8.45515277,8.3,12.5,0.7,7,14.7,2.3,100.0,,W
2026-01-27 02:00:00,1210713,"Figueira da Foz, Vila Verde",40.139764,-8.805945,10.8,12.2,0.0,7,2.6,3.0,,,W
2026-01-27 02:00:00,1210716,Ansião,39.9,-8.4,24.1,11.9,0.0,7,8.0,6.7,99.0,,W
2026-01-27 02:00:00,1210718,Leiria (Aeródromo),39.780553,-8.818166,7.6,13.9,0.8,6,8.7,2.1,97.0,999.1,SW
2026-01-27 02:00:00,1210724,"Tomar, Valdonas",39.6,-8.36666667,19.4,14.0,184.2,6,7.0,5.4,98.0,,SW
2026-01-27 02:00:00,1210726,Alcobaça,39.51666667,-8.96666667,15.5,14.6,0.0,7,9.4,4.3,91.0,,W
2026-01-27 02:00:00,1210729,Rio Maior,39.35,-8.93333333,10.8,14.3,36.0,5,5.9,3.0,95.0,,S
2026-01-27 02:00:00,1210734,"Santarém, Fonte Boa",39.201216,-8.736656,42.8,13.8,2.0,5,5.6,11.9,98.0,1000.1,S
2026-01-27 02:00:00,1210735,Chamusca / Chouto,39.27,-8.3508,30.6,13.6,,5,6.2,8.5,99.0,1000.6,S
2026-01-27 02:00:00,1210739,"Torres Vedras, Dois Portos",39.04389444,-9.179,42.8,14.2,2.7,6,4.3,11.9,99.0,,SW
2026-01-27 02:00:00,1210744,Coruche,38.94096667,-8.51073611,40.3,14.5,0.5,6,8.8,11.2,,,SW
2026-01-27 02:00:00,1210746,Santa Cruz (Aeródromo),39.12594166,-9.3790388,31.3,13.2,0.1,7,7.7,8.7,98.0,1000.2,W
2026-01-27 02:00:00,1210750,Cabo da Roca,38.78171,-9.4975361,61.2,13.6,2.8,7,1.4,17.0,100.0,,W
2026-01-27 02:00:00,1210752,Sintra/Tapada do Mouco,38.781669,-9.400398,18.0,11.6,,6,7.7,5.0,100.0,,SW
2026-01-27 02:00:00,1210762,"Lisboa, Tapada da Ajuda",38.70956111,-9.182825,30.6,14.3,0.0,6,6.1,8.5,100.0,,SW
2026-01-27 02:00:00,1210765,Cabo Raso,38.70900833,-9.48538333,52.6,14.5,,6,4.9,14.6,100.0,,SW
2026-01-27 02:00:00,1210766,"Barreiro, Lavradio",38.67448611,-9.04766111,33.8,15.4,0.0,5,6.2,9.4,93.0,,S
2026-01-27 02:00:00,1210767,Pegões,38.65079,-8.63503,27.7,13.8,0.0,6,6.1,7.7,100.0,,SW
2026-01-27 02:00:00,1210770,Setúbal,38.54846008,-8.89077058,22.3,14.2,0.6,6,18.7,6.2,94.0,,SW
2026-01-27 02:00:00,1210776,"Alcácer do Sal, Barrosinha",38.36666667,-8.48333333,37.8,14.2,0.0,6,3.6,10.5,94.0,,SW
2026-01-27 02:00:00,1210783,Alvalade,37.946806,-8.394504,28.4,14.6,0.4,5,3.9,7.9,91.0,,S
2026-01-27 02:00:00,1210785,Ourique / Santana Da Serra,37.5025,-8.3019,34.6,13.6,0.0,4,0.4,9.6,89.0,1007.4,SE
2026-01-27 02:00:00,1210789,Aljezur,37.31675278,-8.80001667,23.0,15.7,1.2,6,2.8,6.4,87.0,,SW
2026-01-27 02:00:00,1210790,Fóia,37.3143,-8.595733,53.3,9.3,0.0,6,4.0,14.8,,,SW
2026-01-27 02:00:00,1210800,"Sabugal, Martim Rei",40.33918056,-7.03693333,34.2,8.8,0.0,5,7.1,9.5,99.0,,S
2026-01-27 02:00:00,1210803,Zebreira,39.86666667,-7.01666667,21.6,11.6,0.0,5,1.3,6.0,93.0,,S
2026-01-27 02:00:00,1210806,"Proença-a-Nova, P.Moitas",39.73333333,-7.86666667,27.7,11.6,10.6,6,6.4,7.7,100.0,,SW
2026-01-27 02:00:00,1210812,Alvega,39.46666667,-8.05,19.4,14.1,,6,4.2,5.4,99.0,,SW
2026-01-27 02:00:00,1210824,"Avis, Benavila",39.1,-7.86666667,22.7,13.2,0.0,5,2.7,6.3,99.0,,S
2026-01-27 02:00:00,1210826,Mora,38.94068,-8.16406,28.1,13.0,0.0,5,3.7,7.8,99.0,,S
2026-01-27 02:00:00,1210835,Elvas,38.8908,-7.13976111,29.5,12.3,0.0,5,2.9,8.2,94.0,,S
2026-01-27 02:00:00,1210837,Estremoz,38.86666667,-7.51666667,31.3,11.6,0.0,5,3.5,8.7,100.0,,S
2026-01-27 02:00:00,1210846,Montemor-O-Novo,38.6451,-8.1991,25.9,12.7,,5,5.1,7.2,100.0,1004.1,S
2026-01-27 02:00:00,1210847,Viana do Alentejo,38.3319194,-8.04553888,37.1,12.6,0.7,5,,10.3,,,S
2026-01-27 02:00:00,1210848,"Portel, Oriola",38.31666667,-7.86666667,28.8,12.7,,5,2.5,8.0,93.0,,S
2026-01-27 02:00:00,1210851,Amareleja,38.2007,-7.2261,19.4,,0.0,5,0.0,5.4,,1006.9,S
2026-01-27 02:00:00,1210863,"Mértola, Vale Formoso",37.75,-7.55,22.7,14.3,0.0,5,0.0,6.3,80.0,,S
2026-01-27 02:00:00,1210864,"Castro Verde, N.Corvo",37.57655833,-7.97211389,25.2,14.2,0.0,6,0.0,7.0,99.0,,SW
2026-01-27 02:00:00,1210865,"Alcoutim, Mart.Longo",37.43333333,-7.76666667,31.0,13.8,,5,0.0,8.6,84.0,1008.5,S
2026-01-27 02:00:00,1210866,Vila Real de S.António,37.1871055,-7.416325,,15.8,,0,0.0,,79.0,,
2026-01-27 02:00:00,1210867,Castro Marim (RN Sapal),37.21666667,-7.45,37.1,16.0,0.0,6,0.0,10.3,82.0,,SW
2026-01-27 02:00:00,1210878,Portimão (Aeródromo),37.149167,-8.581389,30.6,15.7,0.0,6,0.2,8.5,83.0,1008.4,SW
2026-01-27 02:00:00,1210881,"Olhão, EPPO",37.033,-7.821,41.0,16.0,0.0,5,0.1,11.4,85.0,1009.4,S
2026-01-27 02:00:00,1210932,"S. Miguel, Nordeste",37.83256,-25.150108,24.1,10.6,,8,0.0,6.7,71.0,,NW
2026-01-27 02:00:00,1210956,"Madeira, Porto Moniz",32.867477,-17.171373,,19.4,0.0,0,0.0,,72.0,,
2026-01-27 02:00:00,1210960,"Madeira, S. Jorge, Santana",32.83446944,-16.906219,9.4,18.5,0.0,7,0.0,2.6,73.0,1014.3,W
2026-01-27 02:00:00,1210965,"Madeira, Santana",32.808238,-16.8864166,,15.6,30.6,0,0.0,,80.0,,
2026-01-27 02:00:00,1210967,"Madeira, São Vicente",32.8001833,-17.044722,,17.1,0.0,0,0.4,,85.0,,
2026-01-27 02:00:00,1210972,"Madeira, Pico Alto",32.693491,-16.903955,16.9,10.7,0.0,6,,4.7,,,SW
2026-01-27 02:00:00,1210973,"Madeira, Areeiro",32.71666667,-16.91666667,25.9,8.5,14.4,7,3.8,7.2,100.0,,W
2026-01-27 02:00:00,1210974,"Madeira, Pico do Areeiro",32.735107,-16.928271,,7.0,,0,3.7,,100.0,,
2026-01-27 02:00:00,1210975,"Madeira, Santo da Serra",32.7258972,-16.816822,,13.8,0.0,0,0.1,,91.0,,
2026-01-27 02:00:00,1210976,"Madeira, Monte",32.675833,-16.906944,8.6,13.6,0.7,6,4.6,2.4,100.0,,SW
2026-01-27 02:00:00,1210977,"Madeira, Cancela",32.64500556,-16.86575,14.8,16.4,0.5,2,0.0,4.1,97.0,,NE
2026-01-27 02:00:00,1210978,"Madeira, S. Lourenço",32.747,-16.706,42.8,17.3,0.0,6,0.0,11.9,89.0,,SW
2026-01-27 02:00:00,1210984,"Madeira, Quinta Grande",32.6629722,-17.01503611,,15.0,1.5,0,0.0,,88.0,,
2026-01-27 02:00:00,1210986,Ponta do Sol/Lugar de Baixo,32.681502,-17.104167,41.0,18.6,0.0,6,0.0,11.4,80.0,,SW
2026-01-27 02:00:00,1210987,Prazeres (Calheta),32.757205,-17.201551,22.3,13.7,4.5,7,0.0,6.2,100.0,,W
2026-01-27 02:00:00,1210990,"Madeira, Calheta",32.81384167,-17.26321389,42.5,15.8,0.0,6,0.0,11.8,92.0,1014.1,SW
2026-01-27 02:00:00,1240546,"Porto, Serra do Pilar",41.1385194,-8.6025,,11.8,,0,0.0,,100.0,996.6,
2026-01-27 02:00:00,1240566,Vila Real (Cidade),41.30898056,-7.740522,12.6,9.5,,6,5.9,3.5,95.0,,SW
2026-01-27 02:00:00,1240610,Viana do Castelo,41.695,-8.82916,,12.3,,0,0.0,,93.0,,
2026-01-27 02:00:00,1240903,"Porto, Massarelos",41.15257,-8.62598,,11.5,,0,,,100.0,,
2026-01-27 02:00:00,1240971,"Madeira, Funchal, Lido",32.63655,-16.935592,21.2,18.5,0.5,7,0.1,5.9,82.0,,W
2026-01-27 02:00:00,1259201,Lousã/Trevim,40.09328521,-8.17904215,40.7,8.0,,8,,11.3,100.0,,NW
2026-01-27 02:00:00,1259204,Seia/Senhora do Espinheiro,40.412775,-7.673406,36.0,8.3,,5,,10.0,100.0,995.8,S
2026-01-27 02:00:00,6210872,Loulé (CML),37.129946,-8.06523593,16.2,15.1,,6,0.0,4.5,83.0,1009.7,SW
2026-01-27 02:00:00,6210879,Portimão (Praia da Rocha),37.11670461,-8.52946314,46.4,15.6,,6,1.1,12.9,87.0,,SW
2026-01-27 02:00:00,6211211,Monção - Guimil (CIM),42.042944,-8.421872,27.4,,0.8,6,,7.6,,993.6,SW
2026-01-27 02:00:00,6211213,Paredes De Coura - Vascões (CIM),41.913444,-8.492111,18.7,7.0,0.4,6,,5.2,100.0,995.2,SW
2026-01-27 02:00:00,6211216,Arcos De Valdevez - Heliporto (CIM),41.831,-8.44375,8.6,9.2,,6,0.4,2.4,100.0,995.5,SW
2026-01-27 02:00:00,6211218,Ponte De Lima - Anais (CIM),41.698083,-8.522444,8.6,9.5,1.1,8,,2.4,94.0,995.6,NW
2026-01-27 02:00:00,6212122,Amares Caldelas (CIM),41.66796389,-8.37977778,7.6,10.8,,5,0.1,2.1,95.0,996.6,S
2026-01-27 02:00:00,6212123,Vila Verde (CIM),41.64686111,-8.43398056,4.7,11.1,,5,,1.3,91.0,996.0,S
2026-01-27 02:00:00,6212124,Braga (CIM),41.53568333,-8.42514722,12.6,10.4,,6,0.3,3.5,97.0,997.5,SW
2026-01-27 02:00:00,6212126,Esposende (CIM),41.52645556,-8.77984444,27.4,12.9,,6,0.0,7.6,98.0,996.7,SW
2026-01-27 02:00:00,6213012,Carregal do Sal (CIM),40.46718056,-7.92626389,16.6,11.8,,7,,4.6,95.0,,W
2026-01-27 02:00:00,6213013,Castro Daire / Mézio (CIM),40.98086111,-7.88318889,28.4,7.8,,6,,7.9,100.0,,SW
2026-01-27 02:00:00,6213014,Mangualde / Chãs de Tavares  (CIM),40.61096111,-7.60838889,28.1,10.0,,7,10.8,7.8,98.0,,W
2026-01-27 02:00:00,6213016,Oliveira de Frades (CIM),40.716925,-8.20133889,25.6,8.4,,5,,7.1,99.0,,S
2026-01-27 02:00:00,6213017,Penalva do Castelo (CIM),40.65706389,-7.69655278,27.0,11.0,,7,13.1,7.5,100.0,,W
2026-01-27 02:00:00,6213020,Satão (CIM),40.76072778,-7.72019722,20.5,9.3,,7,11.5,5.7,100.0,,W
2026-01-27 02:00:00,6213022,Vila Nova de Paiva (CIM),40.85595,-7.72716389,17.3,8.6,,6,9.1,4.8,,,SW
2026-01-27 02:00:00,6213611,Arganil / Aeródromo (CIM),40.274578,-7.974399,25.6,13.4,,7,10.7,7.1,89.0,,W
2026-01-27 02:00:00,6213612,Cantanhede / Fonte Dom Pedro (CIM),40.341894,-8.577613,8.6,11.4,,6,2.0,2.4,96.0,,SW
2026-01-27 02:00:00,6213614,Góis / Quinta da Ribeira (CIM),40.171642,-8.103238,18.7,,,6,,5.2,,,SW
2026-01-27 02:00:00,6213615,Mealhada / Quinta do Vale (CIM),40.373343,-8.4388429,5.4,11.5,,7,6.4,1.5,99.0,,W
2026-01-27 02:00:00,6213616,Mortágua / Aeródromo (CIM),40.426239,-8.232142,15.1,11.8,,7,11.9,4.2,97.0,,W
2026-01-27 02:00:00,6213617,Penacova / Hombres (CIM),40.280921,-8.198685,9.4,,,7,2.6,2.6,97.0,,W
2026-01-27 02:00:00,6213619,Vila Nova de Poiares (CIM),40.211411,-8.241995,18.7,13.7,,7,18.1,5.2,89.0,,W
2026-01-27 02:00:00,6213620,Oliveira do Hospital (CIM),40.413306,-7.867972,31.7,12.1,,7,10.3,8.8,91.0,,W
2026-01-27 02:00:00,6215302,"Lisboa, Carnide (CML)",38.7751,-9.1855,32.0,13.9,,6,,8.9,100.0,1000.4,SW
2026-01-27 02:00:00,6215360,Oeiras / Vila Fria (CMO),38.7239536,-9.2939255,42.5,14.0,0.0,6,6.0,11.8,100.0,1001.0,SW
2026-01-27 02:00:00,7240919,"Lisboa, Amoreiras (LFCL)",38.7239,-9.1649,30.2,13.6,,6,4.6,8.4,100.0,1001.8,SW
2026-01-27 03:00:00,11217160,Santa Maria / Praia Formosa (DROTRH),36.9542,-25.0917,15.1,10.9,5.4,5,0.2,4.2,83.0,,S
2026-01-27 03:00:00,11217165,Santa Maria / Maia (DROTRH),36.9412,-25.0176,22.3,10.7,2.4,8,0.0,6.2,80.0,,NW
2026-01-27 03:00:00,11217217,São Miguel / Santana (DROTRH),37.8049,-25.5618,7.9,10.8,1.1,7,0.0,2.2,76.0,,W
2026-01-27 03:00:00,11217225,São Miguel / Sete Cidades (DROTRH),37.8679,-25.772,24.1,10.5,0.1,7,0.0,6.7,76.0,,W
2026-01-27 03:00:00,11217255,São Miguel / Lagoa das Furnas (DROTRH),37.7619,-25.3291,10.4,9.4,5.0,5,0.1,2.9,74.0,,S
2026-01-27 03:00:00,11217372,Terceira / Serra do Cume (DROTRH),38.7002,-27.1031,30.2,6.3,0.0,8,0.5,8.4,99.0,,NW
2026-01-27 03:00:00,11217430,Graciosa / Serra das Fontes (DROTRH),39.0672,-28.0038,40.7,8.6,0.0,8,0.3,11.3,94.0,,NW
2026-01-27 03:00:00,11217510,São Jorge / Pico do Areeiro (DROTRH),38.6435,-28.0591,59.0,4.2,0.0,6,0.8,16.4,100.0,,SW
2026-01-27 03:00:00,11217625,Pico / Cabeço do Teicho (DROTRH),38.489,-28.3534,29.5,4.5,0.0,6,0.2,8.2,95.0,,SW
2026-01-27 03:00:00,11217645,Pico / Cabecinho (DROTRH),38.4338,-28.1141,18.7,6.9,0.0,7,0.0,5.2,80.0,,W
2026-01-27 03:00:00,11217710,Faial / Alto do Cabouco (DROTRH),38.587,-28.6992,,5.0,0.0,6,0.1,,96.0,,SW
2026-01-27 03:00:00,11217730,Faial / Cabeço Verde (DROTRH),38.5843,-28.7576,16.2,7.8,0.0,8,0.2,4.5,87.0,,NW
2026-01-27 03:00:00,1200501,Flores (Aeródromo),39.45819,-31.1301,31.3,12.4,0.0,7,0.0,8.7,60.0,1009.3,W
2026-01-27 03:00:00,1200502,Corvo (Aeródromo),39.67389,-31.11362,67.3,12.6,1033.8,7,0.0,18.7,68.0,1007.2,W
2026-01-27 03:00:00,1200504,Pico (Aeródromo),38.55219,-28.44137,28.8,11.3,0.0,7,0.0,8.0,68.0,1009.6,W
2026-01-27 03:00:00,1200505,Horta / Aeroporto,38.5211,-28.7128,36.0,12.7,,7,0.0,10.0,64.0,1009.3,W
2026-01-27 03:00:00,1200506,Horta (Obs. Principe Alberto),38.540781,-28.63225,56.9,11.0,0.2,7,0.1,15.8,79.0,1009.6,W
2026-01-27 03:00:00,1200510,São Jorge,38.66,-28.17,40.3,11.1,6.6,7,0.2,11.2,76.0,1009.1,W
2026-01-27 03:00:00,1200511,Angra do Heroísmo,38.6659435,-27.216567,35.6,10.3,0.0,7,0.0,9.9,77.0,1008.2,W
2026-01-27 03:00:00,1200512,P. Delgada (Aeródromo),37.74414,-25.6953048,50.0,11.9,0.5,7,0.2,13.9,76.0,1008.7,W
2026-01-27 03:00:00,1200515,Santa Maria (Aeródromo),36.967175,-25.1679,47.5,12.1,3.2,8,0.1,13.2,80.0,1011.4,NW
2026-01-27 03:00:00,1200521,Santa Catarina (Aeródromo),32.69688,-16.77612,,17.9,0.2,0,1.0,,88.0,1014.1,
2026-01-27 03:00:00,1200522,Funchal,32.64786,-16.888,19.1,18.2,0.0,7,0.0,5.3,82.0,1015.6,W
2026-01-27 03:00:00,1200524,Porto Santo,33.074029,-16.34868,41.0,18.8,0.3,7,0.0,11.4,77.0,1014.5,W
2026-01-27 03:00:00,1200531,Cabo Carvoeiro,39.38,-9.40737778,24.1,13.2,,6,0.1,6.7,100.0,1000.0,SW
2026-01-27 03:00:00,1200533,Sagres,37.012835,-8.949089,42.8,14.7,,6,3.1,11.9,89.0,1006.9,SW
2026-01-27 03:00:00,1200535,Lisboa (Geofísico),38.71907778,-9.14972222,19.1,13.4,0.8,6,3.8,5.3,100.0,1001.0,SW
2026-01-27 03:00:00,1200541,Sines,37.954504,-8.838271,42.5,14.2,0.0,6,2.1,11.8,100.0,1003.1,SW
2026-01-27 03:00:00,1200545,"Porto, Pedras Rubras (Aeródromo)",41.233502,-8.681332,19.8,12.1,0.3,7,1.0,5.5,90.0,996.6,W
2026-01-27 03:00:00,1200548,Coimbra (Aeródromo),40.15006944,-8.46669167,6.8,11.0,0.0,6,0.5,1.9,100.0,999.2,SW
2026-01-27 03:00:00,1200551,"Viana Castelo, Chafé",41.648875,-8.804606,14.0,10.9,0.0,6,1.1,3.9,100.0,995.9,SW
2026-01-27 03:00:00,1200554,Faro (Aeródromo),37.016579,-7.971953,42.5,15.9,0.0,6,1.1,11.8,85.0,1008.4,SW
2026-01-27 03:00:00,1200558,Évora (C.Coordenação),38.53336389,-7.88338056,37.4,12.6,0.0,5,3.7,10.4,,1003.3,S
2026-01-27 03:00:00,1200559,Viseu (Aeródromo),40.72645,-7.887472,16.9,8.1,,7,0.7,4.7,99.0,998.0,W
2026-01-27 03:00:00,1200560,Viseu (C.Coordenação),40.71492222,-7.89592222,15.5,7.8,,6,0.6,4.3,100.0,998.7,SW
2026-01-27 03:00:00,1200562,Beja,38.02493056,-7.867275,30.6,12.6,0.0,6,4.0,8.5,100.0,1004.2,SW
2026-01-27 03:00:00,1200567,Vila Real,41.27418611,-7.7171,9.0,8.3,0.0,5,1.0,2.5,100.0,996.7,S
2026-01-27 03:00:00,1200568,Penhas Douradas,40.41136667,-7.55865278,34.6,5.6,0.0,7,,9.6,100.0,,W
2026-01-27 03:00:00,1200570,Castelo Branco,39.83339444,-7.46678889,27.4,11.3,0.0,5,6.8,7.6,100.0,998.0,S
2026-01-27 03:00:00,1200571,Portalegre,39.29546944,-7.41996944,11.2,9.9,0.0,5,5.2,3.1,100.0,1001.6,S
2026-01-27 03:00:00,1200575,Bragança,41.80388889,-6.74283889,18.4,8.7,0.0,7,6.3,5.1,89.0,996.2,W
2026-01-27 03:00:00,1200576,Bragança (Aeródromo),41.85763611,-6.70796389,31.3,8.7,,7,5.0,8.7,99.0,995.2,W
2026-01-27 03:00:00,1200843,Évora (Aeródromo),38.5296,-7.8916,38.2,12.4,,5,2.8,10.6,97.0,1002.8,S
2026-01-27 03:00:00,1210513,P. Delgada (Obs. A. Chaves),37.7464,-25.662283,9.7,11.5,15.2,0,0.1,2.7,72.0,,
2026-01-27 03:00:00,1210517,Flores / Morro Alto,39.4633,-31.2207,78.5,4.0,,7,0.0,21.8,99.0,1004.9,W
2026-01-27 03:00:00,1210518,São Miguel - Pico Santos De Cima,37.819,-25.7512,43.9,4.5,,8,0.1,12.2,100.0,1008.6,NW
2026-01-27 03:00:00,1210520,Ilhas selvagens,30.140595,-15.869153,52.6,17.4,0.5,7,0.0,14.6,73.0,1020.4,W
2026-01-27 03:00:00,1210550,Coruche / Cruz Do Leão,39.07101,-8.4,19.8,13.1,,6,8.8,5.5,100.0,1000.2,SW
2026-01-27 03:00:00,1210553,Loulé / Cavalos De Caldeirão,37.3042,-7.9534,70.2,10.8,,6,2.3,19.5,100.0,1006.3,SW
2026-01-27 03:00:00,1210577,"Odemira, S.Teotónio",37.54710833,-8.72899167,44.3,14.3,0.0,5,4.7,12.3,98.0,,S
2026-01-27 03:00:00,1210580,"Lisboa, Relógio",38.7618,-9.1254,25.6,13.0,,6,3.7,7.1,97.0,1001.2,SW
2026-01-27 03:00:00,1210604,V.N.Cerveira (Aeródromo),41.96673056,-8.66676111,16.6,10.9,1.2,6,0.2,4.6,83.0,995.4,SW
2026-01-27 03:00:00,1210605,"Monção, Valinha",42.06669,-8.383347,14.8,11.1,0.0,6,0.3,4.1,81.0,,SW
2026-01-27 03:00:00,1210606,"Lamas de Mouro, P.Ribeiro",42.03333333,-8.18333333,,5.2,0.0,0,3.5,,96.0,996.1,
2026-01-27 03:00:00,1210611,Montalegre,41.82276667,-7.78797778,19.4,5.5,0.0,6,1.2,5.4,99.0,,SW
2026-01-27 03:00:00,1210612,Vinhais,41.8434,-7.0034416,9.4,7.2,,7,2.7,2.6,100.0,,W
2026-01-27 03:00:00,1210615,Ponte de Lima,41.75013889,-8.56671389,6.8,11.1,0.0,9,1.8,1.9,92.0,,N
2026-01-27 03:00:00,1210616,Chaves (Aeródromo),41.72516667,-7.46540833,11.5,9.9,0.0,5,0.9,3.2,87.0,994.9,S
2026-01-27 03:00:00,1210619,Cabril,41.71666667,-8.01666667,21.6,7.8,,7,1.5,6.0,99.0,,W
2026-01-27 03:00:00,1210622,"Braga, Merelim",41.56678056,-8.45003056,15.1,11.3,3.8,7,1.3,4.2,95.0,996.2,W
2026-01-27 03:00:00,1210625,Guimarães,41.4289,-8.3178,,11.2,0.0,0,,,88.0,996.0,
2026-01-27 03:00:00,1210630,Cabeceiras de Basto,41.53333333,-7.96666667,9.7,10.4,0.3,6,0.0,2.7,95.0,,SW
2026-01-27 03:00:00,1210632,Mirandela,41.51478611,-7.19083889,8.3,11.0,0.0,6,3.9,2.3,80.0,,SW
2026-01-27 03:00:00,1210633,"Macedo Cavaleiros, Bagueixe",41.56666667,-6.78333333,23.0,8.5,,7,8.5,6.4,100.0,,W
2026-01-27 03:00:00,1210635,Miranda do Douro,41.51666667,-6.28333333,32.8,9.2,,7,10.6,9.1,99.0,,W
2026-01-27 03:00:00,1210637,Mogadouro,41.33333333,-6.73333333,43.2,8.6,0.0,7,10.0,12.0,99.0,,W
2026-01-27 03:00:00,1210643,Paços Ferreira,41.27365,-8.38012,14.0,10.1,,6,1.3,3.9,98.0,,SW
2026-01-27 03:00:00,1210644,Carrazêda de Ansiães,41.23333333,-7.28333333,10.4,7.9,0.0,6,2.8,2.9,93.0,,SW
2026-01-27 03:00:00,1210654,Moncorvo,41.18333333,-7.01666667,11.9,10.2,0.0,7,9.5,3.3,94.0,996.5,W
2026-01-27 03:00:00,1210655,"Pinhão, Santa Bárbara",41.172775,-7.5489722,8.6,11.7,,1,1.4,2.4,83.0,,N
2026-01-27 03:00:00,1210657,Luzim,41.14585,-8.2490333,9.0,9.0,1.1,5,0.9,2.5,96.0,,S
2026-01-27 03:00:00,1210663,Moimenta da Beira,40.98333333,-7.6,14.4,8.7,0.0,7,2.6,4.0,94.0,,W
2026-01-27 03:00:00,1210666,"Trancoso, Bandarra",40.78333333,-7.36666667,25.2,8.7,0.0,6,9.6,7.0,99.0,,SW
2026-01-27 03:00:00,1210669,Arouca,40.93333333,-8.25,14.0,11.0,2.2,7,0.6,3.9,92.0,,W
2026-01-27 03:00:00,1210671,"F. Castelo Rodrigo, V.Torpim",40.75,-6.88333333,28.1,9.8,0.0,6,5.7,7.8,98.0,,SW
2026-01-27 03:00:00,1210683,Guarda,40.53333333,-7.26666667,20.5,7.5,2.1,6,12.3,5.7,100.0,,SW
2026-01-27 03:00:00,1210685,Nelas,40.51666667,-7.85,12.2,9.7,0.0,6,4.0,3.4,99.0,,SW
2026-01-27 03:00:00,1210686,"Pampilhosa da Serra, Fajão",40.145653,-7.92704,38.2,8.3,,7,11.8,10.6,100.0,,W
2026-01-27 03:00:00,1210687,Covilhã (Aeródromo),40.264309,-7.482302,19.4,11.0,0.0,6,,5.4,99.0,,SW
2026-01-27 03:00:00,1210690,Aldeia Souto (Q. Lageosa),40.35425833,-7.38931111,9.0,10.6,0.0,7,12.4,2.5,97.0,,W
2026-01-27 03:00:00,1210697,Lousã (Aeródromo),40.143922,-8.244066,12.6,11.8,,7,4.1,3.5,100.0,,W
2026-01-27 03:00:00,1210698,Fundão,40.14063611,-7.55362778,17.3,11.5,0.0,6,7.5,4.8,92.0,,SW
2026-01-27 03:00:00,1210702,Aveiro (Universidade),40.63529722,-8.65958333,10.4,12.0,0.4,6,0.0,2.9,96.0,998.4,SW
2026-01-27 03:00:00,1210704,Dunas de Mira,40.445955,-8.76168055,15.8,12.5,4.4,6,0.0,4.4,94.0,,SW
2026-01-27 03:00:00,1210705,Anadia,40.438852,-8.439996,1.4,11.5,0.0,5,0.0,0.4,96.0,,S
2026-01-27 03:00:00,1210707,"Coimbra, Bencanta",40.2134694,-8.45515277,3.6,11.8,0.0,5,0.3,1.0,100.0,,S
2026-01-27 03:00:00,1210713,"Figueira da Foz, Vila Verde",40.139764,-8.805945,9.0,12.5,0.0,5,0.0,2.5,,,S
2026-01-27 03:00:00,1210716,Ansião,39.9,-8.4,21.6,11.7,0.0,7,1.8,6.0,99.0,,W
2026-01-27 03:00:00,1210718,Leiria (Aeródromo),39.780553,-8.818166,9.0,12.9,1.4,6,1.6,2.5,99.0,999.6,SW
2026-01-27 03:00:00,1210724,"Tomar, Valdonas",39.6,-8.36666667,10.1,14.2,162.4,7,7.8,2.8,99.0,,W
2026-01-27 03:00:00,1210726,Alcobaça,39.51666667,-8.96666667,4.7,13.2,0.0,6,1.0,1.3,92.0,,SW
2026-01-27 03:00:00,1210729,Rio Maior,39.35,-8.93333333,10.8,14.2,51.2,7,4.5,3.0,93.0,,W
2026-01-27 03:00:00,1210734,"Santarém, Fonte Boa",39.201216,-8.736656,20.9,13.8,3.8,6,3.8,5.8,98.0,1000.0,SW
2026-01-27 03:00:00,1210735,Chamusca / Chouto,39.27,-8.3508,20.2,13.9,,6,7.0,5.6,99.0,999.5,SW
2026-01-27 03:00:00,1210739,"Torres Vedras, Dois Portos",39.04389444,-9.179,26.3,13.4,3.2,6,1.8,7.3,99.0,,SW
2026-01-27 03:00:00,1210744,Coruche,38.94096667,-8.51073611,42.1,14.6,1.0,6,6.6,11.7,,,SW
2026-01-27 03:00:00,1210746,Santa Cruz (Aeródromo),39.12594166,-9.3790388,18.4,12.1,0.6,7,0.3,5.1,98.0,1000.7,W
2026-01-27 03:00:00,1210750,Cabo da Roca,38.78171,-9.4975361,35.6,13.0,3.1,7,0.0,9.9,100.0,,W
2026-01-27 03:00:00,1210752,Sintra/Tapada do Mouco,38.781669,-9.400398,16.2,10.4,,7,1.5,4.5,100.0,,W
2026-01-27 03:00:00,1210762,"Lisboa, Tapada da Ajuda",38.70956111,-9.182825,11.2,13.5,0.1,6,3.5,3.1,100.0,,SW
2026-01-27 03:00:00,1210765,Cabo Raso,38.70900833,-9.48538333,33.5,13.9,,7,0.6,9.3,100.0,,W
2026-01-27 03:00:00,1210766,"Barreiro, Lavradio",38.67448611,-9.04766111,20.9,15.0,0.7,6,4.5,5.8,92.0,,SW
2026-01-27 03:00:00,1210767,Pegões,38.65079,-8.63503,29.9,14.0,0.0,6,5.8,8.3,100.0,,SW
2026-01-27 03:00:00,1210770,Setúbal,38.54846008,-8.89077058,23.0,14.7,0.0,7,4.7,6.4,93.0,,W
2026-01-27 03:00:00,1210776,"Alcácer do Sal, Barrosinha",38.36666667,-8.48333333,41.0,14.5,0.0,6,2.9,11.4,95.0,,SW
2026-01-27 03:00:00,1210783,Alvalade,37.946806,-8.394504,29.9,14.5,0.0,6,4.2,8.3,94.0,,SW
2026-01-27 03:00:00,1210785,Ourique / Santana Da Serra,37.5025,-8.3019,30.6,13.8,0.0,4,0.8,8.5,91.0,1006.0,SE
2026-01-27 03:00:00,1210789,Aljezur,37.31675278,-8.80001667,20.2,15.2,0.5,6,3.9,5.6,95.0,,SW
2026-01-27 03:00:00,1210790,Fóia,37.3143,-8.595733,59.4,9.6,0.0,6,8.6,16.5,,,SW
2026-01-27 03:00:00,1210800,"Sabugal, Martim Rei",40.33918056,-7.03693333,34.2,9.0,0.0,5,8.2,9.5,99.0,,S
2026-01-27 03:00:00,1210803,Zebreira,39.86666667,-7.01666667,33.5,11.6,0.0,5,2.5,9.3,94.0,,S
2026-01-27 03:00:00,1210806,"Proença-a-Nova, P.Moitas",39.73333333,-7.86666667,22.3,11.8,11.6,7,10.2,6.2,100.0,,W
2026-01-27 03:00:00,1210812,Alvega,39.46666667,-8.05,23.4,14.2,,5,2.9,6.5,99.0,,S
2026-01-27 03:00:00,1210824,"Avis, Benavila",39.1,-7.86666667,23.0,13.2,0.0,6,4.0,6.4,99.0,,SW
2026-01-27 03:00:00,1210826,Mora,38.94068,-8.16406,28.4,13.2,0.0,6,3.7,7.9,100.0,,SW
2026-01-27 03:00:00,1210835,Elvas,38.8908,-7.13976111,29.2,12.1,0.0,5,1.0,8.1,96.0,,S
2026-01-27 03:00:00,1210837,Estremoz,38.86666667,-7.51666667,29.2,11.8,0.0,5,3.2,8.1,100.0,,S
2026-01-27 03:00:00,1210846,Montemor-O-Novo,38.6451,-8.1991,25.9,12.7,,5,6.5,7.2,100.0,1003.0,S
2026-01-27 03:00:00,1210847,Viana do Alentejo,38.3319194,-8.04553888,33.8,12.6,0.7,5,,9.4,,,S
2026-01-27 03:00:00,1210848,"Portel, Oriola",38.31666667,-7.86666667,37.1,12.8,,5,1.2,10.3,95.0,,S
2026-01-27 03:00:00,1210851,Amareleja,38.2007,-7.2261,23.8,,0.0,5,2.8,6.6,,1005.3,S
2026-01-27 03:00:00,1210863,"Mértola, Vale Formoso",37.75,-7.55,22.3,13.7,7.1,5,2.3,6.2,87.0,,S
2026-01-27 03:00:00,1210864,"Castro Verde, N.Corvo",37.57655833,-7.97211389,29.5,13.8,0.0,6,3.0,8.2,99.0,,SW
2026-01-27 03:00:00,1210865,"Alcoutim, Mart.Longo",37.43333333,-7.76666667,27.7,13.4,,5,0.8,7.7,90.0,1007.3,S
2026-01-27 03:00:00,1210866,Vila Real de S.António,37.1871055,-7.416325,,16.0,,0,0.0,,81.0,,
2026-01-27 03:00:00,1210867,Castro Marim (RN Sapal),37.21666667,-7.45,40.3,16.1,0.0,6,0.1,11.2,84.0,,SW
2026-01-27 03:00:00,1210878,Portimão (Aeródromo),37.149167,-8.581389,32.4,15.1,0.0,6,0.8,9.0,91.0,1007.3,SW
2026-01-27 03:00:00,1210881,"Olhão, EPPO",37.033,-7.821,41.8,16.0,1.1,5,1.0,11.6,85.0,1008.4,S
2026-01-27 03:00:00,1210932,"S. Miguel, Nordeste",37.83256,-25.150108,22.3,10.1,,8,0.3,6.2,77.0,,NW
2026-01-27 03:00:00,1210956,"Madeira, Porto Moniz",32.867477,-17.171373,,19.6,0.3,0,0.0,,74.0,,
2026-01-27 03:00:00,1210960,"Madeira, S. Jorge, Santana",32.83446944,-16.906219,14.4,19.3,1.1,7,0.0,4.0,70.0,1013.5,W
2026-01-27 03:00:00,1210965,"Madeira, Santana",32.808238,-16.8864166,,16.8,27.5,0,0.0,,75.0,,
2026-01-27 03:00:00,1210967,"Madeira, São Vicente",32.8001833,-17.044722,,17.8,0.0,0,0.2,,83.0,,
2026-01-27 03:00:00,1210972,"Madeira, Pico Alto",32.693491,-16.903955,16.9,11.1,0.0,6,,4.7,,,SW
2026-01-27 03:00:00,1210973,"Madeira, Areeiro",32.71666667,-16.91666667,27.7,9.0,19.0,7,2.2,7.7,100.0,,W
2026-01-27 03:00:00,1210974,"Madeira, Pico do Areeiro",32.735107,-16.928271,,7.4,,0,4.0,,100.0,,
2026-01-27 03:00:00,1210975,"Madeira, Santo da Serra",32.7258972,-16.816822,,14.4,0.0,0,0.0,,89.0,,
2026-01-27 03:00:00,1210976,"Madeira, Monte",32.675833,-16.906944,8.6,13.9,1.3,4,7.0,2.4,100.0,,SE
2026-01-27 03:00:00,1210977,"Madeira, Cancela",32.64500556,-16.86575,17.6,16.4,3.6,4,0.1,4.9,99.0,,SE
2026-01-27 03:00:00,1210978,"Madeira, S. Lourenço",32.747,-16.706,39.2,17.3,0.0,6,0.0,10.9,91.0,,SW
2026-01-27 03:00:00,1210984,"Madeira, Quinta Grande",32.6629722,-17.01503611,,15.1,1.3,0,0.0,,90.0,,
2026-01-27 03:00:00,1210986,Ponta do Sol/Lugar de Baixo,32.681502,-17.104167,43.2,18.7,0.1,6,0.0,12.0,81.0,,SW
2026-01-27 03:00:00,1210987,Prazeres (Calheta),32.757205,-17.201551,21.2,13.9,0.6,7,0.0,5.9,100.0,,W
2026-01-27 03:00:00,1210990,"Madeira, Calheta",32.81384167,-17.26321389,44.3,15.9,0.1,6,0.0,12.3,93.0,1013.6,SW
2026-01-27 03:00:00,1240546,"Porto, Serra do Pilar",41.1385194,-8.6025,,11.8,,0,8.8,,100.0,996.2,
2026-01-27 03:00:00,1240566,Vila Real (Cidade),41.30898056,-7.740522,13.3,9.2,,6,1.0,3.7,91.0,,SW
2026-01-27 03:00:00,1240610,Viana do Castelo,41.695,-8.82916,,11.7,,0,1.8,,91.0,,
2026-01-27 03:00:00,1240903,"Porto, Massarelos",41.15257,-8.62598,,11.8,,0,,,100.0,,
2026-01-27 03:00:00,1240971,"Madeira, Funchal, Lido",32.63655,-16.935592,23.0,18.6,0.4,7,0.0,6.4,83.0,,W
2026-01-27 03:00:00,1259201,Lousã/Trevim,40.09328521,-8.17904215,23.4,6.9,,8,,6.5,100.0,,NW
2026-01-27 03:00:00,1259204,Seia/Senhora do Espinheiro,40.412775,-7.673406,24.8,7.3,,6,,6.9,100.0,998.9,SW
2026-01-27 03:00:00,6210872,Loulé (CML),37.129946,-8.06523593,21.2,14.6,,6,2.8,5.9,91.0,1008.7,SW
2026-01-27 03:00:00,6210879,Portimão (Praia da Rocha),37.11670461,-8.52946314,46.4,14.8,,6,5.5,12.9,95.0,,SW
2026-01-27 03:00:00,6211211,Monção - Guimil (CIM),42.042944,-8.421872,20.9,,2.9,6,,5.8,,993.8,SW
2026-01-27 03:00:00,6211213,Paredes De Coura - Vascões (CIM),41.913444,-8.492111,10.8,5.8,0.1,6,,3.0,99.0,995.5,SW
2026-01-27 03:00:00,6211216,Arcos De Valdevez - Heliporto (CIM),41.831,-8.44375,9.0,8.6,,6,3.6,2.5,94.0,996.0,SW
2026-01-27 03:00:00,6211218,Ponte De Lima - Anais (CIM),41.698083,-8.522444,12.2,9.1,2.2,8,,3.4,92.0,995.5,NW
2026-01-27 03:00:00,6212122,Amares Caldelas (CIM),41.66796389,-8.37977778,12.6,10.8,,7,0.8,3.5,95.0,996.5,W
2026-01-27 03:00:00,6212123,Vila Verde (CIM),41.64686111,-8.43398056,9.0,11.1,,7,,2.5,91.0,996.0,W
2026-01-27 03:00:00,6212124,Braga (CIM),41.53568333,-8.42514722,32.0,10.4,,7,7.1,8.9,95.0,997.1,W
2026-01-27 03:00:00,6212126,Esposende (CIM),41.52645556,-8.77984444,20.2,12.0,,7,1.1,5.6,98.0,996.7,W
2026-01-27 03:00:00,6213012,Carregal do Sal (CIM),40.46718056,-7.92626389,10.8,10.0,,6,,3.0,96.0,,SW
2026-01-27 03:00:00,6213013,Castro Daire / Mézio (CIM),40.98086111,-7.88318889,26.3,6.4,,6,,7.3,100.0,,SW
2026-01-27 03:00:00,6213014,Mangualde / Chãs de Tavares  (CIM),40.61096111,-7.60838889,24.1,9.3,,7,6.8,6.7,98.0,,W
2026-01-27 03:00:00,6213016,Oliveira de Frades (CIM),40.716925,-8.20133889,30.2,7.8,,5,,8.4,99.0,,S
2026-01-27 03:00:00,6213017,Penalva do Castelo (CIM),40.65706389,-7.69655278,18.4,9.6,,6,5.2,5.1,100.0,,SW
2026-01-27 03:00:00,6213020,Satão (CIM),40.76072778,-7.72019722,18.7,7.8,,6,2.5,5.2,100.0,,SW
2026-01-27 03:00:00,6213022,Vila Nova de Paiva (CIM),40.85595,-7.72716389,12.2,7.5,,6,3.2,3.4,,,SW
2026-01-27 03:00:00,6213611,Arganil / Aeródromo (CIM),40.274578,-7.974399,2.5,10.7,,5,9.1,0.7,97.0,,S
2026-01-27 03:00:00,6213612,Cantanhede / Fonte Dom Pedro (CIM),40.341894,-8.577613,9.7,11.3,,6,0.0,2.7,96.0,,SW
2026-01-27 03:00:00,6213614,Góis / Quinta da Ribeira (CIM),40.171642,-8.103238,14.0,,,6,,3.9,,,SW
2026-01-27 03:00:00,6213615,Mealhada / Quinta do Vale (CIM),40.373343,-8.4388429,7.9,11.1,,5,0.0,2.2,99.0,,S
2026-01-27 03:00:00,6213616,Mortágua / Aeródromo (CIM),40.426239,-8.232142,6.1,10.5,,7,0.9,1.7,98.0,,W
2026-01-27 03:00:00,6213617,Penacova / Hombres (CIM),40.280921,-8.198685,9.7,,,7,0.3,2.7,97.0,,W
2026-01-27 03:00:00,6213619,Vila Nova de Poiares (CIM),40.211411,-8.241995,8.6,11.9,,6,2.4,2.4,93.0,,SW
2026-01-27 03:00:00,6213620,Oliveira do Hospital (CIM),40.413306,-7.867972,11.2,9.8,,6,5.4,3.1,96.0,,SW
2026-01-27 03:00:00,6215302,"Lisboa, Carnide (CML)",38.7751,-9.1855,16.2,13.2,,7,,4.5,99.0,1000.6,W
2026-01-27 03:00:00,6215360,Oeiras / Vila Fria (CMO),38.7239536,-9.2939255,23.4,13.1,0.2,7,4.6,6.5,100.0,1001.3,W
2026-01-27 03:00:00,7240919,"Lisboa, Amoreiras (LFCL)",38.7239,-9.1649,15.1,12.7,,7,1.6,4.2,100.0,1002.0,W
2026-01-27 04:00:00,11217160,Santa Maria / Praia Formosa (DROTRH),36.9542,-25.0917,9.7,11.0,11.3,5,0.2,2.7,84.0,,S
2026-01-27 04:00:00,11217165,Santa Maria / Maia (DROTRH),36.9412,-25.0176,28.4,10.7,13.3,8,0.3,7.9,83.0,,NW
2026-01-27 04:00:00,11217217,São Miguel / Santana (DROTRH),37.8049,-25.5618,8.3,11.4,0.0,6,0.1,2.3,73.0,,SW
2026-01-27 04:00:00,11217225,São Miguel / Sete Cidades (DROTRH),37.8679,-25.772,21.2,10.7,0.0,7,0.0,5.9,77.0,,W
2026-01-27 04:00:00,11217255,São Miguel / Lagoa das Furnas (DROTRH),37.7619,-25.3291,14.0,9.9,1.0,5,0.1,3.9,73.0,,S
2026-01-27 04:00:00,11217372,Terceira / Serra do Cume (DROTRH),38.7002,-27.1031,37.4,7.0,0.0,8,0.2,10.4,94.0,,NW
2026-01-27 04:00:00,11217430,Graciosa / Serra das Fontes (DROTRH),39.0672,-28.0038,47.2,9.1,0.0,8,0.1,13.1,89.0,,NW
2026-01-27 04:00:00,11217510,São Jorge / Pico do Areeiro (DROTRH),38.6435,-28.0591,56.5,4.8,0.0,6,0.0,15.7,98.0,,SW
2026-01-27 04:00:00,11217625,Pico / Cabeço do Teicho (DROTRH),38.489,-28.3534,27.7,5.4,0.0,7,0.0,7.7,88.0,,W
2026-01-27 04:00:00,11217645,Pico / Cabecinho (DROTRH),38.4338,-28.1141,27.7,7.8,0.0,8,0.0,7.7,75.0,,NW
2026-01-27 04:00:00,11217710,Faial / Alto do Cabouco (DROTRH),38.587,-28.6992,,5.9,0.0,6,0.0,,86.0,,SW
2026-01-27 04:00:00,11217730,Faial / Cabeço Verde (DROTRH),38.5843,-28.7576,17.3,8.8,0.0,8,0.0,4.8,77.0,,NW
2026-01-27 04:00:00,1200501,Flores (Aeródromo),39.45819,-31.1301,33.5,12.1,0.0,7,0.6,9.3,67.0,1009.4,W
2026-01-27 04:00:00,1200502,Corvo (Aeródromo),39.67389,-31.11362,60.8,12.7,1392.0,7,0.0,16.9,71.0,1007.4,W
2026-01-27 04:00:00,1200504,Pico (Aeródromo),38.55219,-28.44137,31.0,12.6,0.0,7,0.0,8.6,60.0,1010.0,W
2026-01-27 04:00:00,1200505,Horta / Aeroporto,38.5211,-28.7128,40.0,13.5,,7,0.0,11.1,59.0,1009.6,W
2026-01-27 04:00:00,1200506,Horta (Obs. Principe Alberto),38.540781,-28.63225,54.7,12.5,0.0,7,0.0,15.2,67.0,1009.7,W
2026-01-27 04:00:00,1200510,São Jorge,38.66,-28.17,37.4,11.9,0.3,7,0.0,10.4,71.0,1009.3,W
2026-01-27 04:00:00,1200511,Angra do Heroísmo,38.6659435,-27.216567,33.8,10.8,0.4,7,0.4,9.4,74.0,1008.4,W
2026-01-27 04:00:00,1200512,P. Delgada (Aeródromo),37.74414,-25.6953048,50.0,12.7,0.0,7,0.0,13.9,71.0,1008.9,W
2026-01-27 04:00:00,1200515,Santa Maria (Aeródromo),36.967175,-25.1679,54.7,12.3,3.1,8,0.3,15.2,78.0,1011.4,NW
2026-01-27 04:00:00,1200521,Santa Catarina (Aeródromo),32.69688,-16.77612,,18.3,0.1,0,0.8,,87.0,1013.8,
2026-01-27 04:00:00,1200522,Funchal,32.64786,-16.888,14.8,18.2,0.0,7,0.9,4.1,82.0,1015.0,W
2026-01-27 04:00:00,1200524,Porto Santo,33.074029,-16.34868,36.0,17.2,0.3,7,0.9,10.0,83.0,1014.5,W
2026-01-27 04:00:00,1200531,Cabo Carvoeiro,39.38,-9.40737778,33.1,13.2,,7,3.9,9.2,100.0,999.8,W
2026-01-27 04:00:00,1200533,Sagres,37.012835,-8.949089,50.4,14.8,,6,1.5,14.0,97.0,1005.7,SW
2026-01-27 04:00:00,1200535,Lisboa (Geofísico),38.71907778,-9.14972222,15.1,13.2,0.0,6,0.4,4.2,100.0,1001.1,SW
2026-01-27 04:00:00,1200541,Sines,37.954504,-8.838271,23.4,13.8,0.2,7,12.7,6.5,100.0,1002.3,W
2026-01-27 04:00:00,1200545,"Porto, Pedras Rubras (Aeródromo)",41.233502,-8.681332,15.5,11.1,0.7,7,0.1,4.3,87.0,996.8,W
2026-01-27 04:00:00,1200548,Coimbra (Aeródromo),40.15006944,-8.46669167,14.0,11.3,0.0,6,0.1,3.9,100.0,998.7,SW
2026-01-27 04:00:00,1200551,"Viana Castelo, Chafé",41.648875,-8.804606,18.7,11.7,0.0,7,0.0,5.2,89.0,995.9,W
2026-01-27 04:00:00,1200554,Faro (Aeródromo),37.016579,-7.971953,50.8,15.3,0.0,6,4.0,14.1,93.0,1007.4,SW
2026-01-27 04:00:00,1200558,Évora (C.Coordenação),38.53336389,-7.88338056,39.6,12.9,0.0,6,3.8,11.0,,1001.5,SW
2026-01-27 04:00:00,1200559,Viseu (Aeródromo),40.72645,-7.887472,17.6,8.1,,7,0.3,4.9,99.0,997.8,W
2026-01-27 04:00:00,1200560,Viseu (C.Coordenação),40.71492222,-7.89592222,19.1,7.7,,6,0.3,5.3,100.0,998.5,SW
2026-01-27 04:00:00,1200562,Beja,38.02493056,-7.867275,33.8,13.0,0.0,6,2.1,9.4,100.0,1002.3,SW
2026-01-27 04:00:00,1200567,Vila Real,41.27418611,-7.7171,18.4,8.1,0.0,6,0.8,5.1,100.0,996.2,SW
2026-01-27 04:00:00,1200568,Penhas Douradas,40.41136667,-7.55865278,31.0,4.3,0.0,7,,8.6,100.0,,W
2026-01-27 04:00:00,1200570,Castelo Branco,39.83339444,-7.46678889,21.2,11.2,0.0,7,8.3,5.9,100.0,997.8,W
2026-01-27 04:00:00,1200571,Portalegre,39.29546944,-7.41996944,10.1,10.2,0.0,5,3.8,2.8,100.0,1000.3,S
2026-01-27 04:00:00,1200575,Bragança,41.80388889,-6.74283889,21.6,7.9,0.7,5,0.4,6.0,84.0,995.5,S
2026-01-27 04:00:00,1200576,Bragança (Aeródromo),41.85763611,-6.70796389,10.4,7.8,,5,0.2,2.9,92.0,994.6,S
2026-01-27 04:00:00,1200843,Évora (Aeródromo),38.5296,-7.8916,40.3,12.7,,5,2.8,11.2,99.0,1001.1,S
2026-01-27 04:00:00,1210513,P. Delgada (Obs. A. Chaves),37.7464,-25.662283,12.2,12.2,18.1,9,0.1,3.4,67.0,,N
2026-01-27 04:00:00,1210517,Flores / Morro Alto,39.4633,-31.2207,69.8,4.1,,7,0.1,19.4,100.0,1005.2,W
2026-01-27 04:00:00,1210518,São Miguel - Pico Santos De Cima,37.819,-25.7512,49.3,4.9,,8,0.0,13.7,100.0,1008.8,NW
2026-01-27 04:00:00,1210520,Ilhas selvagens,30.140595,-15.869153,59.8,17.4,0.1,7,0.0,16.6,76.0,1019.9,W
2026-01-27 04:00:00,1210550,Coruche / Cruz Do Leão,39.07101,-8.4,10.1,12.9,,7,1.2,2.8,100.0,1000.7,W
2026-01-27 04:00:00,1210553,Loulé / Cavalos De Caldeirão,37.3042,-7.9534,76.7,11.2,,6,4.0,21.3,100.0,1004.9,SW
2026-01-27 04:00:00,1210577,"Odemira, S.Teotónio",37.54710833,-8.72899167,40.0,14.5,0.0,6,2.5,11.1,98.0,,SW
2026-01-27 04:00:00,1210580,"Lisboa, Relógio",38.7618,-9.1254,23.0,12.6,,6,0.2,6.4,93.0,1001.4,SW
2026-01-27 04:00:00,1210604,V.N.Cerveira (Aeródromo),41.96673056,-8.66676111,14.8,11.6,0.2,7,0.0,4.1,81.0,995.3,W
2026-01-27 04:00:00,1210605,"Monção, Valinha",42.06669,-8.383347,14.4,11.1,0.0,7,0.2,4.0,78.0,,W
2026-01-27 04:00:00,1210606,"Lamas de Mouro, P.Ribeiro",42.03333333,-8.18333333,,4.6,0.0,0,0.2,,91.0,996.5,
2026-01-27 04:00:00,1210611,Montalegre,41.82276667,-7.78797778,23.4,4.4,0.0,7,2.1,6.5,99.0,,W
2026-01-27 04:00:00,1210612,Vinhais,41.8434,-7.0034416,9.4,6.4,,7,1.3,2.6,100.0,,W
2026-01-27 04:00:00,1210615,Ponte de Lima,41.75013889,-8.56671389,4.0,10.0,0.0,8,0.1,1.1,95.0,,NW
2026-01-27 04:00:00,1210616,Chaves (Aeródromo),41.72516667,-7.46540833,12.2,9.8,0.0,6,2.3,3.4,87.0,994.3,SW
2026-01-27 04:00:00,1210619,Cabril,41.71666667,-8.01666667,25.2,6.9,,7,1.4,7.0,97.0,,W
2026-01-27 04:00:00,1210622,"Braga, Merelim",41.56678056,-8.45003056,6.1,10.2,3.5,6,0.5,1.7,94.0,996.6,SW
2026-01-27 04:00:00,1210625,Guimarães,41.4289,-8.3178,,10.3,0.8,0,,,88.0,996.5,
2026-01-27 04:00:00,1210630,Cabeceiras de Basto,41.53333333,-7.96666667,15.8,10.1,0.0,7,3.4,4.4,90.0,,W
2026-01-27 04:00:00,1210632,Mirandela,41.51478611,-7.19083889,12.6,10.2,0.0,5,0.0,3.5,84.0,,S
2026-01-27 04:00:00,1210633,"Macedo Cavaleiros, Bagueixe",41.56666667,-6.78333333,11.2,7.3,,6,,3.1,100.0,,SW
2026-01-27 04:00:00,1210635,Miranda do Douro,41.51666667,-6.28333333,25.2,8.7,,6,14.0,7.0,99.0,,SW
2026-01-27 04:00:00,1210637,Mogadouro,41.33333333,-6.73333333,37.8,7.4,0.0,7,3.5,10.5,99.0,,W
2026-01-27 04:00:00,1210643,Paços Ferreira,41.27365,-8.38012,8.3,9.0,,7,2.3,2.3,97.0,,W
2026-01-27 04:00:00,1210644,Carrazêda de Ansiães,41.23333333,-7.28333333,8.6,7.5,0.0,6,0.2,2.4,92.0,,SW
2026-01-27 04:00:00,1210654,Moncorvo,41.18333333,-7.01666667,13.7,8.9,0.0,6,2.8,3.8,94.0,996.5,SW
2026-01-27 04:00:00,1210655,"Pinhão, Santa Bárbara",41.172775,-7.5489722,5.0,11.5,,3,0.1,1.4,84.0,,E
2026-01-27 04:00:00,1210657,Luzim,41.14585,-8.2490333,7.2,8.4,0.0,5,8.9,2.0,95.0,,S
2026-01-27 04:00:00,1210663,Moimenta da Beira,40.98333333,-7.6,28.1,7.8,0.0,6,0.8,7.8,92.0,,SW
2026-01-27 04:00:00,1210666,"Trancoso, Bandarra",40.78333333,-7.36666667,26.6,7.0,0.0,6,3.5,7.4,99.0,,SW
2026-01-27 04:00:00,1210669,Arouca,40.93333333,-8.25,18.7,10.9,0.0,7,2.2,5.2,86.0,,W
2026-01-27 04:00:00,1210671,"F. Castelo Rodrigo, V.Torpim",40.75,-6.88333333,24.5,9.3,0.0,6,3.9,6.8,98.0,,SW
2026-01-27 04:00:00,1210683,Guarda,40.53333333,-7.26666667,21.2,6.8,1.2,7,3.2,5.9,99.0,,W
2026-01-27 04:00:00,1210685,Nelas,40.51666667,-7.85,10.4,8.9,0.0,6,2.0,2.9,100.0,,SW
2026-01-27 04:00:00,1210686,"Pampilhosa da Serra, Fajão",40.145653,-7.92704,24.1,7.3,,7,1.3,6.7,100.0,,W
2026-01-27 04:00:00,1210687,Covilhã (Aeródromo),40.264309,-7.482302,16.9,10.8,0.0,6,,4.7,93.0,,SW
2026-01-27 04:00:00,1210690,Aldeia Souto (Q. Lageosa),40.35425833,-7.38931111,3.6,10.1,0.0,6,2.1,1.0,97.0,,SW
2026-01-27 04:00:00,1210697,Lousã (Aeródromo),40.143922,-8.244066,8.6,12.0,,6,0.1,2.4,100.0,,SW
2026-01-27 04:00:00,1210698,Fundão,40.14063611,-7.55362778,12.6,11.0,0.6,8,2.5,3.5,94.0,,NW
2026-01-27 04:00:00,1210702,Aveiro (Universidade),40.63529722,-8.65958333,33.1,11.7,0.0,7,5.2,9.2,94.0,998.3,W
2026-01-27 04:00:00,1210704,Dunas de Mira,40.445955,-8.76168055,15.8,12.4,0.2,6,2.8,4.4,92.0,,SW
2026-01-27 04:00:00,1210705,Anadia,40.438852,-8.439996,3.6,11.4,0.0,5,0.8,1.0,96.0,,S
2026-01-27 04:00:00,1210707,"Coimbra, Bencanta",40.2134694,-8.45515277,10.8,11.9,0.8,5,0.0,3.0,100.0,,S
2026-01-27 04:00:00,1210713,"Figueira da Foz, Vila Verde",40.139764,-8.805945,23.0,12.9,0.0,6,0.3,6.4,,,SW
2026-01-27 04:00:00,1210716,Ansião,39.9,-8.4,15.1,10.9,0.0,6,0.3,4.2,99.0,,SW
2026-01-27 04:00:00,1210718,Leiria (Aeródromo),39.780553,-8.818166,12.6,12.8,1.6,6,0.0,3.5,97.0,999.2,SW
2026-01-27 04:00:00,1210724,"Tomar, Valdonas",39.6,-8.36666667,4.3,13.4,126.5,6,0.3,1.2,98.0,,SW
2026-01-27 04:00:00,1210726,Alcobaça,39.51666667,-8.96666667,5.0,13.1,0.0,6,0.1,1.4,92.0,,SW
2026-01-27 04:00:00,1210729,Rio Maior,39.35,-8.93333333,5.4,13.1,48.9,7,0.0,1.5,93.0,,W
2026-01-27 04:00:00,1210734,"Santarém, Fonte Boa",39.201216,-8.736656,15.5,12.9,1.1,6,0.0,4.3,97.0,1000.3,SW
2026-01-27 04:00:00,1210735,Chamusca / Chouto,39.27,-8.3508,9.7,13.6,,5,1.0,2.7,98.0,1000.2,S
2026-01-27 04:00:00,1210739,"Torres Vedras, Dois Portos",39.04389444,-9.179,21.2,13.1,0.7,6,0.0,5.9,98.0,,SW
2026-01-27 04:00:00,1210744,Coruche,38.94096667,-8.51073611,22.0,14.1,4.3,7,1.2,6.1,,,W
2026-01-27 04:00:00,1210746,Santa Cruz (Aeródromo),39.12594166,-9.3790388,25.9,12.0,1.5,6,0.0,7.2,97.0,1000.4,SW
2026-01-27 04:00:00,1210750,Cabo da Roca,38.78171,-9.4975361,40.7,13.0,0.0,7,0.0,11.3,97.0,,W
2026-01-27 04:00:00,1210752,Sintra/Tapada do Mouco,38.781669,-9.400398,18.4,9.7,,7,0.0,5.1,100.0,,W
2026-01-27 04:00:00,1210762,"Lisboa, Tapada da Ajuda",38.70956111,-9.182825,9.0,13.4,0.0,6,0.5,2.5,100.0,,SW
2026-01-27 04:00:00,1210765,Cabo Raso,38.70900833,-9.48538333,31.7,14.2,,7,0.0,8.8,95.0,,W
2026-01-27 04:00:00,1210766,"Barreiro, Lavradio",38.67448611,-9.04766111,13.0,14.0,0.0,6,1.2,3.6,95.0,,SW
2026-01-27 04:00:00,1210767,Pegões,38.65079,-8.63503,16.2,12.8,0.2,7,1.6,4.5,100.0,,W
2026-01-27 04:00:00,1210770,Setúbal,38.54846008,-8.89077058,16.2,13.6,0.0,7,0.4,4.5,86.0,,W
2026-01-27 04:00:00,1210776,"Alcácer do Sal, Barrosinha",38.36666667,-8.48333333,25.6,14.3,0.0,7,5.9,7.1,96.0,,W
2026-01-27 04:00:00,1210783,Alvalade,37.946806,-8.394504,32.4,15.0,0.0,6,4.7,9.0,94.0,,SW
2026-01-27 04:00:00,1210785,Ourique / Santana Da Serra,37.5025,-8.3019,27.0,14.1,0.0,4,0.7,7.5,92.0,1004.6,SE
2026-01-27 04:00:00,1210789,Aljezur,37.31675278,-8.80001667,20.5,15.4,0.0,6,1.3,5.7,96.0,,SW
2026-01-27 04:00:00,1210790,Fóia,37.3143,-8.595733,64.8,9.9,0.0,6,4.7,18.0,,,SW
2026-01-27 04:00:00,1210800,"Sabugal, Martim Rei",40.33918056,-7.03693333,18.7,9.0,0.0,6,13.7,5.2,99.0,,SW
2026-01-27 04:00:00,1210803,Zebreira,39.86666667,-7.01666667,28.8,11.8,0.0,7,4.1,8.0,95.0,,W
2026-01-27 04:00:00,1210806,"Proença-a-Nova, P.Moitas",39.73333333,-7.86666667,21.6,11.3,12.3,7,5.3,6.0,100.0,,W
2026-01-27 04:00:00,1210812,Alvega,39.46666667,-8.05,3.6,14.0,,6,4.4,1.0,100.0,,SW
2026-01-27 04:00:00,1210824,"Avis, Benavila",39.1,-7.86666667,23.0,13.4,0.0,7,5.8,6.4,99.0,,W
2026-01-27 04:00:00,1210826,Mora,38.94068,-8.16406,19.8,13.3,0.0,6,4.1,5.5,99.0,,SW
2026-01-27 04:00:00,1210835,Elvas,38.8908,-7.13976111,29.9,12.1,0.0,6,3.5,8.3,98.0,,SW
2026-01-27 04:00:00,1210837,Estremoz,38.86666667,-7.51666667,24.5,12.1,0.0,5,2.3,6.8,100.0,,S
2026-01-27 04:00:00,1210846,Montemor-O-Novo,38.6451,-8.1991,26.6,13.0,,7,4.9,7.4,100.0,1002.0,W
2026-01-27 04:00:00,1210847,Viana do Alentejo,38.3319194,-8.04553888,36.7,12.9,0.4,6,,10.2,,,SW
2026-01-27 04:00:00,1210848,"Portel, Oriola",38.31666667,-7.86666667,34.6,13.1,,6,0.6,9.6,95.0,,SW
2026-01-27 04:00:00,1210851,Amareleja,38.2007,-7.2261,29.2,,0.0,5,3.9,8.1,,1003.8,S
2026-01-27 04:00:00,1210863,"Mértola, Vale Formoso",37.75,-7.55,18.4,13.3,7.2,5,3.2,5.1,94.0,,S
2026-01-27 04:00:00,1210864,"Castro Verde, N.Corvo",37.57655833,-7.97211389,29.9,14.1,0.0,6,2.9,8.3,99.0,,SW
2026-01-27 04:00:00,1210865,"Alcoutim, Mart.Longo",37.43333333,-7.76666667,31.0,13.4,,5,3.1,8.6,94.0,1005.9,S
2026-01-27 04:00:00,1210866,Vila Real de S.António,37.1871055,-7.416325,,15.2,,0,1.5,,87.0,,
2026-01-27 04:00:00,1210867,Castro Marim (RN Sapal),37.21666667,-7.45,45.7,15.2,0.0,6,1.3,12.7,91.0,,SW
2026-01-27 04:00:00,1210878,Portimão (Aeródromo),37.149167,-8.581389,34.2,15.0,0.0,6,1.0,9.5,94.0,1006.1,SW
2026-01-27 04:00:00,1210881,"Olhão, EPPO",37.033,-7.821,42.8,15.1,0.0,5,4.3,11.9,95.0,1007.6,S
2026-01-27 04:00:00,1210932,"S. Miguel, Nordeste",37.83256,-25.150108,22.7,10.6,,8,0.0,6.3,77.0,,NW
2026-01-27 04:00:00,1210956,"Madeira, Porto Moniz",32.867477,-17.171373,,17.5,9.8,0,4.8,,82.0,,
2026-01-27 04:00:00,1210960,"Madeira, S. Jorge, Santana",32.83446944,-16.906219,39.2,16.9,75.5,7,0.0,10.9,,1013.1,W
2026-01-27 04:00:00,1210965,"Madeira, Santana",32.808238,-16.8864166,,16.4,27.9,0,0.0,,82.0,,
2026-01-27 04:00:00,1210967,"Madeira, São Vicente",32.8001833,-17.044722,,17.9,0.0,0,0.1,,84.0,,
2026-01-27 04:00:00,1210972,"Madeira, Pico Alto",32.693491,-16.903955,19.1,11.4,0.0,6,,5.3,,,SW
2026-01-27 04:00:00,1210973,"Madeira, Areeiro",32.71666667,-16.91666667,22.7,9.3,16.0,8,1.9,6.3,100.0,,NW
2026-01-27 04:00:00,1210974,"Madeira, Pico do Areeiro",32.735107,-16.928271,,7.8,,0,3.3,,100.0,,
2026-01-27 04:00:00,1210975,"Madeira, Santo da Serra",32.7258972,-16.816822,,14.3,0.0,0,0.1,,89.0,,
2026-01-27 04:00:00,1210976,"Madeira, Monte",32.675833,-16.906944,6.5,14.2,3.5,7,4.6,1.8,100.0,,W
2026-01-27 04:00:00,1210977,"Madeira, Cancela",32.64500556,-16.86575,15.1,16.4,3.7,2,0.7,4.2,100.0,,NE
2026-01-27 04:00:00,1210978,"Madeira, S. Lourenço",32.747,-16.706,9.0,17.5,0.0,4,0.0,2.5,91.0,,SE
2026-01-27 04:00:00,1210984,"Madeira, Quinta Grande",32.6629722,-17.01503611,,15.0,3.1,0,0.6,,91.0,,
2026-01-27 04:00:00,1210986,Ponta do Sol/Lugar de Baixo,32.681502,-17.104167,32.4,17.9,0.5,6,1.2,9.0,86.0,,SW
2026-01-27 04:00:00,1210987,Prazeres (Calheta),32.757205,-17.201551,31.3,13.6,2.4,8,3.5,8.7,100.0,,NW
2026-01-27 04:00:00,1210990,"Madeira, Calheta",32.81384167,-17.26321389,32.4,15.0,0.2,6,0.5,9.0,97.0,1014.3,SW
2026-01-27 04:00:00,1240546,"Porto, Serra do Pilar",41.1385194,-8.6025,,10.1,,0,1.3,,100.0,996.3,
2026-01-27 04:00:00,1240566,Vila Real (Cidade),41.30898056,-7.740522,21.2,9.0,,6,2.0,5.9,89.0,,SW
2026-01-27 04:00:00,1240610,Viana do Castelo,41.695,-8.82916,,12.3,,0,0.0,,77.0,,
2026-01-27 04:00:00,1240903,"Porto, Massarelos",41.15257,-8.62598,,10.3,,0,,,100.0,,
2026-01-27 04:00:00,1240971,"Madeira, Funchal, Lido",32.63655,-16.935592,15.8,18.4,1.9,7,0.6,4.4,85.0,,W
2026-01-27 04:00:00,1259201,Lousã/Trevim,40.09328521,-8.17904215,34.9,5.7,,7,,9.7,100.0,,W
2026-01-27 04:00:00,1259204,Seia/Senhora do Espinheiro,40.412775,-7.673406,23.0,6.5,,6,3.2,6.4,100.0,998.9,SW
2026-01-27 04:00:00,6210872,Loulé (CML),37.129946,-8.06523593,22.0,14.1,,6,5.2,6.1,,1007.6,SW
2026-01-27 04:00:00,6210879,Portimão (Praia da Rocha),37.11670461,-8.52946314,50.4,14.7,,6,5.0,14.0,98.0,,SW
2026-01-27 04:00:00,6211211,Monção - Guimil (CIM),42.042944,-8.421872,22.3,,2.1,7,,6.2,,994.1,W
2026-01-27 04:00:00,6211213,Paredes De Coura - Vascões (CIM),41.913444,-8.492111,17.6,5.8,1.4,6,,4.9,98.0,995.5,SW
2026-01-27 04:00:00,6211216,Arcos De Valdevez - Heliporto (CIM),41.831,-8.44375,8.3,8.1,,6,0.4,2.3,94.0,996.4,SW
2026-01-27 04:00:00,6211218,Ponte De Lima - Anais (CIM),41.698083,-8.522444,10.8,8.7,7.3,8,,3.0,88.0,995.7,NW
2026-01-27 04:00:00,6212122,Amares Caldelas (CIM),41.66796389,-8.37977778,6.8,9.9,,5,0.5,1.9,91.0,996.8,S
2026-01-27 04:00:00,6212123,Vila Verde (CIM),41.64686111,-8.43398056,4.3,10.3,,5,,1.2,91.0,996.0,S
2026-01-27 04:00:00,6212124,Braga (CIM),41.53568333,-8.42514722,13.7,9.5,,6,1.3,3.8,91.0,997.6,SW
2026-01-27 04:00:00,6212126,Esposende (CIM),41.52645556,-8.77984444,36.4,12.3,,7,0.3,10.1,96.0,996.8,W
2026-01-27 04:00:00,6213012,Carregal do Sal (CIM),40.46718056,-7.92626389,9.4,9.5,,6,,2.6,97.0,,SW
2026-01-27 04:00:00,6213013,Castro Daire / Mézio (CIM),40.98086111,-7.88318889,24.8,5.6,,6,,6.9,100.0,,SW
2026-01-27 04:00:00,6213014,Mangualde / Chãs de Tavares  (CIM),40.61096111,-7.60838889,23.4,7.9,,6,4.0,6.5,99.0,,SW
2026-01-27 04:00:00,6213016,Oliveira de Frades (CIM),40.716925,-8.20133889,28.8,7.9,,5,,8.0,98.0,,S
2026-01-27 04:00:00,6213017,Penalva do Castelo (CIM),40.65706389,-7.69655278,21.6,8.6,,6,2.2,6.0,100.0,,SW
2026-01-27 04:00:00,6213020,Satão (CIM),40.76072778,-7.72019722,17.6,7.3,,6,1.2,4.9,100.0,,SW
2026-01-27 04:00:00,6213022,Vila Nova de Paiva (CIM),40.85595,-7.72716389,21.6,6.4,,6,0.6,6.0,,,SW
2026-01-27 04:00:00,6213611,Arganil / Aeródromo (CIM),40.274578,-7.974399,4.0,10.5,,5,1.0,1.1,99.0,,S
2026-01-27 04:00:00,6213612,Cantanhede / Fonte Dom Pedro (CIM),40.341894,-8.577613,12.2,11.5,,6,0.4,3.4,96.0,,SW
2026-01-27 04:00:00,6213614,Góis / Quinta da Ribeira (CIM),40.171642,-8.103238,12.6,,,6,,3.5,,,SW
2026-01-27 04:00:00,6213615,Mealhada / Quinta do Vale (CIM),40.373343,-8.4388429,7.9,11.1,,5,0.5,2.2,99.0,,S
2026-01-27 04:00:00,6213616,Mortágua / Aeródromo (CIM),40.426239,-8.232142,9.0,10.8,,6,3.4,2.5,98.0,,SW
2026-01-27 04:00:00,6213617,Penacova / Hombres (CIM),40.280921,-8.198685,11.2,,,8,7.6,3.1,93.0,,NW
2026-01-27 04:00:00,6213619,Vila Nova de Poiares (CIM),40.211411,-8.241995,7.9,11.7,,6,0.5,2.2,94.0,,SW
2026-01-27 04:00:00,6213620,Oliveira do Hospital (CIM),40.413306,-7.867972,10.4,9.3,,6,2.3,2.9,98.0,,SW
2026-01-27 04:00:00,6215302,"Lisboa, Carnide (CML)",38.7751,-9.1855,17.3,12.9,,7,,4.8,96.0,1000.5,W
2026-01-27 04:00:00,6215360,Oeiras / Vila Fria (CMO),38.7239536,-9.2939255,18.0,12.8,0.0,7,0.0,5.0,100.0,1001.2,W
2026-01-27 04:00:00,7240919,"Lisboa, Amoreiras (LFCL)",38.7239,-9.1649,12.6,12.4,,7,0.3,3.5,100.0,1001.9,W
2026-01-27 05:00:00,11217160,Santa Maria / Praia Formosa (DROTRH),36.9542,-25.0917,25.6,11.9,0.9,2,0.0,7.1,79.0,,NE
2026-01-27 05:00:00,11217165,Santa Maria / Maia (DROTRH),36.9412,-25.0176,25.9,11.5,3.1,8,0.1,7.2,80.0,,NW
2026-01-27 05:00:00,11217217,São Miguel / Santana (DROTRH),37.8049,-25.5618,8.6,11.7,0.0,5,0.0,2.4,74.0,,S
2026-01-27 05:00:00,11217225,São Miguel / Sete Cidades (DROTRH),37.8679,-25.772,19.1,10.8,10.0,7,0.1,5.3,78.0,,W
2026-01-27 05:00:00,11217255,São Miguel / Lagoa das Furnas (DROTRH),37.7619,-25.3291,13.3,10.1,2.2,5,0.1,3.7,73.0,,S
2026-01-27 05:00:00,11217372,Terceira / Serra do Cume (DROTRH),38.7002,-27.1031,36.0,7.9,0.0,8,0.0,10.0,95.0,,NW
2026-01-27 05:00:00,11217430,Graciosa / Serra das Fontes (DROTRH),39.0672,-28.0038,46.1,10.3,0.0,8,0.0,12.8,84.0,,NW
2026-01-27 05:00:00,11217510,São Jorge / Pico do Areeiro (DROTRH),38.6435,-28.0591,53.6,5.5,0.0,6,0.3,14.9,95.0,,SW
2026-01-27 05:00:00,11217625,Pico / Cabeço do Teicho (DROTRH),38.489,-28.3534,32.8,5.9,0.0,6,0.0,9.1,89.0,,SW
2026-01-27 05:00:00,11217645,Pico / Cabecinho (DROTRH),38.4338,-28.1141,26.6,8.6,0.0,7,0.1,7.4,70.0,,W
2026-01-27 05:00:00,11217710,Faial / Alto do Cabouco (DROTRH),38.587,-28.6992,,6.2,0.0,5,0.0,,91.0,,S
2026-01-27 05:00:00,11217730,Faial / Cabeço Verde (DROTRH),38.5843,-28.7576,13.7,9.0,0.0,7,0.0,3.8,84.0,,W
2026-01-27 05:00:00,1200501,Flores (Aeródromo),39.45819,-31.1301,22.0,12.0,0.0,7,0.1,6.1,74.0,1008.9,W
2026-01-27 05:00:00,1200502,Corvo (Aeródromo),39.67389,-31.11362,51.5,13.2,346.9,7,0.0,14.3,71.0,1007.1,W
2026-01-27 05:00:00,1200504,Pico (Aeródromo),38.55219,-28.44137,26.6,13.0,0.0,7,0.0,7.4,61.0,1010.1,W
2026-01-27 05:00:00,1200505,Horta / Aeroporto,38.5211,-28.7128,37.1,13.5,,7,0.0,10.3,64.0,1009.9,W
2026-01-27 05:00:00,1200506,Horta (Obs. Principe Alberto),38.540781,-28.63225,45.0,12.9,0.0,7,0.0,12.5,70.0,1010.0,W
2026-01-27 05:00:00,1200510,São Jorge,38.66,-28.17,38.9,12.8,0.0,7,0.0,10.8,68.0,1009.4,W
2026-01-27 05:00:00,1200511,Angra do Heroísmo,38.6659435,-27.216567,40.0,11.2,0.4,7,0.1,11.1,78.0,1008.5,W
2026-01-27 05:00:00,1200512,P. Delgada (Aeródromo),37.74414,-25.6953048,57.2,12.4,0.8,8,0.2,15.9,77.0,1009.3,NW
2026-01-27 05:00:00,1200515,Santa Maria (Aeródromo),36.967175,-25.1679,57.6,13.1,0.2,8,0.0,16.0,75.0,1011.7,NW
2026-01-27 05:00:00,1200521,Santa Catarina (Aeródromo),32.69688,-16.77612,,18.7,2.0,0,0.0,,82.0,1014.0,
2026-01-27 05:00:00,1200522,Funchal,32.64786,-16.888,20.5,17.4,0.0,7,0.0,5.7,85.0,1014.5,W
2026-01-27 05:00:00,1200524,Porto Santo,33.074029,-16.34868,25.6,15.9,0.9,7,0.9,7.1,89.0,1014.6,W
2026-01-27 05:00:00,1200531,Cabo Carvoeiro,39.38,-9.40737778,32.8,12.3,,7,0.1,9.1,100.0,999.6,W
2026-01-27 05:00:00,1200533,Sagres,37.012835,-8.949089,50.4,14.9,,6,2.2,14.0,99.0,1004.6,SW
2026-01-27 05:00:00,1200535,Lisboa (Geofísico),38.71907778,-9.14972222,17.3,13.1,0.0,6,0.1,4.8,100.0,1000.8,SW
2026-01-27 05:00:00,1200541,Sines,37.954504,-8.838271,17.3,12.7,0.0,7,1.4,4.8,100.0,1002.8,W
2026-01-27 05:00:00,1200545,"Porto, Pedras Rubras (Aeródromo)",41.233502,-8.681332,19.1,10.8,3.3,7,0.7,5.3,83.0,997.2,W
2026-01-27 05:00:00,1200548,Coimbra (Aeródromo),40.15006944,-8.46669167,12.6,11.0,0.0,7,2.2,3.5,100.0,998.8,W
2026-01-27 05:00:00,1200551,"Viana Castelo, Chafé",41.648875,-8.804606,16.6,11.8,0.0,7,0.0,4.6,78.0,996.1,W
2026-01-27 05:00:00,1200554,Faro (Aeródromo),37.016579,-7.971953,52.9,15.2,0.0,6,2.5,14.7,94.0,1006.0,SW
2026-01-27 05:00:00,1200558,Évora (C.Coordenação),38.53336389,-7.88338056,29.5,12.5,0.0,7,3.7,8.2,,1001.8,W
2026-01-27 05:00:00,1200559,Viseu (Aeródromo),40.72645,-7.887472,28.1,7.4,,7,2.9,7.8,98.0,997.8,W
2026-01-27 05:00:00,1200560,Viseu (C.Coordenação),40.71492222,-7.89592222,30.6,7.1,,7,2.2,8.5,99.0,998.4,W
2026-01-27 05:00:00,1200562,Beja,38.02493056,-7.867275,41.4,13.3,0.0,6,1.9,11.5,100.0,1000.9,SW
2026-01-27 05:00:00,1200567,Vila Real,41.27418611,-7.7171,4.0,6.3,0.0,6,2.4,1.1,97.0,997.5,SW
2026-01-27 05:00:00,1200568,Penhas Douradas,40.41136667,-7.55865278,34.2,3.2,0.0,7,,9.5,100.0,,W
2026-01-27 05:00:00,1200570,Castelo Branco,39.83339444,-7.46678889,18.7,11.0,0.0,7,0.0,5.2,100.0,997.9,W
2026-01-27 05:00:00,1200571,Portalegre,39.29546944,-7.41996944,24.5,10.3,0.0,7,5.3,6.8,100.0,1000.2,W
2026-01-27 05:00:00,1200575,Bragança,41.80388889,-6.74283889,17.3,7.6,0.0,7,2.0,4.8,83.0,995.5,W
2026-01-27 05:00:00,1200576,Bragança (Aeródromo),41.85763611,-6.70796389,32.0,7.5,,7,0.8,8.9,92.0,994.5,W
2026-01-27 05:00:00,1200843,Évora (Aeródromo),38.5296,-7.8916,28.4,12.3,,7,3.6,7.9,98.0,1001.5,W
2026-01-27 05:00:00,1210513,P. Delgada (Obs. A. Chaves),37.7464,-25.662283,11.9,11.9,13.9,9,0.4,3.3,74.0,,N
2026-01-27 05:00:00,1210517,Flores / Morro Alto,39.4633,-31.2207,65.5,4.7,,7,0.3,18.2,100.0,1005.0,W
2026-01-27 05:00:00,1210518,São Miguel - Pico Santos De Cima,37.819,-25.7512,47.2,5.2,,8,0.2,13.1,100.0,1009.0,NW
2026-01-27 05:00:00,1210520,Ilhas selvagens,30.140595,-15.869153,59.0,17.5,0.1,7,0.0,16.4,79.0,1019.6,W
2026-01-27 05:00:00,1210550,Coruche / Cruz Do Leão,39.07101,-8.4,8.3,12.1,,6,0.2,2.3,100.0,1000.6,SW
2026-01-27 05:00:00,1210553,Loulé / Cavalos De Caldeirão,37.3042,-7.9534,77.8,11.4,,6,1.1,21.6,100.0,1003.2,SW
2026-01-27 05:00:00,1210577,"Odemira, S.Teotónio",37.54710833,-8.72899167,48.6,14.6,0.0,6,3.4,13.5,99.0,,SW
2026-01-27 05:00:00,1210580,"Lisboa, Relógio",38.7618,-9.1254,22.3,12.5,,6,0.0,6.2,92.0,1001.1,SW
2026-01-27 05:00:00,1210604,V.N.Cerveira (Aeródromo),41.96673056,-8.66676111,12.6,11.7,0.0,7,0.0,3.5,66.0,995.6,W
2026-01-27 05:00:00,1210605,"Monção, Valinha",42.06669,-8.383347,16.9,10.9,0.0,5,0.0,4.7,72.0,,S
2026-01-27 05:00:00,1210606,"Lamas de Mouro, P.Ribeiro",42.03333333,-8.18333333,,3.8,0.0,0,0.8,,90.0,997.1,
2026-01-27 05:00:00,1210611,Montalegre,41.82276667,-7.78797778,14.4,2.2,0.0,7,1.9,4.0,99.0,,W
2026-01-27 05:00:00,1210612,Vinhais,41.8434,-7.0034416,35.3,5.3,,8,4.4,9.8,100.0,,NW
2026-01-27 05:00:00,1210615,Ponte de Lima,41.75013889,-8.56671389,5.0,10.7,0.0,5,0.0,1.4,77.0,,S
2026-01-27 05:00:00,1210616,Chaves (Aeródromo),41.72516667,-7.46540833,12.6,8.5,0.0,6,0.7,3.5,80.0,995.7,SW
2026-01-27 05:00:00,1210619,Cabril,41.71666667,-8.01666667,24.1,5.7,,7,2.3,6.7,97.0,,W
2026-01-27 05:00:00,1210622,"Braga, Merelim",41.56678056,-8.45003056,5.8,9.9,3.4,5,1.0,1.6,93.0,997.0,S
2026-01-27 05:00:00,1210625,Guimarães,41.4289,-8.3178,,9.6,0.0,0,,,89.0,997.0,
2026-01-27 05:00:00,1210630,Cabeceiras de Basto,41.53333333,-7.96666667,8.3,8.8,0.0,7,2.5,2.3,85.0,,W
2026-01-27 05:00:00,1210632,Mirandela,41.51478611,-7.19083889,9.0,9.9,0.0,7,0.7,2.5,80.0,,W
2026-01-27 05:00:00,1210633,"Macedo Cavaleiros, Bagueixe",41.56666667,-6.78333333,24.1,7.0,,7,1.1,6.7,99.0,,W
2026-01-27 05:00:00,1210635,Miranda do Douro,41.51666667,-6.28333333,14.0,8.0,,6,1.8,3.9,97.0,,SW
2026-01-27 05:00:00,1210637,Mogadouro,41.33333333,-6.73333333,36.0,7.1,0.0,6,0.3,10.0,99.0,,SW
2026-01-27 05:00:00,1210643,Paços Ferreira,41.27365,-8.38012,7.2,8.3,,7,1.5,2.0,97.0,,W
2026-01-27 05:00:00,1210644,Carrazêda de Ansiães,41.23333333,-7.28333333,10.4,6.9,0.0,6,3.7,2.9,92.0,,SW
2026-01-27 05:00:00,1210654,Moncorvo,41.18333333,-7.01666667,18.7,9.3,3.6,6,0.0,5.2,82.0,996.0,SW
2026-01-27 05:00:00,1210655,"Pinhão, Santa Bárbara",41.172775,-7.5489722,10.1,10.7,,1,2.9,2.8,81.0,,N
2026-01-27 05:00:00,1210657,Luzim,41.14585,-8.2490333,9.0,7.4,0.0,7,3.3,2.5,96.0,,W
2026-01-27 05:00:00,1210663,Moimenta da Beira,40.98333333,-7.6,21.2,6.9,0.0,8,1.8,5.9,91.0,,NW
2026-01-27 05:00:00,1210666,"Trancoso, Bandarra",40.78333333,-7.36666667,29.9,6.6,0.0,6,1.2,8.3,99.0,,SW
2026-01-27 05:00:00,1210669,Arouca,40.93333333,-8.25,9.7,9.6,0.0,7,2.2,2.7,90.0,,W
2026-01-27 05:00:00,1210671,"F. Castelo Rodrigo, V.Torpim",40.75,-6.88333333,26.6,8.2,0.0,6,0.3,7.4,97.0,,SW
2026-01-27 05:00:00,1210683,Guarda,40.53333333,-7.26666667,15.8,6.2,10.8,6,0.0,4.4,87.0,,SW
2026-01-27 05:00:00,1210685,Nelas,40.51666667,-7.85,20.5,8.9,0.0,7,8.7,5.7,100.0,,W
2026-01-27 05:00:00,1210686,"Pampilhosa da Serra, Fajão",40.145653,-7.92704,26.6,6.3,,7,0.0,7.4,98.0,,W
2026-01-27 05:00:00,1210687,Covilhã (Aeródromo),40.264309,-7.482302,12.6,10.7,3.4,6,,3.5,78.0,,SW
