obs_datetime,station_id,station_name,lat,lon,intensidadeVentoKM,temperatura,radiacao,idDireccVento,precAcumulada,intensidadeVento,humidade,pressao,direccVento_txt
2026-02-09 00:00:00,11217160,Santa Maria / Praia Formosa (DROTRH),36.9542,-25.0917,10.8,16.3,0.0,7,0.0,3.0,100.0,,W
2026-02-09 00:00:00,11217165,Santa Maria / Maia (DROTRH),36.9412,-25.0176,18.7,16.4,0.3,6,0.0,5.2,100.0,,SW
2026-02-09 00:00:00,11217225,São Miguel / Sete Cidades (DROTRH),37.8679,-25.772,24.8,16.3,0.0,6,0.0,6.9,100.0,,SW
2026-02-09 00:00:00,11217255,São Miguel / Lagoa das Furnas (DROTRH),37.7619,-25.3291,11.2,16.6,0.9,6,0.1,3.1,100.0,,SW
2026-02-09 00:00:00,11217430,Graciosa / Serra das Fontes (DROTRH),39.0672,-28.0038,18.4,16.3,0.0,8,0.0,5.1,100.0,,NW
2026-02-09 00:00:00,11217510,São Jorge / Pico do Areeiro (DROTRH),38.6435,-28.0591,64.1,14.0,0.0,6,0.3,17.8,100.0,,SW
2026-02-09 00:00:00,11217625,Pico / Cabeço do Teicho (DROTRH),38.489,-28.3534,36.4,15.2,0.0,6,0.9,10.1,92.0,,SW
2026-02-09 00:00:00,11217645,Pico / Cabecinho (DROTRH),38.4338,-28.1141,11.5,15.4,0.0,7,0.1,3.2,100.0,,W
2026-02-09 00:00:00,11217730,Faial / Cabeço Verde (DROTRH),38.5843,-28.7576,24.5,15.4,0.0,5,0.0,6.8,100.0,,S
2026-02-09 00:00:00,1200501,Flores (Aeródromo),39.45819,-31.1301,41.8,19.3,0.0,6,0.0,11.6,87.0,1005.4,SW
2026-02-09 00:00:00,1200502,Corvo (Aeródromo),39.67389,-31.11362,40.0,17.6,0.0,7,0.0,11.1,94.0,1004.7,W
2026-02-09 00:00:00,1200504,Pico (Aeródromo),38.55219,-28.44137,22.7,18.8,0.0,6,0.0,6.3,89.0,1010.5,SW
2026-02-09 00:00:00,1200505,Horta / Aeroporto,38.5211,-28.7128,34.9,17.8,,6,0.0,9.7,94.0,1010.7,SW
2026-02-09 00:00:00,1200506,Horta (Obs. Principe Alberto),38.540781,-28.63225,29.2,18.0,0.0,6,0.0,8.1,97.0,1010.5,SW
2026-02-09 00:00:00,1200507,Graciosa (Aeródromo),39.09036,-28.02852,31.0,18.0,0.0,6,0.0,8.6,88.0,1009.0,SW
2026-02-09 00:00:00,1200510,São Jorge,38.66,-28.17,20.2,18.2,0.0,7,0.0,5.6,,1011.1,W
2026-02-09 00:00:00,1200511,Angra do Heroísmo,38.6659435,-27.216567,27.0,16.7,0.0,7,0.0,7.5,99.0,1011.9,W
2026-02-09 00:00:00,1200512,P. Delgada (Aeródromo),37.74414,-25.6953048,31.0,16.6,0.0,7,0.0,8.6,97.0,1014.7,W
2026-02-09 00:00:00,1200515,Santa Maria (Aeródromo),36.967175,-25.1679,36.0,17.0,0.0,6,0.0,10.0,,1017.0,SW
2026-02-09 00:00:00,1200521,Santa Catarina (Aeródromo),32.69688,-16.77612,,17.8,0.0,0,0.0,,70.0,1024.0,
2026-02-09 00:00:00,1200522,Funchal,32.64786,-16.888,3.6,16.8,0.0,1,0.0,1.0,74.0,1024.1,N
2026-02-09 00:00:00,1200524,Porto Santo,33.074029,-16.34868,22.0,17.0,0.0,7,0.0,6.1,89.0,1023.7,W
2026-02-09 00:00:00,1200533,Sagres,37.012835,-8.949089,25.9,15.2,,7,0.0,7.2,100.0,1014.5,W
2026-02-09 00:00:00,1200535,Lisboa (Geofísico),38.71907778,-9.14972222,11.5,14.7,0.0,7,2.1,3.2,100.0,1011.6,W
2026-02-09 00:00:00,1200541,Sines,37.954504,-8.838271,19.4,14.8,0.0,7,0.1,5.4,100.0,1013.1,W
2026-02-09 00:00:00,1200545,"Porto, Pedras Rubras (Aeródromo)",41.233502,-8.681332,11.9,12.2,0.1,6,0.8,3.3,97.0,1008.5,SW
2026-02-09 00:00:00,1200548,Coimbra (Aeródromo),40.15006944,-8.46669167,,,0.0,0,0.3,,,,
2026-02-09 00:00:00,1200551,"Viana Castelo, Chafé",41.648875,-8.804606,7.6,11.8,0.0,7,1.0,2.1,100.0,1007.7,W
2026-02-09 00:00:00,1200554,Faro (Aeródromo),37.016579,-7.971953,30.2,15.3,0.0,7,0.1,8.4,98.0,1013.9,W
2026-02-09 00:00:00,1200558,Évora (C.Coordenação),38.53336389,-7.88338056,16.6,12.4,0.0,6,0.1,4.6,,1012.2,SW
2026-02-09 00:00:00,1200559,Viseu (Aeródromo),40.72645,-7.887472,18.7,8.2,,6,0.1,5.2,99.0,1009.5,SW
2026-02-09 00:00:00,1200560,Viseu (C.Coordenação),40.71492222,-7.89592222,16.6,7.8,,6,0.2,4.6,100.0,,SW
2026-02-09 00:00:00,1200562,Beja,38.02493056,-7.867275,18.4,12.8,0.0,6,0.0,5.1,100.0,1012.6,SW
2026-02-09 00:00:00,1200567,Vila Real,41.27418611,-7.7171,5.8,7.7,0.0,5,0.1,1.6,100.0,1008.4,S
2026-02-09 00:00:00,1200568,Penhas Douradas,40.41136667,-7.55865278,,6.5,,0,,,100.0,,
2026-02-09 00:00:00,1200571,Portalegre,39.29546944,-7.41996944,4.3,8.5,0.0,5,0.8,1.2,100.0,1012.4,S
2026-02-09 00:00:00,1200575,Bragança,41.80388889,-6.74283889,0.7,5.2,0.0,7,0.9,0.2,3.0,1010.9,W
2026-02-09 00:00:00,1200576,Bragança (Aeródromo),41.85763611,-6.70796389,1.4,5.4,,4,0.6,0.4,99.0,1009.7,SE
2026-02-09 00:00:00,1200843,Évora (Aeródromo),38.5296,-7.8916,18.7,12.3,,6,0.1,5.2,100.0,1011.9,SW
2026-02-09 00:00:00,1210513,P. Delgada (Obs. A. Chaves),37.7464,-25.662283,4.0,17.1,0.2,4,0.0,1.1,,,SE
2026-02-09 00:00:00,1210517,Flores / Morro Alto,39.4633,-31.2207,108.7,13.4,,6,0.0,30.2,100.0,999.6,SW
2026-02-09 00:00:00,1210518,São Miguel - Pico Santos De Cima,37.819,-25.7512,73.4,13.3,,7,0.2,20.4,100.0,1013.1,W
2026-02-09 00:00:00,1210520,Ilhas selvagens,30.140595,-15.869153,0.7,16.8,0.0,9,0.0,0.2,90.0,1026.0,N
2026-02-09 00:00:00,1210550,Coruche / Cruz Do Leão,39.07101,-8.4,4.0,12.3,,7,0.0,1.1,100.0,1011.5,W
2026-02-09 00:00:00,1210553,Loulé / Cavalos De Caldeirão,37.3042,-7.9534,28.1,12.2,,6,0.2,7.8,100.0,1013.9,SW
2026-02-09 00:00:00,1210577,"Odemira, S.Teotónio",37.54710833,-8.72899167,22.0,15.1,0.0,7,2.6,6.1,99.0,,W
2026-02-09 00:00:00,1210580,"Lisboa, Relógio",38.7618,-9.1254,16.2,14.6,,7,1.6,4.5,97.0,1012.0,W
2026-02-09 00:00:00,1210604,V.N.Cerveira (Aeródromo),41.96673056,-8.66676111,5.8,11.2,0.0,7,0.6,1.6,93.0,1007.5,W
2026-02-09 00:00:00,1210605,"Monção, Valinha",42.06669,-8.383347,16.6,12.2,0.0,6,0.0,4.6,82.0,,SW
2026-02-09 00:00:00,1210606,"Lamas de Mouro, P.Ribeiro",42.03333333,-8.18333333,,7.7,0.0,0,0.0,,95.0,1008.1,
2026-02-09 00:00:00,1210611,Montalegre,41.82276667,-7.78797778,6.5,5.3,0.0,6,0.3,1.8,99.0,,SW
2026-02-09 00:00:00,1210612,Vinhais,41.8434,-7.0034416,4.0,5.3,,3,0.6,1.1,100.0,,E
2026-02-09 00:00:00,1210615,Ponte de Lima,41.75013889,-8.56671389,2.2,9.9,0.0,4,0.4,0.6,99.0,,SE
2026-02-09 00:00:00,1210616,Chaves (Aeródromo),41.72516667,-7.46540833,1.1,7.6,0.0,4,0.1,0.3,96.0,1008.4,SE
2026-02-09 00:00:00,1210619,Cabril,41.71666667,-8.01666667,2.9,7.4,,6,0.6,0.8,99.0,,SW
2026-02-09 00:00:00,1210622,"Braga, Merelim",41.56678056,-8.45003056,3.2,9.4,1.5,8,0.7,0.9,100.0,1008.7,NW
2026-02-09 00:00:00,1210625,Guimarães,41.4289,-8.3178,,9.0,0.0,0,,,93.0,1008.7,
2026-02-09 00:00:00,1210630,Cabeceiras de Basto,41.53333333,-7.96666667,1.8,8.4,0.0,4,0.3,0.5,100.0,,SE
2026-02-09 00:00:00,1210632,Mirandela,41.51478611,-7.19083889,0.7,8.5,0.0,8,0.2,0.2,93.0,,NW
2026-02-09 00:00:00,1210633,"Macedo Cavaleiros, Bagueixe",41.56666667,-6.78333333,5.4,6.3,,6,0.5,1.5,100.0,,SW
2026-02-09 00:00:00,1210635,Miranda do Douro,41.51666667,-6.28333333,13.3,6.5,,6,1.1,3.7,99.0,,SW
2026-02-09 00:00:00,1210637,Mogadouro,41.33333333,-6.73333333,27.7,6.2,0.0,5,0.5,7.7,99.0,,S
2026-02-09 00:00:00,1210643,Paços Ferreira,41.27365,-8.38012,9.4,10.6,,6,0.6,2.6,100.0,,SW
2026-02-09 00:00:00,1210644,Carrazêda de Ansiães,41.23333333,-7.28333333,5.8,6.7,0.0,6,0.1,1.6,94.0,,SW
2026-02-09 00:00:00,1210654,Moncorvo,41.18333333,-7.01666667,18.7,8.4,0.0,6,0.0,5.2,87.0,1008.7,SW
2026-02-09 00:00:00,1210655,"Pinhão, Santa Bárbara",41.172775,-7.5489722,3.2,9.5,,4,0.0,0.9,97.0,,SE
2026-02-09 00:00:00,1210657,Luzim,41.14585,-8.2490333,10.1,10.2,0.1,6,0.1,2.8,98.0,,SW
2026-02-09 00:00:00,1210663,Moimenta da Beira,40.98333333,-7.6,5.0,7.4,0.0,3,0.0,1.4,96.0,,E
2026-02-09 00:00:00,1210666,"Trancoso, Bandarra",40.78333333,-7.36666667,21.2,6.9,0.0,6,0.5,5.9,99.0,,SW
2026-02-09 00:00:00,1210669,Arouca,40.93333333,-8.25,3.6,12.8,0.0,8,0.0,1.0,90.0,,NW
2026-02-09 00:00:00,1210671,"F. Castelo Rodrigo, V.Torpim",40.75,-6.88333333,26.3,7.2,0.0,5,0.0,7.3,98.0,,S
2026-02-09 00:00:00,1210683,Guarda,40.53333333,-7.26666667,17.3,4.4,0.0,5,0.0,4.8,100.0,,S
2026-02-09 00:00:00,1210685,Nelas,40.51666667,-7.85,15.8,9.0,0.0,6,0.1,4.4,100.0,,SW
2026-02-09 00:00:00,1210686,"Pampilhosa da Serra, Fajão",40.145653,-7.92704,16.9,6.6,,6,0.0,4.7,100.0,,SW
2026-02-09 00:00:00,1210690,Aldeia Souto (Q. Lageosa),40.35425833,-7.38931111,2.9,7.9,0.0,4,0.1,0.8,97.0,,SE
2026-02-09 00:00:00,1210697,Lousã (Aeródromo),40.143922,-8.244066,7.6,13.5,,6,0.0,2.1,90.0,,SW
2026-02-09 00:00:00,1210698,Fundão,40.14063611,-7.55362778,7.9,7.6,0.0,3,0.0,2.2,100.0,,E
2026-02-09 00:00:00,1210704,Dunas de Mira,40.445955,-8.76168055,11.5,14.5,2.4,6,0.0,3.2,97.0,,SW
2026-02-09 00:00:00,1210705,Anadia,40.438852,-8.439996,2.5,11.9,0.0,6,0.2,0.7,95.0,,SW
2026-02-09 00:00:00,1210707,"Coimbra, Bencanta",40.2134694,-8.45515277,2.9,12.1,0.2,3,0.2,0.8,100.0,,E
2026-02-09 00:00:00,1210716,Ansião,39.9,-8.4,14.4,8.8,0.3,4,,4.0,99.0,,SE
2026-02-09 00:00:00,1210726,Alcobaça,39.51666667,-8.96666667,1.1,13.1,0.0,6,3.4,0.3,94.0,,SW
2026-02-09 00:00:00,1210734,"Santarém, Fonte Boa",39.201216,-8.736656,3.2,11.6,0.0,1,1.1,0.9,98.0,1011.5,N
2026-02-09 00:00:00,1210735,Chamusca / Chouto,39.27,-8.3508,0.0,11.4,,0,0.4,0.0,100.0,1011.5,
2026-02-09 00:00:00,1210739,"Torres Vedras, Dois Portos",39.04389444,-9.179,19.1,14.7,0.0,7,0.7,5.3,99.0,,W
2026-02-09 00:00:00,1210744,Coruche,38.94096667,-8.51073611,11.2,14.1,2.1,7,2.0,3.1,,,W
2026-02-09 00:00:00,1210750,Cabo da Roca,38.78171,-9.4975361,28.8,14.2,0.0,7,0.3,8.0,100.0,,W
2026-02-09 00:00:00,1210752,Sintra/Tapada do Mouco,38.781669,-9.400398,14.8,12.5,,8,2.1,4.1,100.0,,NW
2026-02-09 00:00:00,1210762,"Lisboa, Tapada da Ajuda",38.70956111,-9.182825,6.1,15.0,0.0,7,1.9,1.7,100.0,,W
2026-02-09 00:00:00,1210765,Cabo Raso,38.70900833,-9.48538333,20.5,14.7,,7,0.9,5.7,100.0,,W
2026-02-09 00:00:00,1210766,"Barreiro, Lavradio",38.67448611,-9.04766111,14.0,15.2,0.0,7,1.6,3.9,98.0,,W
2026-02-09 00:00:00,1210767,Pegões,38.65079,-8.63503,12.2,14.5,0.3,7,1.4,3.4,100.0,,W
2026-02-09 00:00:00,1210770,Setúbal,38.54846008,-8.89077058,13.3,15.6,31.3,7,1.2,3.7,92.0,,W
2026-02-09 00:00:00,1210776,"Alcácer do Sal, Barrosinha",38.36666667,-8.48333333,19.1,15.0,0.0,7,0.2,5.3,99.0,,W
2026-02-09 00:00:00,1210783,Alvalade,37.946806,-8.394504,14.8,15.5,0.0,7,0.3,4.1,98.0,,W
2026-02-09 00:00:00,1210785,Ourique / Santana Da Serra,37.5025,-8.3019,,14.8,0.0,0,,,97.0,1013.4,
2026-02-09 00:00:00,1210789,Aljezur,37.31675278,-8.80001667,11.9,16.2,13.1,7,2.8,3.3,98.0,,W
2026-02-09 00:00:00,1210790,Fóia,37.3143,-8.595733,49.0,11.4,0.0,8,4.6,13.6,,,NW
2026-02-09 00:00:00,1210800,"Sabugal, Martim Rei",40.33918056,-7.03693333,17.6,6.0,0.0,5,0.1,4.9,99.0,,S
2026-02-09 00:00:00,1210806,"Proença-a-Nova, P.Moitas",39.73333333,-7.86666667,1.8,8.6,6.1,7,0.4,0.5,100.0,,W
2026-02-09 00:00:00,1210824,"Avis, Benavila",39.1,-7.86666667,8.3,11.9,0.0,6,0.1,2.3,99.0,,SW
2026-02-09 00:00:00,1210826,Mora,38.94068,-8.16406,12.6,12.9,0.0,6,0.8,3.5,100.0,,SW
2026-02-09 00:00:00,1210835,Elvas,38.8908,-7.13976111,23.4,10.8,0.0,6,1.2,6.5,100.0,,SW
2026-02-09 00:00:00,1210837,Estremoz,38.86666667,-7.51666667,16.9,11.3,0.0,6,0.0,4.7,100.0,,SW
2026-02-09 00:00:00,1210840,"Reguengos, S. P. do Corval",38.484866,-7.4729166,15.8,10.8,0.0,5,0.8,4.4,100.0,,S
2026-02-09 00:00:00,1210846,Montemor-O-Novo,38.6451,-8.1991,8.6,12.2,,6,1.1,2.4,100.0,1012.8,SW
2026-02-09 00:00:00,1210847,Viana do Alentejo,38.3319194,-8.04553888,10.8,12.5,0.3,6,,3.0,,,SW
2026-02-09 00:00:00,1210848,"Portel, Oriola",38.31666667,-7.86666667,11.5,12.8,,6,0.4,3.2,97.0,,SW
2026-02-09 00:00:00,1210851,Amareleja,38.2007,-7.2261,10.8,,1.4,5,0.2,3.0,,1012.0,S
2026-02-09 00:00:00,1210863,"Mértola, Vale Formoso",37.75,-7.55,8.6,12.8,0.0,6,0.1,2.4,98.0,,SW
2026-02-09 00:00:00,1210864,"Castro Verde, N.Corvo",37.57655833,-7.97211389,9.7,14.2,0.0,7,0.2,2.7,99.0,,W
2026-02-09 00:00:00,1210865,"Alcoutim, Mart.Longo",37.43333333,-7.76666667,8.6,13.9,,6,0.0,2.4,97.0,1013.2,SW
2026-02-09 00:00:00,1210866,Vila Real de S.António,37.1871055,-7.416325,,14.9,,0,0.5,,97.0,,
2026-02-09 00:00:00,1210874,Albufeira,37.0935,-8.262,23.0,13.9,,6,0.7,6.4,100.0,,SW
2026-02-09 00:00:00,1210878,Portimão (Aeródromo),37.149167,-8.581389,20.9,16.1,0.0,7,0.2,5.8,96.0,1014.0,W
2026-02-09 00:00:00,1210881,"Olhão, EPPO",37.033,-7.821,16.6,15.3,0.0,6,0.1,4.6,100.0,1014.3,SW
2026-02-09 00:00:00,1210883,Tavira,37.12166968,-7.62050375,18.7,14.9,,7,0.3,5.2,98.0,1013.7,W
2026-02-09 00:00:00,1210907,Faja / Ilha das Flores,39.45328,-31.2647,,18.0,,0,,,96.0,1006.6,
2026-02-09 00:00:00,1210932,"S. Miguel, Nordeste",37.83256,-25.150108,15.1,20.3,,7,0.0,4.2,72.0,,W
2026-02-09 00:00:00,1210956,"Madeira, Porto Moniz",32.867477,-17.171373,,18.6,0.0,0,0.0,,75.0,,
2026-02-09 00:00:00,1210960,"Madeira, S. Jorge, Santana",32.83446944,-16.906219,17.3,16.0,189.3,8,0.0,4.8,96.0,1023.7,NW
2026-02-09 00:00:00,1210965,"Madeira, Santana",32.808238,-16.8864166,,13.6,42.5,0,0.0,,83.0,,
2026-02-09 00:00:00,1210967,"Madeira, São Vicente",32.8001833,-17.044722,,14.4,1.2,0,0.0,,83.0,,
2026-02-09 00:00:00,1210972,"Madeira, Pico Alto",32.693491,-16.903955,4.7,13.1,0.0,7,,1.3,75.0,,W
2026-02-09 00:00:00,1210973,"Madeira, Areeiro",32.71666667,-16.91666667,6.1,10.3,5.9,1,0.0,1.7,82.0,,N
2026-02-09 00:00:00,1210974,"Madeira, Pico do Areeiro",32.735107,-16.928271,,9.6,,0,0.0,,82.0,,
2026-02-09 00:00:00,1210975,"Madeira, Santo da Serra",32.7258972,-16.816822,,11.7,0.0,0,0.0,,95.0,,
2026-02-09 00:00:00,1210976,"Madeira, Monte",32.675833,-16.906944,3.2,13.0,0.0,1,0.0,0.9,91.0,,N
2026-02-09 00:00:00,1210977,"Madeira, Cancela",32.64500556,-16.86575,2.5,15.7,0.0,2,0.0,0.7,84.0,,NE
2026-02-09 00:00:00,1210978,"Madeira, S. Lourenço",32.747,-16.706,12.6,16.9,0.0,6,0.0,3.5,84.0,,SW
2026-02-09 00:00:00,1210984,"Madeira, Quinta Grande",32.6629722,-17.01503611,,13.1,0.0,0,0.0,,78.0,,
2026-02-09 00:00:00,1210986,Ponta do Sol/Lugar de Baixo,32.681502,-17.104167,5.4,17.4,0.0,3,0.0,1.5,78.0,,E
2026-02-09 00:00:00,1210987,Prazeres (Calheta),32.757205,-17.201551,17.3,13.0,4.0,8,0.0,4.8,100.0,,NW
2026-02-09 00:00:00,1210990,"Madeira, Calheta",32.81384167,-17.26321389,13.7,15.3,0.0,6,0.0,3.8,93.0,1022.8,SW
2026-02-09 00:00:00,1240546,"Porto, Serra do Pilar",41.1385194,-8.6025,,12.3,,0,0.8,,100.0,1008.1,
2026-02-09 00:00:00,1240566,Vila Real (Cidade),41.30898056,-7.740522,3.2,7.3,,3,0.1,0.9,100.0,,E
2026-02-09 00:00:00,1240610,Viana do Castelo,41.695,-8.82916,,11.0,,0,0.9,,98.0,,
2026-02-09 00:00:00,1240675,Viseu (Cidade),40.662738,-7.9039694,,,,0,0.2,,38.0,,
2026-02-09 00:00:00,1240903,"Porto, Massarelos",41.15257,-8.62598,,12.3,,0,,,100.0,,
2026-02-09 00:00:00,1240971,"Madeira, Funchal, Lido",32.63655,-16.935592,0.0,17.7,0.0,0,0.0,0.0,74.0,,
2026-02-09 00:00:00,1259203,Seia/Aeródromo,40.45517056,-7.68614846,17.3,11.7,,6,0.0,4.8,93.0,1010.1,SW
2026-02-09 00:00:00,1259204,Seia/Senhora do Espinheiro,40.412775,-7.673406,24.5,8.5,,6,0.0,6.8,100.0,1010.1,SW
2026-02-09 00:00:00,5210758,Alcochete / Campo Tiro,38.7627,-8.7825,10.1,14.6,,6,1.4,2.8,100.0,1011.5,SW
2026-02-09 00:00:00,6210817,Ponte de Sôr / Aeródromo,39.21536,-8.05417,5.0,11.6,,6,,1.4,97.0,1011.3,SW
2026-02-09 00:00:00,6210872,Loulé (CML),37.129946,-8.06523593,10.8,,,7,0.2,3.0,,1014.3,W
2026-02-09 00:00:00,6210879,Portimão (Praia da Rocha),37.11670461,-8.52946314,19.4,15.2,,7,0.8,5.4,100.0,,W
2026-02-09 00:00:00,6211211,Monção - Guimil (CIM),42.042944,-8.421872,16.2,,1.1,6,,4.5,,1005.9,SW
2026-02-09 00:00:00,6211213,Paredes De Coura - Vascões (CIM),41.913444,-8.492111,3.6,6.8,1.0,2,,1.0,100.0,1008.1,NE
2026-02-09 00:00:00,6211216,Arcos De Valdevez - Heliporto (CIM),41.831,-8.44375,3.2,8.6,,1,0.8,0.9,97.0,1008.7,N
2026-02-09 00:00:00,6211217,Viana Do Castelo - Fonte Louçã (CIM),41.745722,-8.815306,29.2,,4.1,7,2.7,8.1,,1010.6,W
2026-02-09 00:00:00,6211218,Ponte De Lima - Anais (CIM),41.698083,-8.522444,6.5,9.1,1.4,3,,1.8,94.0,1008.1,E
2026-02-09 00:00:00,6212121,Terras de Bouro/Barral (CIM),41.70225278,-8.31808611,6.1,8.3,,4,0.7,1.7,95.0,1007.0,SE
2026-02-09 00:00:00,6212122,Amares Caldelas (CIM),41.66796389,-8.37977778,3.2,9.2,,7,1.1,0.9,95.0,1008.9,W
2026-02-09 00:00:00,6212123,Vila Verde (CIM),41.64686111,-8.43398056,2.2,9.3,,7,,0.6,91.0,1008.5,W
2026-02-09 00:00:00,6212124,Braga (CIM),41.53568333,-8.42514722,10.1,9.9,,6,1.2,2.8,99.0,1009.2,SW
2026-02-09 00:00:00,6212126,Esposende (CIM),41.52645556,-8.77984444,18.0,12.8,,7,1.6,5.0,98.0,1008.7,W
2026-02-09 00:00:00,6213012,Carregal do Sal (CIM),40.46718056,-7.92626389,14.0,9.3,,6,,3.9,99.0,,SW
2026-02-09 00:00:00,6213013,Castro Daire / Mézio (CIM),40.98086111,-7.88318889,21.2,6.4,,6,,5.9,100.0,,SW
2026-02-09 00:00:00,6213014,Mangualde / Chãs de Tavares  (CIM),40.61096111,-7.60838889,29.2,8.3,,6,0.2,8.1,100.0,,SW
2026-02-09 00:00:00,6213016,Oliveira de Frades (CIM),40.716925,-8.20133889,23.0,9.5,,5,,6.4,100.0,,S
2026-02-09 00:00:00,6213017,Penalva do Castelo (CIM),40.65706389,-7.69655278,12.6,8.4,,6,0.2,3.5,100.0,,SW
2026-02-09 00:00:00,6213020,Satão (CIM),40.76072778,-7.72019722,7.6,7.1,,6,0.9,2.1,100.0,,SW
2026-02-09 00:00:00,6213022,Vila Nova de Paiva (CIM),40.85595,-7.72716389,8.6,6.7,,6,0.5,2.4,,,SW
2026-02-09 00:00:00,6213611,Arganil / Aeródromo (CIM),40.274578,-7.974399,5.4,11.5,,7,0.0,1.5,91.0,,W
2026-02-09 00:00:00,6213612,Cantanhede / Fonte Dom Pedro (CIM),40.341894,-8.577613,11.5,11.7,,5,0.0,3.2,96.0,,S
2026-02-09 00:00:00,6213613,Coimbra / Mata de São Pedro (CIM),40.330787,-8.374887,6.8,9.5,,5,,1.9,100.0,,S
2026-02-09 00:00:00,6213614,Góis / Quinta da Ribeira (CIM),40.171642,-8.103238,13.0,,,6,,3.6,,,SW
2026-02-09 00:00:00,6213615,Mealhada / Quinta do Vale (CIM),40.373343,-8.4388429,9.0,11.2,,5,0.1,2.5,99.0,,S
2026-02-09 00:00:00,6213616,Mortágua / Aeródromo (CIM),40.426239,-8.232142,5.0,10.0,,5,0.3,1.4,100.0,,S
2026-02-09 00:00:00,6213617,Penacova / Hombres (CIM),40.280921,-8.198685,8.6,,,6,0.1,2.4,96.0,,SW
2026-02-09 00:00:00,6213619,Vila Nova de Poiares (CIM),40.211411,-8.241995,4.0,13.0,,6,0.1,1.1,86.0,,SW
2026-02-09 00:00:00,6213620,Oliveira do Hospital (CIM),40.413306,-7.867972,10.4,9.0,,6,0.0,2.9,99.0,,SW
2026-02-09 00:00:00,6214119,Pedrógão Grande (CMPG),39.926573,-8.150912,,8.5,,0,,,100.0,1012.7,
2026-02-09 00:00:00,6215302,"Lisboa, Carnide (CML)",38.7751,-9.1855,,14.8,,0,,,100.0,1011.1,
2026-02-09 00:00:00,6215360,Oeiras / Vila Fria (CMO),38.7239536,-9.2939255,17.6,14.7,0.0,7,1.0,4.9,100.0,1011.6,W
2026-02-09 00:00:00,7240919,"Lisboa, Amoreiras (LFCL)",38.7239,-9.1649,7.9,14.0,,7,1.7,2.2,100.0,1012.4,W
2026-02-09 01:00:00,11217160,Santa Maria / Praia Formosa (DROTRH),36.9542,-25.0917,9.0,16.3,0.0,8,0.0,2.5,100.0,,NW
2026-02-09 01:00:00,11217165,Santa Maria / Maia (DROTRH),36.9412,-25.0176,21.6,16.4,0.0,6,0.0,6.0,100.0,,SW
2026-02-09 01:00:00,11217225,São Miguel / Sete Cidades (DROTRH),37.8679,-25.772,22.3,16.1,0.0,6,0.0,6.2,100.0,,SW
2026-02-09 01:00:00,11217255,São Miguel / Lagoa das Furnas (DROTRH),37.7619,-25.3291,9.4,16.4,0.0,5,0.0,2.6,100.0,,S
2026-02-09 01:00:00,11217430,Graciosa / Serra das Fontes (DROTRH),39.0672,-28.0038,19.4,16.5,0.0,7,0.0,5.4,100.0,,W
2026-02-09 01:00:00,11217510,São Jorge / Pico do Areeiro (DROTRH),38.6435,-28.0591,61.6,14.0,0.0,5,0.4,17.1,100.0,,S
2026-02-09 01:00:00,11217625,Pico / Cabeço do Teicho (DROTRH),38.489,-28.3534,40.0,14.8,0.0,6,2.0,11.1,98.0,,SW
2026-02-09 01:00:00,11217645,Pico / Cabecinho (DROTRH),38.4338,-28.1141,18.0,15.1,0.0,7,0.0,5.0,100.0,,W
2026-02-09 01:00:00,11217730,Faial / Cabeço Verde (DROTRH),38.5843,-28.7576,22.7,15.4,0.0,5,0.0,6.3,100.0,,S
2026-02-09 01:00:00,1200501,Flores (Aeródromo),39.45819,-31.1301,37.1,19.3,0.0,6,0.0,10.3,86.0,1005.4,SW
2026-02-09 01:00:00,1200502,Corvo (Aeródromo),39.67389,-31.11362,39.2,17.6,0.0,7,0.0,10.9,93.0,1004.3,W
2026-02-09 01:00:00,1200504,Pico (Aeródromo),38.55219,-28.44137,25.6,18.8,0.0,6,0.0,7.1,89.0,1010.2,SW
2026-02-09 01:00:00,1200505,Horta / Aeroporto,38.5211,-28.7128,35.3,17.7,,6,0.0,9.8,95.0,1010.6,SW
2026-02-09 01:00:00,1200506,Horta (Obs. Principe Alberto),38.540781,-28.63225,29.5,17.8,0.0,6,0.0,8.2,98.0,1010.2,SW
2026-02-09 01:00:00,1200507,Graciosa (Aeródromo),39.09036,-28.02852,37.1,18.4,0.0,6,0.0,10.3,86.0,1009.1,SW
2026-02-09 01:00:00,1200510,São Jorge,38.66,-28.17,22.3,18.1,0.0,7,0.0,6.2,,1011.1,W
2026-02-09 01:00:00,1200511,Angra do Heroísmo,38.6659435,-27.216567,25.9,16.9,0.1,7,0.0,7.2,98.0,1011.8,W
2026-02-09 01:00:00,1200512,P. Delgada (Aeródromo),37.74414,-25.6953048,38.5,16.6,0.0,7,0.0,10.7,98.0,1014.5,W
2026-02-09 01:00:00,1200515,Santa Maria (Aeródromo),36.967175,-25.1679,34.9,17.1,1.0,7,0.0,9.7,,1016.9,W
2026-02-09 01:00:00,1200521,Santa Catarina (Aeródromo),32.69688,-16.77612,,17.4,0.0,0,0.0,,72.0,1024.1,
2026-02-09 01:00:00,1200522,Funchal,32.64786,-16.888,2.9,16.9,0.0,2,0.0,0.8,73.0,1024.2,NE
2026-02-09 01:00:00,1200524,Porto Santo,33.074029,-16.34868,25.6,17.0,0.0,7,0.0,7.1,90.0,1023.7,W
2026-02-09 01:00:00,1200533,Sagres,37.012835,-8.949089,28.4,15.2,,7,0.0,7.9,100.0,1014.5,W
2026-02-09 01:00:00,1200535,Lisboa (Geofísico),38.71907778,-9.14972222,12.6,14.8,0.0,6,0.7,3.5,100.0,1011.6,SW
2026-02-09 01:00:00,1200541,Sines,37.954504,-8.838271,20.9,14.8,0.0,7,0.0,5.8,100.0,1013.1,W
2026-02-09 01:00:00,1200545,"Porto, Pedras Rubras (Aeródromo)",41.233502,-8.681332,8.6,13.3,0.5,6,0.0,2.4,98.0,1009.1,SW
2026-02-09 01:00:00,1200548,Coimbra (Aeródromo),40.15006944,-8.46669167,,,0.0,0,0.1,,,,
2026-02-09 01:00:00,1200551,"Viana Castelo, Chafé",41.648875,-8.804606,5.8,13.1,0.0,6,0.2,1.6,100.0,1008.0,SW
2026-02-09 01:00:00,1200554,Faro (Aeródromo),37.016579,-7.971953,25.9,15.4,0.0,7,0.4,7.2,98.0,1013.8,W
2026-02-09 01:00:00,1200558,Évora (C.Coordenação),38.53336389,-7.88338056,9.7,12.6,0.0,7,1.2,2.7,,1012.2,W
2026-02-09 01:00:00,1200559,Viseu (Aeródromo),40.72645,-7.887472,10.4,9.0,,6,0.0,2.9,99.0,1009.6,SW
2026-02-09 01:00:00,1200560,Viseu (C.Coordenação),40.71492222,-7.89592222,11.5,8.8,,6,0.0,3.2,100.0,,SW
2026-02-09 01:00:00,1200562,Beja,38.02493056,-7.867275,21.2,13.6,0.0,7,0.1,5.9,100.0,1012.4,W
2026-02-09 01:00:00,1200567,Vila Real,41.27418611,-7.7171,8.3,8.8,0.0,5,0.1,2.3,100.0,1008.5,S
2026-02-09 01:00:00,1200568,Penhas Douradas,40.41136667,-7.55865278,,5.7,,0,,,100.0,,
2026-02-09 01:00:00,1200571,Portalegre,39.29546944,-7.41996944,10.1,9.2,0.0,7,1.0,2.8,100.0,1012.0,W
2026-02-09 01:00:00,1200575,Bragança,41.80388889,-6.74283889,5.4,5.3,0.0,7,0.1,1.5,3.0,1010.4,W
2026-02-09 01:00:00,1200576,Bragança (Aeródromo),41.85763611,-6.70796389,2.2,5.5,,5,0.1,0.6,99.0,1009.3,S
2026-02-09 01:00:00,1200843,Évora (Aeródromo),38.5296,-7.8916,10.8,12.5,,7,0.9,3.0,100.0,1011.9,W
2026-02-09 01:00:00,1210513,P. Delgada (Obs. A. Chaves),37.7464,-25.662283,13.3,17.1,0.0,6,0.0,3.7,,,SW
2026-02-09 01:00:00,1210517,Flores / Morro Alto,39.4633,-31.2207,96.8,13.3,,6,0.0,26.9,100.0,999.6,SW
2026-02-09 01:00:00,1210518,São Miguel - Pico Santos De Cima,37.819,-25.7512,74.9,13.2,,7,0.2,20.8,100.0,1013.0,W
2026-02-09 01:00:00,1210520,Ilhas selvagens,30.140595,-15.869153,19.1,16.7,0.0,8,0.0,5.3,91.0,1025.8,NW
2026-02-09 01:00:00,1210550,Coruche / Cruz Do Leão,39.07101,-8.4,5.4,12.9,,7,0.0,1.5,100.0,1011.5,W
2026-02-09 01:00:00,1210553,Loulé / Cavalos De Caldeirão,37.3042,-7.9534,17.6,12.6,,7,1.1,4.9,100.0,1014.0,W
2026-02-09 01:00:00,1210577,"Odemira, S.Teotónio",37.54710833,-8.72899167,19.1,15.0,0.0,7,0.0,5.3,99.0,,W
2026-02-09 01:00:00,1210580,"Lisboa, Relógio",38.7618,-9.1254,10.1,14.6,,6,0.5,2.8,97.0,1012.0,SW
2026-02-09 01:00:00,1210604,V.N.Cerveira (Aeródromo),41.96673056,-8.66676111,11.9,11.5,0.0,7,0.6,3.3,98.0,1007.8,W
2026-02-09 01:00:00,1210605,"Monção, Valinha",42.06669,-8.383347,6.1,11.6,0.0,7,0.5,1.7,91.0,,W
2026-02-09 01:00:00,1210606,"Lamas de Mouro, P.Ribeiro",42.03333333,-8.18333333,,8.6,0.0,0,0.1,,97.0,1008.2,
2026-02-09 01:00:00,1210611,Montalegre,41.82276667,-7.78797778,11.5,6.2,0.0,7,0.2,3.2,99.0,,W
2026-02-09 01:00:00,1210612,Vinhais,41.8434,-7.0034416,4.0,5.4,,8,0.4,1.1,100.0,,NW
2026-02-09 01:00:00,1210615,Ponte de Lima,41.75013889,-8.56671389,1.1,10.1,0.0,0,0.3,0.3,99.0,,
2026-02-09 01:00:00,1210616,Chaves (Aeródromo),41.72516667,-7.46540833,4.7,7.6,0.0,3,0.1,1.3,97.0,1008.7,E
2026-02-09 01:00:00,1210619,Cabril,41.71666667,-8.01666667,8.6,7.7,,8,0.9,2.4,99.0,,NW
2026-02-09 01:00:00,1210622,"Braga, Merelim",41.56678056,-8.45003056,3.6,9.6,2.3,4,0.7,1.0,100.0,1009.0,SE
2026-02-09 01:00:00,1210630,Cabeceiras de Basto,41.53333333,-7.96666667,2.5,8.4,0.0,3,0.5,0.7,100.0,,E
2026-02-09 01:00:00,1210632,Mirandela,41.51478611,-7.19083889,0.4,8.5,0.0,9,0.1,0.1,95.0,,N
2026-02-09 01:00:00,1210633,"Macedo Cavaleiros, Bagueixe",41.56666667,-6.78333333,6.1,6.5,,7,0.4,1.7,100.0,,W
2026-02-09 01:00:00,1210635,Miranda do Douro,41.51666667,-6.28333333,15.5,6.6,,6,0.7,4.3,99.0,,SW
2026-02-09 01:00:00,1210637,Mogadouro,41.33333333,-6.73333333,22.0,6.5,0.0,6,0.4,6.1,99.0,,SW
2026-02-09 01:00:00,1210643,Paços Ferreira,41.27365,-8.38012,13.0,11.0,,7,1.7,3.6,100.0,,W
2026-02-09 01:00:00,1210644,Carrazêda de Ansiães,41.23333333,-7.28333333,2.5,7.1,0.0,5,0.4,0.7,94.0,,S
2026-02-09 01:00:00,1210654,Moncorvo,41.18333333,-7.01666667,11.9,9.1,0.0,7,0.0,3.3,87.0,1009.0,W
2026-02-09 01:00:00,1210655,"Pinhão, Santa Bárbara",41.172775,-7.5489722,3.2,9.5,,5,0.0,0.9,97.0,,S
2026-02-09 01:00:00,1210657,Luzim,41.14585,-8.2490333,7.6,10.6,0.0,5,0.8,2.1,97.0,,S
2026-02-09 01:00:00,1210663,Moimenta da Beira,40.98333333,-7.6,10.8,8.2,0.0,5,0.0,3.0,95.0,,S
2026-02-09 01:00:00,1210666,"Trancoso, Bandarra",40.78333333,-7.36666667,34.6,7.8,0.0,6,0.4,9.6,99.0,,SW
2026-02-09 01:00:00,1210669,Arouca,40.93333333,-8.25,5.8,12.5,0.0,0,0.0,1.6,95.0,,
2026-02-09 01:00:00,1210671,"F. Castelo Rodrigo, V.Torpim",40.75,-6.88333333,14.8,7.4,0.0,6,0.0,4.1,99.0,,SW
2026-02-09 01:00:00,1210683,Guarda,40.53333333,-7.26666667,7.2,4.5,0.0,5,0.1,2.0,100.0,,S
2026-02-09 01:00:00,1210685,Nelas,40.51666667,-7.85,11.2,10.1,0.0,6,0.2,3.1,100.0,,SW
2026-02-09 01:00:00,1210686,"Pampilhosa da Serra, Fajão",40.145653,-7.92704,18.7,7.4,,7,0.1,5.2,100.0,,W
2026-02-09 01:00:00,1210690,Aldeia Souto (Q. Lageosa),40.35425833,-7.38931111,4.0,7.9,0.0,7,0.1,1.1,97.0,,W
2026-02-09 01:00:00,1210697,Lousã (Aeródromo),40.143922,-8.244066,7.6,13.4,,6,0.0,2.1,92.0,,SW
2026-02-09 01:00:00,1210698,Fundão,40.14063611,-7.55362778,7.6,7.8,0.0,9,0.1,2.1,99.0,,N
2026-02-09 01:00:00,1210704,Dunas de Mira,40.445955,-8.76168055,11.2,14.7,3.5,6,0.0,3.1,96.0,,SW
2026-02-09 01:00:00,1210705,Anadia,40.438852,-8.439996,2.5,12.2,0.0,6,0.1,0.7,96.0,,SW
2026-02-09 01:00:00,1210707,"Coimbra, Bencanta",40.2134694,-8.45515277,1.1,12.3,0.6,8,0.1,0.3,100.0,,NW
2026-02-09 01:00:00,1210716,Ansião,39.9,-8.4,3.6,8.8,0.0,5,,1.0,99.0,,S
2026-02-09 01:00:00,1210726,Alcobaça,39.51666667,-8.96666667,10.8,14.4,0.0,7,0.6,3.0,95.0,,W
2026-02-09 01:00:00,1210734,"Santarém, Fonte Boa",39.201216,-8.736656,3.6,11.5,0.0,5,0.0,1.0,98.0,1011.5,S
2026-02-09 01:00:00,1210735,Chamusca / Chouto,39.27,-8.3508,2.2,11.5,,4,0.0,0.6,100.0,1011.4,SE
2026-02-09 01:00:00,1210739,"Torres Vedras, Dois Portos",39.04389444,-9.179,20.9,15.0,0.0,7,1.6,5.8,99.0,,W
2026-02-09 01:00:00,1210744,Coruche,38.94096667,-8.51073611,13.3,14.5,0.5,7,0.0,3.7,,,W
2026-02-09 01:00:00,1210750,Cabo da Roca,38.78171,-9.4975361,31.7,14.3,0.0,7,0.1,8.8,100.0,,W
2026-02-09 01:00:00,1210752,Sintra/Tapada do Mouco,38.781669,-9.400398,19.8,12.5,,8,1.8,5.5,100.0,,NW
2026-02-09 01:00:00,1210762,"Lisboa, Tapada da Ajuda",38.70956111,-9.182825,6.5,15.0,0.0,6,1.0,1.8,100.0,,SW
2026-02-09 01:00:00,1210765,Cabo Raso,38.70900833,-9.48538333,20.5,14.7,,7,1.1,5.7,100.0,,W
2026-02-09 01:00:00,1210766,"Barreiro, Lavradio",38.67448611,-9.04766111,14.8,15.3,0.0,7,0.5,4.1,99.0,,W
2026-02-09 01:00:00,1210767,Pegões,38.65079,-8.63503,9.7,14.5,0.0,7,0.8,2.7,100.0,,W
2026-02-09 01:00:00,1210770,Setúbal,38.54846008,-8.89077058,14.8,15.6,123.4,7,0.5,4.1,92.0,,W
2026-02-09 01:00:00,1210776,"Alcácer do Sal, Barrosinha",38.36666667,-8.48333333,11.2,15.1,0.0,7,2.1,3.1,99.0,,W
2026-02-09 01:00:00,1210783,Alvalade,37.946806,-8.394504,14.0,15.6,0.0,7,0.3,3.9,98.0,,W
2026-02-09 01:00:00,1210785,Ourique / Santana Da Serra,37.5025,-8.3019,,14.9,0.0,0,,,96.0,1013.4,
2026-02-09 01:00:00,1210789,Aljezur,37.31675278,-8.80001667,8.6,16.1,9.4,7,0.3,2.4,99.0,,W
2026-02-09 01:00:00,1210790,Fóia,37.3143,-8.595733,47.5,11.4,0.0,8,2.6,13.2,,,NW
2026-02-09 01:00:00,1210800,"Sabugal, Martim Rei",40.33918056,-7.03693333,16.6,6.5,0.0,5,0.1,4.6,99.0,,S
2026-02-09 01:00:00,1210806,"Proença-a-Nova, P.Moitas",39.73333333,-7.86666667,0.0,8.5,6.0,0,0.1,0.0,100.0,,
2026-02-09 01:00:00,1210824,"Avis, Benavila",39.1,-7.86666667,6.8,12.5,0.0,6,0.3,1.9,99.0,,SW
2026-02-09 01:00:00,1210826,Mora,38.94068,-8.16406,12.6,13.5,0.0,6,0.2,3.5,100.0,,SW
2026-02-09 01:00:00,1210835,Elvas,38.8908,-7.13976111,15.1,11.2,0.0,6,0.3,4.2,100.0,,SW
2026-02-09 01:00:00,1210837,Estremoz,38.86666667,-7.51666667,14.0,11.8,0.0,6,0.0,3.9,100.0,,SW
2026-02-09 01:00:00,1210840,"Reguengos, S. P. do Corval",38.484866,-7.4729166,9.0,11.3,0.4,6,1.1,2.5,100.0,,SW
2026-02-09 01:00:00,1210846,Montemor-O-Novo,38.6451,-8.1991,12.2,13.1,,7,1.3,3.4,100.0,1012.8,W
2026-02-09 01:00:00,1210847,Viana do Alentejo,38.3319194,-8.04553888,11.9,13.3,0.6,7,,3.3,,,W
2026-02-09 01:00:00,1210848,"Portel, Oriola",38.31666667,-7.86666667,10.1,13.4,,7,0.3,2.8,98.0,,W
2026-02-09 01:00:00,1210851,Amareleja,38.2007,-7.2261,6.1,,0.0,5,1.0,1.7,,1011.8,S
2026-02-09 01:00:00,1210863,"Mértola, Vale Formoso",37.75,-7.55,11.9,13.6,0.1,6,0.1,3.3,98.0,,SW
2026-02-09 01:00:00,1210864,"Castro Verde, N.Corvo",37.57655833,-7.97211389,13.3,14.6,0.0,7,0.1,3.7,99.0,,W
2026-02-09 01:00:00,1210865,"Alcoutim, Mart.Longo",37.43333333,-7.76666667,10.4,14.2,,6,0.1,2.9,97.0,1013.3,SW
2026-02-09 01:00:00,1210866,Vila Real de S.António,37.1871055,-7.416325,,15.0,,0,0.0,,98.0,,
2026-02-09 01:00:00,1210874,Albufeira,37.0935,-8.262,19.8,14.0,,6,1.0,5.5,100.0,,SW
2026-02-09 01:00:00,1210878,Portimão (Aeródromo),37.149167,-8.581389,23.8,16.1,0.0,7,0.1,6.6,96.0,1014.0,W
2026-02-09 01:00:00,1210881,"Olhão, EPPO",37.033,-7.821,14.0,15.5,0.0,6,0.2,3.9,100.0,1014.2,SW
2026-02-09 01:00:00,1210883,Tavira,37.12166968,-7.62050375,15.1,15.1,,7,0.0,4.2,98.0,1013.8,W
2026-02-09 01:00:00,1210907,Faja / Ilha das Flores,39.45328,-31.2647,,18.0,,0,,,95.0,1006.5,
2026-02-09 01:00:00,1210932,"S. Miguel, Nordeste",37.83256,-25.150108,9.4,20.3,,7,0.0,2.6,72.0,,W
2026-02-09 01:00:00,1210956,"Madeira, Porto Moniz",32.867477,-17.171373,,18.7,0.1,0,0.0,,76.0,,
2026-02-09 01:00:00,1210960,"Madeira, S. Jorge, Santana",32.83446944,-16.906219,11.2,16.2,159.7,7,0.0,3.1,94.0,1024.0,W
2026-02-09 01:00:00,1210965,"Madeira, Santana",32.808238,-16.8864166,,13.9,41.7,0,0.0,,81.0,,
2026-02-09 01:00:00,1210967,"Madeira, São Vicente",32.8001833,-17.044722,,14.9,1.0,0,0.0,,80.0,,
2026-02-09 01:00:00,1210972,"Madeira, Pico Alto",32.693491,-16.903955,4.3,13.1,0.0,6,,1.2,75.0,,SW
2026-02-09 01:00:00,1210973,"Madeira, Areeiro",32.71666667,-16.91666667,3.2,11.0,7.5,4,0.0,0.9,79.0,,SE
2026-02-09 01:00:00,1210974,"Madeira, Pico do Areeiro",32.735107,-16.928271,,9.5,,0,0.0,,84.0,,
2026-02-09 01:00:00,1210975,"Madeira, Santo da Serra",32.7258972,-16.816822,,11.7,0.0,0,0.0,,93.0,,
2026-02-09 01:00:00,1210976,"Madeira, Monte",32.675833,-16.906944,5.0,12.9,0.1,1,0.0,1.4,90.0,,N
2026-02-09 01:00:00,1210977,"Madeira, Cancela",32.64500556,-16.86575,1.1,15.1,0.0,2,0.0,0.3,88.0,,NE
2026-02-09 01:00:00,1210978,"Madeira, S. Lourenço",32.747,-16.706,5.0,16.6,0.0,6,0.0,1.4,84.0,,SW
2026-02-09 01:00:00,1210984,"Madeira, Quinta Grande",32.6629722,-17.01503611,,13.2,0.0,0,0.0,,79.0,,
2026-02-09 01:00:00,1210986,Ponta do Sol/Lugar de Baixo,32.681502,-17.104167,9.0,17.6,0.0,4,0.0,2.5,79.0,,SE
2026-02-09 01:00:00,1210987,Prazeres (Calheta),32.757205,-17.201551,18.4,13.0,0.0,8,0.0,5.1,100.0,,NW
2026-02-09 01:00:00,1210990,"Madeira, Calheta",32.81384167,-17.26321389,10.1,15.3,0.0,7,0.0,2.8,95.0,1023.0,W
2026-02-09 01:00:00,1240546,"Porto, Serra do Pilar",41.1385194,-8.6025,,13.2,,0,0.2,,100.0,1008.5,
2026-02-09 01:00:00,1240566,Vila Real (Cidade),41.30898056,-7.740522,4.0,8.3,,6,0.1,1.1,100.0,,SW
2026-02-09 01:00:00,1240610,Viana do Castelo,41.695,-8.82916,,11.1,,0,0.3,,98.0,,
2026-02-09 01:00:00,1240675,Viseu (Cidade),40.662738,-7.9039694,,-9.9,,0,0.0,,39.0,,
2026-02-09 01:00:00,1240903,"Porto, Massarelos",41.15257,-8.62598,,13.2,,0,,,100.0,,
2026-02-09 01:00:00,1240971,"Madeira, Funchal, Lido",32.63655,-16.935592,2.2,17.6,0.0,2,0.0,0.6,77.0,,NE
2026-02-09 01:00:00,1259203,Seia/Aeródromo,40.45517056,-7.68614846,15.8,11.9,,6,0.0,4.4,91.0,1010.4,SW
2026-02-09 01:00:00,1259204,Seia/Senhora do Espinheiro,40.412775,-7.673406,19.1,8.1,,6,0.0,5.3,100.0,1010.9,SW
2026-02-09 01:00:00,5210758,Alcochete / Campo Tiro,38.7627,-8.7825,9.7,14.6,,6,0.2,2.7,100.0,1011.5,SW
2026-02-09 01:00:00,6210817,Ponte de Sôr / Aeródromo,39.21536,-8.05417,6.5,11.8,,6,,1.8,98.0,1011.1,SW
2026-02-09 01:00:00,6210872,Loulé (CML),37.129946,-8.06523593,9.0,,,7,1.0,2.5,,1014.1,W
2026-02-09 01:00:00,6210879,Portimão (Praia da Rocha),37.11670461,-8.52946314,20.9,15.7,,7,0.4,5.8,100.0,,W
2026-02-09 01:00:00,6211211,Monção - Guimil (CIM),42.042944,-8.421872,15.8,,0.2,6,,4.4,,1006.6,SW
2026-02-09 01:00:00,6211213,Paredes De Coura - Vascões (CIM),41.913444,-8.492111,3.2,7.0,1.6,2,,0.9,100.0,1008.1,NE
2026-02-09 01:00:00,6211216,Arcos De Valdevez - Heliporto (CIM),41.831,-8.44375,1.4,8.8,,4,0.8,0.4,98.0,1008.7,SE
2026-02-09 01:00:00,6211217,Viana Do Castelo - Fonte Louçã (CIM),41.745722,-8.815306,30.2,,1.1,7,0.5,8.4,,1013.4,W
2026-02-09 01:00:00,6211218,Ponte De Lima - Anais (CIM),41.698083,-8.522444,4.7,9.5,1.1,3,,1.3,95.0,1008.0,E
2026-02-09 01:00:00,6212121,Terras de Bouro/Barral (CIM),41.70225278,-8.31808611,3.6,8.7,,4,0.7,1.0,95.0,1007.0,SE
2026-02-09 01:00:00,6212122,Amares Caldelas (CIM),41.66796389,-8.37977778,3.6,9.2,,4,1.3,1.0,95.0,1009.2,SE
2026-02-09 01:00:00,6212123,Vila Verde (CIM),41.64686111,-8.43398056,2.2,9.6,,2,,0.6,91.0,1009.0,NE
2026-02-09 01:00:00,6212124,Braga (CIM),41.53568333,-8.42514722,8.3,10.9,,5,1.4,2.3,99.0,1009.7,S
2026-02-09 01:00:00,6212126,Esposende (CIM),41.52645556,-8.77984444,12.6,13.6,,7,0.1,3.5,98.0,1009.0,W
2026-02-09 01:00:00,6213012,Carregal do Sal (CIM),40.46718056,-7.92626389,13.0,10.5,,6,,3.6,98.0,,SW
2026-02-09 01:00:00,6213013,Castro Daire / Mézio (CIM),40.98086111,-7.88318889,16.6,7.6,,7,,4.6,100.0,,W
2026-02-09 01:00:00,6213014,Mangualde / Chãs de Tavares  (CIM),40.61096111,-7.60838889,29.9,9.1,,6,0.1,8.3,100.0,,SW
2026-02-09 01:00:00,6213016,Oliveira de Frades (CIM),40.716925,-8.20133889,19.8,9.8,,5,,5.5,100.0,,S
2026-02-09 01:00:00,6213017,Penalva do Castelo (CIM),40.65706389,-7.69655278,14.8,9.7,,6,0.0,4.1,100.0,,SW
2026-02-09 01:00:00,6213020,Satão (CIM),40.76072778,-7.72019722,7.9,7.8,,6,0.6,2.2,100.0,,SW
2026-02-09 01:00:00,6213022,Vila Nova de Paiva (CIM),40.85595,-7.72716389,9.7,7.3,,6,0.5,2.7,,,SW
2026-02-09 01:00:00,6213611,Arganil / Aeródromo (CIM),40.274578,-7.974399,3.6,11.9,,7,0.0,1.0,92.0,,W
2026-02-09 01:00:00,6213612,Cantanhede / Fonte Dom Pedro (CIM),40.341894,-8.577613,8.6,12.1,,6,0.0,2.4,96.0,,SW
2026-02-09 01:00:00,6213613,Coimbra / Mata de São Pedro (CIM),40.330787,-8.374887,6.5,9.9,,5,,1.8,100.0,,S
2026-02-09 01:00:00,6213614,Góis / Quinta da Ribeira (CIM),40.171642,-8.103238,10.4,,,6,,2.9,,,SW
2026-02-09 01:00:00,6213615,Mealhada / Quinta do Vale (CIM),40.373343,-8.4388429,3.6,11.4,,4,0.6,1.0,99.0,,SE
2026-02-09 01:00:00,6213616,Mortágua / Aeródromo (CIM),40.426239,-8.232142,4.0,10.9,,5,0.1,1.1,100.0,,S
2026-02-09 01:00:00,6213617,Penacova / Hombres (CIM),40.280921,-8.198685,6.8,,,6,0.2,1.9,98.0,,SW
2026-02-09 01:00:00,6213619,Vila Nova de Poiares (CIM),40.211411,-8.241995,6.8,12.8,,5,0.0,1.9,89.0,,S
2026-02-09 01:00:00,6213620,Oliveira do Hospital (CIM),40.413306,-7.867972,11.9,11.0,,6,0.0,3.3,95.0,,SW
2026-02-09 01:00:00,6215360,Oeiras / Vila Fria (CMO),38.7239536,-9.2939255,18.0,14.6,0.0,7,0.7,5.0,100.0,1011.6,W
2026-02-09 01:00:00,7240919,"Lisboa, Amoreiras (LFCL)",38.7239,-9.1649,12.6,14.2,,7,0.5,3.5,100.0,1012.5,W
2026-02-09 02:00:00,11217160,Santa Maria / Praia Formosa (DROTRH),36.9542,-25.0917,10.4,16.4,0.0,6,0.0,2.9,100.0,,SW
2026-02-09 02:00:00,11217165,Santa Maria / Maia (DROTRH),36.9412,-25.0176,17.6,16.4,0.0,6,0.0,4.9,100.0,,SW
2026-02-09 02:00:00,11217225,São Miguel / Sete Cidades (DROTRH),37.8679,-25.772,22.0,16.2,0.0,6,0.0,6.1,100.0,,SW
2026-02-09 02:00:00,11217255,São Miguel / Lagoa das Furnas (DROTRH),37.7619,-25.3291,7.2,16.4,0.0,4,0.4,2.0,100.0,,SE
2026-02-09 02:00:00,11217430,Graciosa / Serra das Fontes (DROTRH),39.0672,-28.0038,21.6,16.6,0.0,7,0.0,6.0,100.0,,W
2026-02-09 02:00:00,11217510,São Jorge / Pico do Areeiro (DROTRH),38.6435,-28.0591,60.8,13.9,0.0,6,0.3,16.9,100.0,,SW
2026-02-09 02:00:00,11217625,Pico / Cabeço do Teicho (DROTRH),38.489,-28.3534,36.0,14.9,0.0,6,1.9,10.0,97.0,,SW
2026-02-09 02:00:00,11217645,Pico / Cabecinho (DROTRH),38.4338,-28.1141,5.8,14.9,0.0,6,0.1,1.6,100.0,,SW
2026-02-09 02:00:00,11217730,Faial / Cabeço Verde (DROTRH),38.5843,-28.7576,27.7,15.3,0.0,5,0.0,7.7,100.0,,S
2026-02-09 02:00:00,1200501,Flores (Aeródromo),39.45819,-31.1301,33.8,19.5,0.0,6,0.0,9.4,86.0,1005.2,SW
2026-02-09 02:00:00,1200502,Corvo (Aeródromo),39.67389,-31.11362,38.2,17.6,0.0,7,0.0,10.6,93.0,1004.3,W
2026-02-09 02:00:00,1200504,Pico (Aeródromo),38.55219,-28.44137,29.2,18.9,0.0,6,0.0,8.1,89.0,1010.0,SW
2026-02-09 02:00:00,1200505,Horta / Aeroporto,38.5211,-28.7128,29.5,17.7,,7,0.0,8.2,94.0,1010.5,W
2026-02-09 02:00:00,1200506,Horta (Obs. Principe Alberto),38.540781,-28.63225,29.2,17.7,0.0,6,0.0,8.1,98.0,1009.9,SW
2026-02-09 02:00:00,1200507,Graciosa (Aeródromo),39.09036,-28.02852,23.8,18.4,0.0,6,0.0,6.6,86.0,1009.0,SW
2026-02-09 02:00:00,1200510,São Jorge,38.66,-28.17,19.8,18.4,0.0,7,0.0,5.5,,1011.0,W
2026-02-09 02:00:00,1200511,Angra do Heroísmo,38.6659435,-27.216567,28.4,16.7,0.0,7,0.0,7.9,99.0,1011.5,W
2026-02-09 02:00:00,1200512,P. Delgada (Aeródromo),37.74414,-25.6953048,30.6,16.7,0.0,7,0.0,8.5,98.0,1014.2,W
2026-02-09 02:00:00,1200515,Santa Maria (Aeródromo),36.967175,-25.1679,31.0,17.0,0.1,7,0.0,8.6,,1016.6,W
2026-02-09 02:00:00,1200521,Santa Catarina (Aeródromo),32.69688,-16.77612,,16.7,0.0,0,0.0,,75.0,1023.6,
2026-02-09 02:00:00,1200522,Funchal,32.64786,-16.888,5.0,16.7,0.0,1,0.0,1.4,73.0,1023.8,N
2026-02-09 02:00:00,1200524,Porto Santo,33.074029,-16.34868,24.5,17.1,0.0,7,0.0,6.8,90.0,1023.2,W
2026-02-09 02:00:00,1200533,Sagres,37.012835,-8.949089,26.3,15.3,,7,0.0,7.3,100.0,1014.2,W
2026-02-09 02:00:00,1200535,Lisboa (Geofísico),38.71907778,-9.14972222,12.6,14.8,0.0,7,0.2,3.5,100.0,1011.6,W
2026-02-09 02:00:00,1200541,Sines,37.954504,-8.838271,21.6,14.8,0.0,7,0.2,6.0,100.0,1013.0,W
2026-02-09 02:00:00,1200545,"Porto, Pedras Rubras (Aeródromo)",41.233502,-8.681332,8.6,13.3,0.0,6,0.1,2.4,98.0,1009.0,SW
2026-02-09 02:00:00,1200548,Coimbra (Aeródromo),40.15006944,-8.46669167,,,0.0,0,0.1,,,,
2026-02-09 02:00:00,1200551,"Viana Castelo, Chafé",41.648875,-8.804606,8.3,13.0,0.0,6,0.0,2.3,100.0,1008.1,SW
2026-02-09 02:00:00,1200554,Faro (Aeródromo),37.016579,-7.971953,27.4,15.3,0.0,7,0.1,7.6,98.0,1013.6,W
2026-02-09 02:00:00,1200558,Évora (C.Coordenação),38.53336389,-7.88338056,15.8,12.8,0.0,7,0.1,4.4,,1012.1,W
2026-02-09 02:00:00,1200559,Viseu (Aeródromo),40.72645,-7.887472,14.0,9.7,,6,0.0,3.9,99.0,1009.7,SW
2026-02-09 02:00:00,1200560,Viseu (C.Coordenação),40.71492222,-7.89592222,13.3,9.3,,6,0.1,3.7,100.0,,SW
2026-02-09 02:00:00,1200562,Beja,38.02493056,-7.867275,21.6,14.0,0.0,7,0.9,6.0,100.0,1012.2,W
2026-02-09 02:00:00,1200567,Vila Real,41.27418611,-7.7171,8.3,9.8,0.0,5,0.1,2.3,100.0,1008.5,S
2026-02-09 02:00:00,1200568,Penhas Douradas,40.41136667,-7.55865278,,5.5,,0,,,100.0,,
2026-02-09 02:00:00,1200571,Portalegre,39.29546944,-7.41996944,19.1,9.7,0.0,8,0.1,5.3,100.0,1011.5,NW
2026-02-09 02:00:00,1200575,Bragança,41.80388889,-6.74283889,6.5,5.5,0.0,4,0.2,1.8,,1010.3,SE
2026-02-09 02:00:00,1200576,Bragança (Aeródromo),41.85763611,-6.70796389,9.7,5.5,,4,0.1,2.7,99.0,1009.2,SE
2026-02-09 02:00:00,1200843,Évora (Aeródromo),38.5296,-7.8916,17.3,12.6,,6,0.1,4.8,100.0,1011.7,SW
2026-02-09 02:00:00,1210513,P. Delgada (Obs. A. Chaves),37.7464,-25.662283,7.9,17.2,0.1,6,0.0,2.2,,,SW
2026-02-09 02:00:00,1210517,Flores / Morro Alto,39.4633,-31.2207,106.2,13.5,,6,0.0,29.5,100.0,999.3,SW
2026-02-09 02:00:00,1210518,São Miguel - Pico Santos De Cima,37.819,-25.7512,75.2,13.2,,7,0.2,20.9,100.0,1012.8,W
2026-02-09 02:00:00,1210520,Ilhas selvagens,30.140595,-15.869153,0.7,16.6,0.0,9,0.0,0.2,91.0,1025.2,N
2026-02-09 02:00:00,1210550,Coruche / Cruz Do Leão,39.07101,-8.4,5.8,13.2,,7,0.0,1.6,100.0,1011.4,W
2026-02-09 02:00:00,1210553,Loulé / Cavalos De Caldeirão,37.3042,-7.9534,20.9,12.7,,6,0.2,5.8,100.0,1013.7,SW
2026-02-09 02:00:00,1210577,"Odemira, S.Teotónio",37.54710833,-8.72899167,19.8,15.0,0.0,7,0.1,5.5,99.0,,W
2026-02-09 02:00:00,1210580,"Lisboa, Relógio",38.7618,-9.1254,14.4,14.6,,7,0.1,4.0,97.0,1012.1,W
2026-02-09 02:00:00,1210604,V.N.Cerveira (Aeródromo),41.96673056,-8.66676111,10.1,13.3,0.0,7,0.2,2.8,97.0,1007.7,W
2026-02-09 02:00:00,1210605,"Monção, Valinha",42.06669,-8.383347,7.9,11.1,0.0,6,0.1,2.2,96.0,,SW
2026-02-09 02:00:00,1210606,"Lamas de Mouro, P.Ribeiro",42.03333333,-8.18333333,,8.6,0.0,0,0.0,,98.0,1008.4,
2026-02-09 02:00:00,1210611,Montalegre,41.82276667,-7.78797778,12.2,6.9,0.0,7,0.1,3.4,99.0,,W
2026-02-09 02:00:00,1210612,Vinhais,41.8434,-7.0034416,3.2,5.6,,7,0.3,0.9,100.0,,W
2026-02-09 02:00:00,1210615,Ponte de Lima,41.75013889,-8.56671389,1.8,10.3,0.0,2,0.1,0.5,99.0,,NE
2026-02-09 02:00:00,1210616,Chaves (Aeródromo),41.72516667,-7.46540833,3.6,7.7,0.0,6,0.2,1.0,97.0,1008.9,SW
2026-02-09 02:00:00,1210619,Cabril,41.71666667,-8.01666667,9.4,8.6,,7,0.5,2.6,99.0,,W
2026-02-09 02:00:00,1210622,"Braga, Merelim",41.56678056,-8.45003056,2.5,9.7,3.8,5,0.2,0.7,100.0,1009.1,S
2026-02-09 02:00:00,1210630,Cabeceiras de Basto,41.53333333,-7.96666667,2.9,8.5,0.0,7,0.8,0.8,100.0,,W
2026-02-09 02:00:00,1210632,Mirandela,41.51478611,-7.19083889,0.0,8.6,0.0,0,0.1,0.0,96.0,,
2026-02-09 02:00:00,1210633,"Macedo Cavaleiros, Bagueixe",41.56666667,-6.78333333,8.6,6.6,,7,0.1,2.4,100.0,,W
2026-02-09 02:00:00,1210635,Miranda do Douro,41.51666667,-6.28333333,8.3,7.0,,6,0.1,2.3,99.0,,SW
2026-02-09 02:00:00,1210637,Mogadouro,41.33333333,-6.73333333,21.2,6.8,0.0,6,0.1,5.9,99.0,,SW
2026-02-09 02:00:00,1210643,Paços Ferreira,41.27365,-8.38012,7.9,11.8,,6,0.4,2.2,100.0,,SW
2026-02-09 02:00:00,1210644,Carrazêda de Ansiães,41.23333333,-7.28333333,4.7,8.0,0.0,6,0.0,1.3,94.0,,SW
2026-02-09 02:00:00,1210654,Moncorvo,41.18333333,-7.01666667,14.8,9.8,0.0,7,0.0,4.1,85.0,1009.0,W
2026-02-09 02:00:00,1210655,"Pinhão, Santa Bárbara",41.172775,-7.5489722,5.8,9.7,,6,0.0,1.6,96.0,,SW
2026-02-09 02:00:00,1210657,Luzim,41.14585,-8.2490333,6.1,11.0,0.1,5,1.9,1.7,97.0,,S
2026-02-09 02:00:00,1210663,Moimenta da Beira,40.98333333,-7.6,6.8,8.9,0.0,5,0.0,1.9,93.0,,S
2026-02-09 02:00:00,1210666,"Trancoso, Bandarra",40.78333333,-7.36666667,25.9,8.3,0.0,6,0.3,7.2,99.0,,SW
2026-02-09 02:00:00,1210669,Arouca,40.93333333,-8.25,5.0,12.4,0.0,7,0.5,1.4,97.0,,W
2026-02-09 02:00:00,1210671,"F. Castelo Rodrigo, V.Torpim",40.75,-6.88333333,19.4,8.2,0.0,7,0.0,5.4,99.0,,W
2026-02-09 02:00:00,1210683,Guarda,40.53333333,-7.26666667,8.3,5.2,0.5,4,0.0,2.3,100.0,,SE
2026-02-09 02:00:00,1210685,Nelas,40.51666667,-7.85,10.8,10.8,0.0,6,0.1,3.0,100.0,,SW
2026-02-09 02:00:00,1210686,"Pampilhosa da Serra, Fajão",40.145653,-7.92704,16.2,8.8,,7,0.4,4.5,100.0,,W
2026-02-09 02:00:00,1210690,Aldeia Souto (Q. Lageosa),40.35425833,-7.38931111,1.8,8.2,0.0,8,0.0,0.5,97.0,,NW
2026-02-09 02:00:00,1210697,Lousã (Aeródromo),40.143922,-8.244066,5.4,12.8,,6,0.3,1.5,97.0,,SW
2026-02-09 02:00:00,1210698,Fundão,40.14063611,-7.55362778,5.4,8.1,0.2,7,0.0,1.5,99.0,,W
2026-02-09 02:00:00,1210704,Dunas de Mira,40.445955,-8.76168055,9.0,14.7,0.0,6,0.0,2.5,97.0,,SW
2026-02-09 02:00:00,1210705,Anadia,40.438852,-8.439996,1.1,12.5,0.0,5,0.6,0.3,96.0,,S
2026-02-09 02:00:00,1210707,"Coimbra, Bencanta",40.2134694,-8.45515277,2.5,12.4,0.0,2,0.9,0.7,100.0,,NE
2026-02-09 02:00:00,1210716,Ansião,39.9,-8.4,3.2,9.7,0.5,6,,0.9,99.0,,SW
2026-02-09 02:00:00,1210726,Alcobaça,39.51666667,-8.96666667,11.9,15.1,0.0,7,0.2,3.3,94.0,,W
2026-02-09 02:00:00,1210734,"Santarém, Fonte Boa",39.201216,-8.736656,2.2,11.7,0.0,5,0.3,0.6,98.0,1011.5,S
2026-02-09 02:00:00,1210735,Chamusca / Chouto,39.27,-8.3508,4.0,11.8,,4,0.1,1.1,100.0,1011.3,SE
2026-02-09 02:00:00,1210739,"Torres Vedras, Dois Portos",39.04389444,-9.179,17.6,14.9,0.0,7,0.5,4.9,99.0,,W
2026-02-09 02:00:00,1210744,Coruche,38.94096667,-8.51073611,9.0,14.6,1.6,7,0.2,2.5,,,W
2026-02-09 02:00:00,1210750,Cabo da Roca,38.78171,-9.4975361,34.6,14.3,0.0,8,0.1,9.6,100.0,,NW
2026-02-09 02:00:00,1210752,Sintra/Tapada do Mouco,38.781669,-9.400398,16.6,12.5,,8,0.6,4.6,100.0,,NW
2026-02-09 02:00:00,1210762,"Lisboa, Tapada da Ajuda",38.70956111,-9.182825,7.6,14.7,0.0,7,0.2,2.1,100.0,,W
2026-02-09 02:00:00,1210765,Cabo Raso,38.70900833,-9.48538333,25.9,14.7,,7,0.0,7.2,100.0,,W
2026-02-09 02:00:00,1210766,"Barreiro, Lavradio",38.67448611,-9.04766111,13.3,15.3,0.0,7,0.2,3.7,99.0,,W
2026-02-09 02:00:00,1210767,Pegões,38.65079,-8.63503,12.2,14.5,0.0,6,0.6,3.4,100.0,,SW
2026-02-09 02:00:00,1210770,Setúbal,38.54846008,-8.89077058,13.3,15.5,405.8,7,0.7,3.7,92.0,,W
2026-02-09 02:00:00,1210776,"Alcácer do Sal, Barrosinha",38.36666667,-8.48333333,11.2,15.0,0.0,7,1.7,3.1,99.0,,W
2026-02-09 02:00:00,1210783,Alvalade,37.946806,-8.394504,17.6,15.6,0.0,7,0.4,4.9,98.0,,W
2026-02-09 02:00:00,1210785,Ourique / Santana Da Serra,37.5025,-8.3019,,14.9,0.0,0,,,98.0,1013.2,
2026-02-09 02:00:00,1210789,Aljezur,37.31675278,-8.80001667,7.9,16.1,6.5,7,0.0,2.2,99.0,,W
2026-02-09 02:00:00,1210800,"Sabugal, Martim Rei",40.33918056,-7.03693333,10.4,6.6,0.0,5,0.1,2.9,99.0,,S
2026-02-09 02:00:00,1210806,"Proença-a-Nova, P.Moitas",39.73333333,-7.86666667,1.8,8.7,10.0,6,0.1,0.5,100.0,,SW
2026-02-09 02:00:00,1210824,"Avis, Benavila",39.1,-7.86666667,13.7,13.4,0.0,7,0.0,3.8,,,W
2026-02-09 02:00:00,1210826,Mora,38.94068,-8.16406,9.0,13.9,0.0,6,0.0,2.5,100.0,,SW
2026-02-09 02:00:00,1210835,Elvas,38.8908,-7.13976111,11.5,11.3,0.0,5,0.1,3.2,100.0,,S
2026-02-09 02:00:00,1210837,Estremoz,38.86666667,-7.51666667,12.6,12.3,0.0,7,0.0,3.5,100.0,,W
2026-02-09 02:00:00,1210840,"Reguengos, S. P. do Corval",38.484866,-7.4729166,15.1,12.5,0.3,6,0.8,4.2,100.0,,SW
2026-02-09 02:00:00,1210846,Montemor-O-Novo,38.6451,-8.1991,10.1,13.7,,7,0.0,2.8,100.0,1012.7,W
2026-02-09 02:00:00,1210847,Viana do Alentejo,38.3319194,-8.04553888,10.4,14.0,0.4,7,,2.9,,,W
2026-02-09 02:00:00,1210848,"Portel, Oriola",38.31666667,-7.86666667,12.6,14.0,,7,0.5,3.5,98.0,,W
2026-02-09 02:00:00,1210851,Amareleja,38.2007,-7.2261,13.3,,0.0,6,0.8,3.7,,1011.5,SW
2026-02-09 02:00:00,1210863,"Mértola, Vale Formoso",37.75,-7.55,13.7,14.2,0.0,7,0.0,3.8,98.0,,W
2026-02-09 02:00:00,1210864,"Castro Verde, N.Corvo",37.57655833,-7.97211389,14.8,14.8,0.3,7,0.0,4.1,99.0,,W
2026-02-09 02:00:00,1210865,"Alcoutim, Mart.Longo",37.43333333,-7.76666667,13.3,14.4,,7,0.0,3.7,98.0,1012.9,W
2026-02-09 02:00:00,1210866,Vila Real de S.António,37.1871055,-7.416325,,14.9,,0,0.1,,98.0,,
2026-02-09 02:00:00,1210874,Albufeira,37.0935,-8.262,17.6,14.5,,6,0.1,4.9,100.0,,SW
2026-02-09 02:00:00,1210878,Portimão (Aeródromo),37.149167,-8.581389,22.7,16.0,0.0,7,0.0,6.3,96.0,1013.8,W
2026-02-09 02:00:00,1210881,"Olhão, EPPO",37.033,-7.821,14.4,15.5,0.0,6,0.0,4.0,100.0,1014.0,SW
2026-02-09 02:00:00,1210883,Tavira,37.12166968,-7.62050375,17.6,15.0,,6,0.0,4.9,97.0,1013.5,SW
2026-02-09 02:00:00,1210907,Faja / Ilha das Flores,39.45328,-31.2647,,17.9,,0,,,96.0,1006.2,
2026-02-09 02:00:00,1210932,"S. Miguel, Nordeste",37.83256,-25.150108,8.3,19.8,,8,0.0,2.3,78.0,,NW
2026-02-09 02:00:00,1210956,"Madeira, Porto Moniz",32.867477,-17.171373,,18.7,0.0,0,0.0,,76.0,,
2026-02-09 02:00:00,1210960,"Madeira, S. Jorge, Santana",32.83446944,-16.906219,21.2,16.4,110.3,7,0.0,5.9,88.0,1023.5,W
2026-02-09 02:00:00,1210965,"Madeira, Santana",32.808238,-16.8864166,,14.1,40.0,0,0.0,,80.0,,
2026-02-09 02:00:00,1210967,"Madeira, São Vicente",32.8001833,-17.044722,,14.8,0.8,0,0.0,,82.0,,
2026-02-09 02:00:00,1210972,"Madeira, Pico Alto",32.693491,-16.903955,4.7,12.9,0.0,7,,1.3,75.0,,W
2026-02-09 02:00:00,1210973,"Madeira, Areeiro",32.71666667,-16.91666667,11.5,10.3,3.4,9,0.0,3.2,83.0,,N
2026-02-09 02:00:00,1210974,"Madeira, Pico do Areeiro",32.735107,-16.928271,,8.5,,0,0.0,,90.0,,
2026-02-09 02:00:00,1210975,"Madeira, Santo da Serra",32.7258972,-16.816822,,11.5,0.0,0,0.0,,91.0,,
2026-02-09 02:00:00,1210976,"Madeira, Monte",32.675833,-16.906944,2.9,12.8,0.3,9,0.0,0.8,89.0,,N
2026-02-09 02:00:00,1210977,"Madeira, Cancela",32.64500556,-16.86575,2.5,14.7,0.0,2,0.0,0.7,88.0,,NE
2026-02-09 02:00:00,1210978,"Madeira, S. Lourenço",32.747,-16.706,5.8,16.7,0.0,4,0.0,1.6,84.0,,SE
2026-02-09 02:00:00,1210984,"Madeira, Quinta Grande",32.6629722,-17.01503611,,13.0,0.0,0,0.0,,79.0,,
2026-02-09 02:00:00,1210986,Ponta do Sol/Lugar de Baixo,32.681502,-17.104167,5.8,17.7,0.0,4,0.0,1.6,80.0,,SE
2026-02-09 02:00:00,1210987,Prazeres (Calheta),32.757205,-17.201551,19.4,13.1,0.0,8,0.0,5.4,98.0,,NW
2026-02-09 02:00:00,1210990,"Madeira, Calheta",32.81384167,-17.26321389,8.6,15.2,0.0,6,0.0,2.4,96.0,1022.5,SW
2026-02-09 02:00:00,1240546,"Porto, Serra do Pilar",41.1385194,-8.6025,,13.3,,0,0.0,,100.0,1008.6,
2026-02-09 02:00:00,1240566,Vila Real (Cidade),41.30898056,-7.740522,8.6,9.3,,5,0.0,2.4,100.0,,S
2026-02-09 02:00:00,1240610,Viana do Castelo,41.695,-8.82916,,11.0,,0,0.0,,99.0,,
2026-02-09 02:00:00,1240675,Viseu (Cidade),40.662738,-7.9039694,,,,0,0.2,,37.0,,
2026-02-09 02:00:00,1240903,"Porto, Massarelos",41.15257,-8.62598,,13.2,,0,,,100.0,,
2026-02-09 02:00:00,1240971,"Madeira, Funchal, Lido",32.63655,-16.935592,0.0,17.5,0.0,0,0.0,0.0,78.0,,
2026-02-09 02:00:00,1259203,Seia/Aeródromo,40.45517056,-7.68614846,15.8,11.8,,6,0.0,4.4,94.0,1010.8,SW
2026-02-09 02:00:00,1259204,Seia/Senhora do Espinheiro,40.412775,-7.673406,14.4,8.3,,6,0.0,4.0,100.0,1011.2,SW
2026-02-09 02:00:00,5210758,Alcochete / Campo Tiro,38.7627,-8.7825,10.1,14.6,,6,0.1,2.8,100.0,1011.5,SW
2026-02-09 02:00:00,6210817,Ponte de Sôr / Aeródromo,39.21536,-8.05417,7.2,12.1,,6,,2.0,98.0,1011.0,SW
2026-02-09 02:00:00,6210872,Loulé (CML),37.129946,-8.06523593,12.2,,,7,0.0,3.4,,1013.8,W
2026-02-09 02:00:00,6210879,Portimão (Praia da Rocha),37.11670461,-8.52946314,20.5,15.8,,7,0.0,5.7,100.0,,W
2026-02-09 02:00:00,6211211,Monção - Guimil (CIM),42.042944,-8.421872,13.7,,0.5,6,,3.8,,1006.6,SW
2026-02-09 02:00:00,6211213,Paredes De Coura - Vascões (CIM),41.913444,-8.492111,2.2,7.2,1.8,9,,0.6,100.0,1008.2,N
2026-02-09 02:00:00,6211216,Arcos De Valdevez - Heliporto (CIM),41.831,-8.44375,1.8,9.2,,2,0.3,0.5,99.0,1008.6,NE
2026-02-09 02:00:00,6211217,Viana Do Castelo - Fonte Louçã (CIM),41.745722,-8.815306,22.0,,1.1,7,0.0,6.1,,1012.5,W
2026-02-09 02:00:00,6211218,Ponte De Lima - Anais (CIM),41.698083,-8.522444,2.2,9.3,1.9,3,,0.6,95.0,1008.0,E
2026-02-09 02:00:00,6212121,Terras de Bouro/Barral (CIM),41.70225278,-8.31808611,3.6,9.0,,3,0.1,1.0,95.0,1007.0,E
2026-02-09 02:00:00,6212122,Amares Caldelas (CIM),41.66796389,-8.37977778,2.5,9.4,,5,0.4,0.7,95.0,1009.3,S
2026-02-09 02:00:00,6212123,Vila Verde (CIM),41.64686111,-8.43398056,1.4,9.7,,4,,0.4,91.0,1009.0,SE
2026-02-09 02:00:00,6212124,Braga (CIM),41.53568333,-8.42514722,6.8,11.6,,6,0.1,1.9,100.0,1009.8,SW
2026-02-09 02:00:00,6212126,Esposende (CIM),41.52645556,-8.77984444,11.2,13.7,,6,0.0,3.1,98.0,1009.1,SW
2026-02-09 02:00:00,6213012,Carregal do Sal (CIM),40.46718056,-7.92626389,12.2,11.2,,6,,3.4,98.0,,SW
2026-02-09 02:00:00,6213013,Castro Daire / Mézio (CIM),40.98086111,-7.88318889,18.0,8.1,,6,,5.0,100.0,,SW
2026-02-09 02:00:00,6213014,Mangualde / Chãs de Tavares  (CIM),40.61096111,-7.60838889,29.5,9.6,,6,0.2,8.2,100.0,,SW
2026-02-09 02:00:00,6213016,Oliveira de Frades (CIM),40.716925,-8.20133889,15.5,10.1,,5,,4.3,100.0,,S
2026-02-09 02:00:00,6213017,Penalva do Castelo (CIM),40.65706389,-7.69655278,15.1,10.4,,6,0.1,4.2,100.0,,SW
2026-02-09 02:00:00,6213020,Satão (CIM),40.76072778,-7.72019722,9.0,8.2,,6,1.0,2.5,100.0,,SW
2026-02-09 02:00:00,6213022,Vila Nova de Paiva (CIM),40.85595,-7.72716389,8.3,8.3,,6,0.6,2.3,,,SW
2026-02-09 02:00:00,6213611,Arganil / Aeródromo (CIM),40.274578,-7.974399,5.0,12.3,,6,0.8,1.4,95.0,,SW
2026-02-09 02:00:00,6213612,Cantanhede / Fonte Dom Pedro (CIM),40.341894,-8.577613,4.3,13.0,,6,0.1,1.2,96.0,,SW
2026-02-09 02:00:00,6213613,Coimbra / Mata de São Pedro (CIM),40.330787,-8.374887,6.1,10.2,,6,,1.7,100.0,,SW
2026-02-09 02:00:00,6213614,Góis / Quinta da Ribeira (CIM),40.171642,-8.103238,6.1,,,6,,1.7,,,SW
2026-02-09 02:00:00,6213615,Mealhada / Quinta do Vale (CIM),40.373343,-8.4388429,2.9,11.9,,5,0.3,0.8,99.0,,S
2026-02-09 02:00:00,6213616,Mortágua / Aeródromo (CIM),40.426239,-8.232142,4.3,12.1,,5,0.1,1.2,100.0,,S
2026-02-09 02:00:00,6213617,Penacova / Hombres (CIM),40.280921,-8.198685,3.2,,,6,0.1,0.9,99.0,,SW
2026-02-09 02:00:00,6213619,Vila Nova de Poiares (CIM),40.211411,-8.241995,7.2,12.6,,4,0.8,2.0,93.0,,SE
2026-02-09 02:00:00,6213620,Oliveira do Hospital (CIM),40.413306,-7.867972,11.5,11.5,,6,0.0,3.2,96.0,,SW
2026-02-09 02:00:00,6215360,Oeiras / Vila Fria (CMO),38.7239536,-9.2939255,22.0,14.6,0.0,7,0.2,6.1,100.0,1011.6,W
2026-02-09 02:00:00,7240919,"Lisboa, Amoreiras (LFCL)",38.7239,-9.1649,10.1,14.1,,7,0.2,2.8,100.0,1012.5,W
2026-02-09 03:00:00,11217160,Santa Maria / Praia Formosa (DROTRH),36.9542,-25.0917,11.2,16.3,0.0,8,0.0,3.1,100.0,,NW
2026-02-09 03:00:00,11217165,Santa Maria / Maia (DROTRH),36.9412,-25.0176,22.7,16.4,0.0,6,0.0,6.3,100.0,,SW
2026-02-09 03:00:00,11217225,São Miguel / Sete Cidades (DROTRH),37.8679,-25.772,32.8,16.4,0.3,6,0.0,9.1,100.0,,SW
2026-02-09 03:00:00,11217255,São Miguel / Lagoa das Furnas (DROTRH),37.7619,-25.3291,6.1,16.7,0.4,4,0.0,1.7,100.0,,SE
2026-02-09 03:00:00,11217430,Graciosa / Serra das Fontes (DROTRH),39.0672,-28.0038,23.4,17.0,0.0,7,0.0,6.5,100.0,,W
2026-02-09 03:00:00,11217510,São Jorge / Pico do Areeiro (DROTRH),38.6435,-28.0591,64.8,13.9,0.0,5,0.4,18.0,100.0,,S
2026-02-09 03:00:00,11217625,Pico / Cabeço do Teicho (DROTRH),38.489,-28.3534,36.0,14.8,0.0,6,2.7,10.0,98.0,,SW
2026-02-09 03:00:00,11217645,Pico / Cabecinho (DROTRH),38.4338,-28.1141,5.4,14.8,0.0,4,1.1,1.5,100.0,,SE
2026-02-09 03:00:00,11217730,Faial / Cabeço Verde (DROTRH),38.5843,-28.7576,25.6,15.4,0.0,5,0.0,7.1,100.0,,S
2026-02-09 03:00:00,1200501,Flores (Aeródromo),39.45819,-31.1301,32.8,19.5,0.0,6,0.0,9.1,86.0,1004.7,SW
2026-02-09 03:00:00,1200502,Corvo (Aeródromo),39.67389,-31.11362,36.7,17.6,0.0,7,0.0,10.2,94.0,1003.9,W
2026-02-09 03:00:00,1200504,Pico (Aeródromo),38.55219,-28.44137,27.4,18.8,0.0,6,0.1,7.6,89.0,1009.5,SW
2026-02-09 03:00:00,1200505,Horta / Aeroporto,38.5211,-28.7128,30.2,17.6,,6,0.0,8.4,95.0,1010.3,SW
2026-02-09 03:00:00,1200506,Horta (Obs. Principe Alberto),38.540781,-28.63225,27.0,17.6,0.0,6,0.0,7.5,99.0,1009.5,SW
2026-02-09 03:00:00,1200507,Graciosa (Aeródromo),39.09036,-28.02852,33.1,17.9,0.0,6,0.0,9.2,87.0,1008.7,SW
2026-02-09 03:00:00,1200510,São Jorge,38.66,-28.17,13.7,18.2,0.0,6,0.0,3.8,,1010.7,SW
2026-02-09 03:00:00,1200511,Angra do Heroísmo,38.6659435,-27.216567,28.8,16.6,0.0,7,0.0,8.0,100.0,1011.3,W
2026-02-09 03:00:00,1200512,P. Delgada (Aeródromo),37.74414,-25.6953048,26.6,16.5,0.0,7,0.0,7.4,98.0,1013.9,W
2026-02-09 03:00:00,1200515,Santa Maria (Aeródromo),36.967175,-25.1679,29.2,16.8,0.0,6,0.0,8.1,,1016.4,SW
2026-02-09 03:00:00,1200521,Santa Catarina (Aeródromo),32.69688,-16.77612,,16.8,0.0,0,0.0,,75.0,1023.4,
2026-02-09 03:00:00,1200522,Funchal,32.64786,-16.888,3.2,16.4,0.0,2,0.0,0.9,73.0,1023.5,NE
2026-02-09 03:00:00,1200524,Porto Santo,33.074029,-16.34868,20.5,17.3,0.1,7,0.0,5.7,90.0,1023.1,W
2026-02-09 03:00:00,1200533,Sagres,37.012835,-8.949089,32.0,15.4,,7,0.0,8.9,100.0,1014.4,W
2026-02-09 03:00:00,1200535,Lisboa (Geofísico),38.71907778,-9.14972222,9.7,14.8,0.0,6,0.0,2.7,100.0,1011.7,SW
2026-02-09 03:00:00,1200541,Sines,37.954504,-8.838271,23.0,14.8,0.0,7,0.1,6.4,100.0,1013.1,W
2026-02-09 03:00:00,1200545,"Porto, Pedras Rubras (Aeródromo)",41.233502,-8.681332,11.9,13.3,0.0,6,0.0,3.3,98.0,1009.1,SW
2026-02-09 03:00:00,1200548,Coimbra (Aeródromo),40.15006944,-8.46669167,,,0.0,0,0.0,,,,
2026-02-09 03:00:00,1200551,"Viana Castelo, Chafé",41.648875,-8.804606,7.2,13.1,0.0,6,0.0,2.0,100.0,1008.1,SW
2026-02-09 03:00:00,1200554,Faro (Aeródromo),37.016579,-7.971953,24.5,15.3,0.0,7,0.0,6.8,98.0,1013.4,W
2026-02-09 03:00:00,1200558,Évora (C.Coordenação),38.53336389,-7.88338056,14.8,13.1,0.0,7,0.1,4.1,,1012.0,W
2026-02-09 03:00:00,1200559,Viseu (Aeródromo),40.72645,-7.887472,10.4,9.9,,7,0.5,2.9,99.0,1009.6,W
2026-02-09 03:00:00,1200560,Viseu (C.Coordenação),40.71492222,-7.89592222,9.7,9.6,,7,0.6,2.7,100.0,,W
2026-02-09 03:00:00,1200562,Beja,38.02493056,-7.867275,23.8,14.1,0.0,7,0.5,6.6,100.0,1012.0,W
2026-02-09 03:00:00,1200567,Vila Real,41.27418611,-7.7171,7.2,10.1,0.0,5,0.1,2.0,100.0,1008.6,S
2026-02-09 03:00:00,1200568,Penhas Douradas,40.41136667,-7.55865278,,5.2,,0,,,100.0,,
2026-02-09 03:00:00,1200571,Portalegre,39.29546944,-7.41996944,23.4,10.2,0.0,8,0.2,6.5,100.0,1011.1,NW
2026-02-09 03:00:00,1200575,Bragança,41.80388889,-6.74283889,7.9,5.6,0.0,5,0.0,2.2,,1009.9,S
2026-02-09 03:00:00,1200576,Bragança (Aeródromo),41.85763611,-6.70796389,10.1,6.0,,5,0.0,2.8,99.0,1008.8,S
2026-02-09 03:00:00,1200843,Évora (Aeródromo),38.5296,-7.8916,16.2,12.9,,7,0.0,4.5,100.0,1011.6,W
2026-02-09 03:00:00,1210513,P. Delgada (Obs. A. Chaves),37.7464,-25.662283,5.4,17.0,0.0,6,0.0,1.5,,,SW
2026-02-09 03:00:00,1210517,Flores / Morro Alto,39.4633,-31.2207,104.4,13.6,,6,0.0,29.0,100.0,998.5,SW
2026-02-09 03:00:00,1210518,São Miguel - Pico Santos De Cima,37.819,-25.7512,72.7,13.2,,7,0.1,20.2,100.0,1012.5,W
2026-02-09 03:00:00,1210520,Ilhas selvagens,30.140595,-15.869153,16.6,16.5,0.0,8,0.0,4.6,91.0,1025.0,NW
2026-02-09 03:00:00,1210550,Coruche / Cruz Do Leão,39.07101,-8.4,5.4,13.5,,7,0.0,1.5,100.0,1011.3,W
2026-02-09 03:00:00,1210553,Loulé / Cavalos De Caldeirão,37.3042,-7.9534,22.7,12.8,,7,0.2,6.3,100.0,1013.5,W
2026-02-09 03:00:00,1210577,"Odemira, S.Teotónio",37.54710833,-8.72899167,23.0,15.0,0.0,7,0.3,6.4,99.0,,W
2026-02-09 03:00:00,1210580,"Lisboa, Relógio",38.7618,-9.1254,18.4,14.7,,7,0.0,5.1,97.0,1012.1,W
2026-02-09 03:00:00,1210604,V.N.Cerveira (Aeródromo),41.96673056,-8.66676111,7.6,13.5,0.0,6,0.4,2.1,95.0,1007.8,SW
2026-02-09 03:00:00,1210605,"Monção, Valinha",42.06669,-8.383347,10.4,11.7,0.0,5,0.2,2.9,95.0,,S
2026-02-09 03:00:00,1210606,"Lamas de Mouro, P.Ribeiro",42.03333333,-8.18333333,,8.5,0.0,0,0.4,,98.0,1008.5,
2026-02-09 03:00:00,1210611,Montalegre,41.82276667,-7.78797778,11.5,7.0,0.0,7,0.0,3.2,99.0,,W
2026-02-09 03:00:00,1210612,Vinhais,41.8434,-7.0034416,7.9,5.5,,8,0.0,2.2,100.0,,NW
2026-02-09 03:00:00,1210615,Ponte de Lima,41.75013889,-8.56671389,1.8,10.3,0.0,9,0.5,0.5,99.0,,N
2026-02-09 03:00:00,1210616,Chaves (Aeródromo),41.72516667,-7.46540833,3.2,7.7,0.0,4,0.0,0.9,97.0,1008.8,SE
2026-02-09 03:00:00,1210619,Cabril,41.71666667,-8.01666667,13.7,9.0,,7,0.3,3.8,99.0,,W
2026-02-09 03:00:00,1210622,"Braga, Merelim",41.56678056,-8.45003056,4.3,9.7,3.3,2,0.6,1.2,100.0,1009.1,NE
2026-02-09 03:00:00,1210630,Cabeceiras de Basto,41.53333333,-7.96666667,1.4,8.8,0.6,5,0.2,0.4,100.0,,S
2026-02-09 03:00:00,1210632,Mirandela,41.51478611,-7.19083889,0.0,8.3,0.0,0,0.0,0.0,96.0,,
2026-02-09 03:00:00,1210633,"Macedo Cavaleiros, Bagueixe",41.56666667,-6.78333333,9.0,6.8,,7,0.1,2.5,100.0,,W
2026-02-09 03:00:00,1210635,Miranda do Douro,41.51666667,-6.28333333,4.0,7.3,,6,0.2,1.1,99.0,,SW
2026-02-09 03:00:00,1210637,Mogadouro,41.33333333,-6.73333333,20.5,7.4,0.0,6,0.0,5.7,99.0,,SW
2026-02-09 03:00:00,1210643,Paços Ferreira,41.27365,-8.38012,10.1,11.9,,6,0.1,2.8,100.0,,SW
2026-02-09 03:00:00,1210644,Carrazêda de Ansiães,41.23333333,-7.28333333,6.5,8.7,0.0,6,0.0,1.8,94.0,,SW
2026-02-09 03:00:00,1210654,Moncorvo,41.18333333,-7.01666667,9.4,10.3,0.0,7,0.0,2.6,84.0,1008.9,W
2026-02-09 03:00:00,1210655,"Pinhão, Santa Bárbara",41.172775,-7.5489722,2.9,10.2,,1,0.0,0.8,92.0,,N
2026-02-09 03:00:00,1210657,Luzim,41.14585,-8.2490333,4.3,11.2,0.0,6,0.1,1.2,97.0,,SW
2026-02-09 03:00:00,1210663,Moimenta da Beira,40.98333333,-7.6,4.3,9.3,0.1,6,0.0,1.2,93.0,,SW
2026-02-09 03:00:00,1210666,"Trancoso, Bandarra",40.78333333,-7.36666667,23.4,8.6,0.0,6,0.2,6.5,99.0,,SW
2026-02-09 03:00:00,1210669,Arouca,40.93333333,-8.25,4.7,12.5,0.0,7,0.0,1.3,98.0,,W
2026-02-09 03:00:00,1210671,"F. Castelo Rodrigo, V.Torpim",40.75,-6.88333333,16.6,9.3,0.0,6,0.0,4.6,99.0,,SW
2026-02-09 03:00:00,1210683,Guarda,40.53333333,-7.26666667,4.7,6.4,1.6,5,0.0,1.3,100.0,,S
2026-02-09 03:00:00,1210685,Nelas,40.51666667,-7.85,8.3,11.0,0.0,6,0.1,2.3,100.0,,SW
2026-02-09 03:00:00,1210686,"Pampilhosa da Serra, Fajão",40.145653,-7.92704,11.2,9.0,,7,0.6,3.1,100.0,,W
2026-02-09 03:00:00,1210690,Aldeia Souto (Q. Lageosa),40.35425833,-7.38931111,2.5,8.3,0.6,1,0.0,0.7,97.0,,N
2026-02-09 03:00:00,1210697,Lousã (Aeródromo),40.143922,-8.244066,5.0,13.3,,6,0.0,1.4,99.0,,SW
2026-02-09 03:00:00,1210698,Fundão,40.14063611,-7.55362778,3.6,8.7,0.3,4,0.0,1.0,98.0,,SE
2026-02-09 03:00:00,1210704,Dunas de Mira,40.445955,-8.76168055,9.4,14.7,0.0,6,0.0,2.6,97.0,,SW
2026-02-09 03:00:00,1210705,Anadia,40.438852,-8.439996,1.1,12.6,0.0,4,0.0,0.3,97.0,,SE
2026-02-09 03:00:00,1210707,"Coimbra, Bencanta",40.2134694,-8.45515277,3.6,13.0,0.5,7,0.1,1.0,100.0,,W
2026-02-09 03:00:00,1210716,Ansião,39.9,-8.4,9.4,10.2,1.2,7,,2.6,99.0,,W
2026-02-09 03:00:00,1210726,Alcobaça,39.51666667,-8.96666667,10.8,15.0,0.0,7,0.0,3.0,94.0,,W
2026-02-09 03:00:00,1210734,"Santarém, Fonte Boa",39.201216,-8.736656,4.3,12.6,0.0,5,0.0,1.2,98.0,1011.2,S
2026-02-09 03:00:00,1210735,Chamusca / Chouto,39.27,-8.3508,6.1,12.4,,5,0.1,1.7,100.0,1011.1,S
2026-02-09 03:00:00,1210739,"Torres Vedras, Dois Portos",39.04389444,-9.179,18.0,14.9,0.0,7,0.1,5.0,99.0,,W
2026-02-09 03:00:00,1210744,Coruche,38.94096667,-8.51073611,5.4,14.5,1.4,7,0.3,1.5,,,W
2026-02-09 03:00:00,1210750,Cabo da Roca,38.78171,-9.4975361,28.8,14.2,0.0,8,0.0,8.0,100.0,,NW
2026-02-09 03:00:00,1210752,Sintra/Tapada do Mouco,38.781669,-9.400398,15.8,12.4,,8,0.1,4.4,100.0,,NW
2026-02-09 03:00:00,1210762,"Lisboa, Tapada da Ajuda",38.70956111,-9.182825,6.5,15.0,0.0,6,0.1,1.8,100.0,,SW
2026-02-09 03:00:00,1210765,Cabo Raso,38.70900833,-9.48538333,25.2,14.6,,7,0.1,7.0,100.0,,W
2026-02-09 03:00:00,1210766,"Barreiro, Lavradio",38.67448611,-9.04766111,12.6,15.1,0.0,7,0.0,3.5,99.0,,W
2026-02-09 03:00:00,1210767,Pegões,38.65079,-8.63503,12.6,14.6,0.0,7,0.1,3.5,100.0,,W
2026-02-09 03:00:00,1210770,Setúbal,38.54846008,-8.89077058,18.4,15.5,259.4,8,0.0,5.1,92.0,,NW
2026-02-09 03:00:00,1210776,"Alcácer do Sal, Barrosinha",38.36666667,-8.48333333,22.3,15.1,0.0,7,0.4,6.2,99.0,,W
2026-02-09 03:00:00,1210783,Alvalade,37.946806,-8.394504,19.4,15.6,0.0,7,0.2,5.4,98.0,,W
2026-02-09 03:00:00,1210785,Ourique / Santana Da Serra,37.5025,-8.3019,,14.8,0.0,0,,,97.0,1013.2,
2026-02-09 03:00:00,1210789,Aljezur,37.31675278,-8.80001667,10.8,16.0,4.4,7,0.1,3.0,99.0,,W
2026-02-09 03:00:00,1210800,"Sabugal, Martim Rei",40.33918056,-7.03693333,8.3,6.9,0.0,5,0.0,2.3,99.0,,S
2026-02-09 03:00:00,1210806,"Proença-a-Nova, P.Moitas",39.73333333,-7.86666667,2.5,9.0,12.0,6,0.2,0.7,100.0,,SW
2026-02-09 03:00:00,1210824,"Avis, Benavila",39.1,-7.86666667,7.9,13.7,0.0,7,0.0,2.2,,,W
2026-02-09 03:00:00,1210826,Mora,38.94068,-8.16406,11.2,13.9,0.0,6,0.2,3.1,100.0,,SW
2026-02-09 03:00:00,1210835,Elvas,38.8908,-7.13976111,9.4,11.3,0.0,6,0.0,2.6,100.0,,SW
2026-02-09 03:00:00,1210837,Estremoz,38.86666667,-7.51666667,13.0,12.7,0.0,7,0.0,3.6,100.0,,W
2026-02-09 03:00:00,1210840,"Reguengos, S. P. do Corval",38.484866,-7.4729166,15.1,13.1,0.0,7,0.0,4.2,100.0,,W
2026-02-09 03:00:00,1210846,Montemor-O-Novo,38.6451,-8.1991,11.5,13.8,,7,0.4,3.2,100.0,1012.5,W
2026-02-09 03:00:00,1210847,Viana do Alentejo,38.3319194,-8.04553888,14.0,14.1,0.0,7,,3.9,,,W
2026-02-09 03:00:00,1210848,"Portel, Oriola",38.31666667,-7.86666667,8.3,14.0,,7,0.2,2.3,98.0,,W
2026-02-09 03:00:00,1210851,Amareleja,38.2007,-7.2261,11.9,,0.0,6,0.2,3.3,,1011.2,SW
2026-02-09 03:00:00,1210863,"Mértola, Vale Formoso",37.75,-7.55,18.0,14.7,0.0,7,0.0,5.0,98.0,,W
2026-02-09 03:00:00,1210864,"Castro Verde, N.Corvo",37.57655833,-7.97211389,14.0,14.8,0.0,7,0.1,3.9,99.0,,W
2026-02-09 03:00:00,1210865,"Alcoutim, Mart.Longo",37.43333333,-7.76666667,12.6,14.5,,7,0.0,3.5,99.0,1012.7,W
2026-02-09 03:00:00,1210866,Vila Real de S.António,37.1871055,-7.416325,,14.8,,0,0.0,,98.0,,
2026-02-09 03:00:00,1210874,Albufeira,37.0935,-8.262,22.0,14.4,,7,0.0,6.1,100.0,,W
2026-02-09 03:00:00,1210878,Portimão (Aeródromo),37.149167,-8.581389,19.8,16.1,0.2,7,0.0,5.5,95.0,1013.9,W
2026-02-09 03:00:00,1210881,"Olhão, EPPO",37.033,-7.821,14.0,15.5,0.0,6,0.0,3.9,100.0,1013.8,SW
2026-02-09 03:00:00,1210883,Tavira,37.12166968,-7.62050375,14.8,15.1,,6,0.0,4.1,97.0,1013.3,SW
2026-02-09 03:00:00,1210907,Faja / Ilha das Flores,39.45328,-31.2647,,18.0,,0,,,96.0,1005.7,
2026-02-09 03:00:00,1210932,"S. Miguel, Nordeste",37.83256,-25.150108,17.3,20.1,,7,0.0,4.8,77.0,,W
2026-02-09 03:00:00,1210956,"Madeira, Porto Moniz",32.867477,-17.171373,,19.1,0.1,0,0.0,,74.0,,
2026-02-09 03:00:00,1210960,"Madeira, S. Jorge, Santana",32.83446944,-16.906219,14.4,16.5,106.2,7,0.0,4.0,92.0,1023.3,W
2026-02-09 03:00:00,1210965,"Madeira, Santana",32.808238,-16.8864166,,14.7,39.0,0,0.0,,80.0,,
2026-02-09 03:00:00,1210967,"Madeira, São Vicente",32.8001833,-17.044722,,14.9,0.0,0,0.0,,84.0,,
2026-02-09 03:00:00,1210972,"Madeira, Pico Alto",32.693491,-16.903955,5.0,13.5,0.0,7,,1.4,73.0,,W
2026-02-09 03:00:00,1210973,"Madeira, Areeiro",32.71666667,-16.91666667,9.0,10.8,9.9,7,0.0,2.5,81.0,,W
2026-02-09 03:00:00,1210974,"Madeira, Pico do Areeiro",32.735107,-16.928271,,8.6,,0,0.0,,90.0,,
2026-02-09 03:00:00,1210975,"Madeira, Santo da Serra",32.7258972,-16.816822,,11.6,0.0,0,0.0,,93.0,,
2026-02-09 03:00:00,1210976,"Madeira, Monte",32.675833,-16.906944,4.3,12.9,5.8,2,0.0,1.2,86.0,,NE
2026-02-09 03:00:00,1210977,"Madeira, Cancela",32.64500556,-16.86575,3.2,14.6,0.0,3,0.0,0.9,87.0,,E
2026-02-09 03:00:00,1210978,"Madeira, S. Lourenço",32.747,-16.706,6.5,16.8,0.0,4,0.0,1.8,84.0,,SE
2026-02-09 03:00:00,1210984,"Madeira, Quinta Grande",32.6629722,-17.01503611,,12.8,0.0,0,0.0,,82.0,,
2026-02-09 03:00:00,1210986,Ponta do Sol/Lugar de Baixo,32.681502,-17.104167,4.7,17.2,0.0,3,0.0,1.3,79.0,,E
2026-02-09 03:00:00,1210987,Prazeres (Calheta),32.757205,-17.201551,15.5,13.3,0.0,8,0.0,4.3,96.0,,NW
2026-02-09 03:00:00,1210990,"Madeira, Calheta",32.81384167,-17.26321389,8.6,15.3,0.1,6,0.0,2.4,97.0,1022.1,SW
2026-02-09 03:00:00,1240546,"Porto, Serra do Pilar",41.1385194,-8.6025,,13.3,,0,0.0,,100.0,1008.6,
2026-02-09 03:00:00,1240566,Vila Real (Cidade),41.30898056,-7.740522,5.0,10.4,,5,0.0,1.4,99.0,,S
2026-02-09 03:00:00,1240610,Viana do Castelo,41.695,-8.82916,,11.0,,0,0.0,,99.0,,
2026-02-09 03:00:00,1240675,Viseu (Cidade),40.662738,-7.9039694,,,,0,0.1,,27.0,,
2026-02-09 03:00:00,1240903,"Porto, Massarelos",41.15257,-8.62598,,13.2,,0,,,100.0,,
2026-02-09 03:00:00,1240971,"Madeira, Funchal, Lido",32.63655,-16.935592,0.0,17.6,0.0,0,0.0,0.0,79.0,,
2026-02-09 03:00:00,1259203,Seia/Aeródromo,40.45517056,-7.68614846,13.0,11.7,,6,0.0,3.6,96.0,1010.7,SW
2026-02-09 03:00:00,1259204,Seia/Senhora do Espinheiro,40.412775,-7.673406,15.5,8.0,,6,0.0,4.3,100.0,1011.3,SW
2026-02-09 03:00:00,5210758,Alcochete / Campo Tiro,38.7627,-8.7825,8.3,14.7,,6,0.0,2.3,100.0,1011.5,SW
2026-02-09 03:00:00,6210817,Ponte de Sôr / Aeródromo,39.21536,-8.05417,7.6,12.8,,6,,2.1,98.0,1010.8,SW
2026-02-09 03:00:00,6210872,Loulé (CML),37.129946,-8.06523593,15.5,,,7,0.0,4.3,,1013.6,W
2026-02-09 03:00:00,6210879,Portimão (Praia da Rocha),37.11670461,-8.52946314,18.4,15.8,,7,0.0,5.1,99.0,,W
2026-02-09 03:00:00,6211211,Monção - Guimil (CIM),42.042944,-8.421872,11.2,,0.4,6,,3.1,,1006.6,SW
2026-02-09 03:00:00,6211213,Paredes De Coura - Vascões (CIM),41.913444,-8.492111,6.8,8.9,5.2,6,,1.9,100.0,1007.7,SW
2026-02-09 03:00:00,6211216,Arcos De Valdevez - Heliporto (CIM),41.831,-8.44375,5.0,9.6,,3,0.6,1.4,99.0,1008.6,E
2026-02-09 03:00:00,6211217,Viana Do Castelo - Fonte Louçã (CIM),41.745722,-8.815306,22.7,,1.1,6,0.0,6.3,,1012.0,SW
2026-02-09 03:00:00,6211218,Ponte De Lima - Anais (CIM),41.698083,-8.522444,1.8,9.8,2.5,3,,0.5,96.0,1007.9,E
2026-02-09 03:00:00,6212121,Terras de Bouro/Barral (CIM),41.70225278,-8.31808611,1.8,9.3,,8,1.0,0.5,95.0,1007.0,NW
2026-02-09 03:00:00,6212122,Amares Caldelas (CIM),41.66796389,-8.37977778,4.0,9.6,,4,0.6,1.1,95.0,1009.4,SE
2026-02-09 03:00:00,6212123,Vila Verde (CIM),41.64686111,-8.43398056,2.5,9.8,,2,,0.7,91.0,1009.0,NE
2026-02-09 03:00:00,6212124,Braga (CIM),41.53568333,-8.42514722,9.7,12.1,,6,0.1,2.7,100.0,1009.8,SW
2026-02-09 03:00:00,6212126,Esposende (CIM),41.52645556,-8.77984444,15.8,13.8,,5,0.0,4.4,98.0,1009.2,S
2026-02-09 03:00:00,6213012,Carregal do Sal (CIM),40.46718056,-7.92626389,9.7,11.3,,6,,2.7,98.0,,SW
2026-02-09 03:00:00,6213013,Castro Daire / Mézio (CIM),40.98086111,-7.88318889,13.7,8.0,,6,,3.8,98.0,,SW
2026-02-09 03:00:00,6213014,Mangualde / Chãs de Tavares  (CIM),40.61096111,-7.60838889,24.8,9.9,,6,0.1,6.9,100.0,,SW
2026-02-09 03:00:00,6213016,Oliveira de Frades (CIM),40.716925,-8.20133889,14.8,10.2,,5,,4.1,100.0,,S
2026-02-09 03:00:00,6213017,Penalva do Castelo (CIM),40.65706389,-7.69655278,12.2,10.6,,6,0.1,3.4,100.0,,SW
2026-02-09 03:00:00,6213020,Satão (CIM),40.76072778,-7.72019722,10.8,8.7,,6,0.8,3.0,100.0,,SW
2026-02-09 03:00:00,6213022,Vila Nova de Paiva (CIM),40.85595,-7.72716389,7.2,8.4,,6,0.1,2.0,,,SW
2026-02-09 03:00:00,6213611,Arganil / Aeródromo (CIM),40.274578,-7.974399,1.8,12.2,,6,0.2,0.5,98.0,,SW
2026-02-09 03:00:00,6213612,Cantanhede / Fonte Dom Pedro (CIM),40.341894,-8.577613,4.0,13.8,,7,0.0,1.1,96.0,,W
2026-02-09 03:00:00,6213613,Coimbra / Mata de São Pedro (CIM),40.330787,-8.374887,4.7,10.8,,6,,1.3,100.0,,SW
2026-02-09 03:00:00,6213614,Góis / Quinta da Ribeira (CIM),40.171642,-8.103238,3.6,,,1,,1.0,,,N
2026-02-09 03:00:00,6213615,Mealhada / Quinta do Vale (CIM),40.373343,-8.4388429,4.0,12.0,,4,0.0,1.1,99.0,,SE
2026-02-09 03:00:00,6213616,Mortágua / Aeródromo (CIM),40.426239,-8.232142,4.0,12.4,,5,0.2,1.1,100.0,,S
2026-02-09 03:00:00,6213617,Penacova / Hombres (CIM),40.280921,-8.198685,4.3,,,6,0.1,1.2,99.0,,SW
2026-02-09 03:00:00,6213619,Vila Nova de Poiares (CIM),40.211411,-8.241995,7.2,12.9,,5,0.0,2.0,95.0,,S
2026-02-09 03:00:00,6213620,Oliveira do Hospital (CIM),40.413306,-7.867972,6.5,11.6,,5,0.1,1.8,96.0,,S
2026-02-09 03:00:00,6215302,"Lisboa, Carnide (CML)",38.7751,-9.1855,11.5,14.9,,7,,3.2,100.0,1011.3,W
2026-02-09 03:00:00,6215360,Oeiras / Vila Fria (CMO),38.7239536,-9.2939255,13.3,14.8,0.0,7,0.0,3.7,100.0,1011.7,W
2026-02-09 03:00:00,7240919,"Lisboa, Amoreiras (LFCL)",38.7239,-9.1649,7.6,14.3,,8,0.1,2.1,100.0,1012.6,NW
2026-02-09 04:00:00,11217160,Santa Maria / Praia Formosa (DROTRH),36.9542,-25.0917,14.8,16.2,0.0,8,0.0,4.1,100.0,,NW
2026-02-09 04:00:00,11217165,Santa Maria / Maia (DROTRH),36.9412,-25.0176,18.4,16.4,0.0,6,0.0,5.1,100.0,,SW
2026-02-09 04:00:00,11217225,São Miguel / Sete Cidades (DROTRH),37.8679,-25.772,23.0,16.5,1.7,6,0.0,6.4,100.0,,SW
2026-02-09 04:00:00,11217255,São Miguel / Lagoa das Furnas (DROTRH),37.7619,-25.3291,16.9,16.6,0.1,5,0.0,4.7,100.0,,S
2026-02-09 04:00:00,11217430,Graciosa / Serra das Fontes (DROTRH),39.0672,-28.0038,25.2,17.0,0.0,7,0.0,7.0,100.0,,W
2026-02-09 04:00:00,11217510,São Jorge / Pico do Areeiro (DROTRH),38.6435,-28.0591,70.2,13.8,0.0,6,0.5,19.5,100.0,,SW
2026-02-09 04:00:00,11217625,Pico / Cabeço do Teicho (DROTRH),38.489,-28.3534,35.6,14.4,0.0,6,1.7,9.9,99.0,,SW
2026-02-09 04:00:00,11217645,Pico / Cabecinho (DROTRH),38.4338,-28.1141,8.6,14.9,0.0,5,0.9,2.4,100.0,,S
2026-02-09 04:00:00,11217730,Faial / Cabeço Verde (DROTRH),38.5843,-28.7576,24.5,15.4,0.0,5,0.1,6.8,100.0,,S
2026-02-09 04:00:00,1200501,Flores (Aeródromo),39.45819,-31.1301,28.8,19.5,0.0,6,0.0,8.0,85.0,1004.3,SW
2026-02-09 04:00:00,1200502,Corvo (Aeródromo),39.67389,-31.11362,36.7,17.8,0.0,7,0.0,10.2,93.0,1003.4,W
2026-02-09 04:00:00,1200504,Pico (Aeródromo),38.55219,-28.44137,26.3,18.7,0.0,6,0.0,7.3,91.0,1009.3,SW
2026-02-09 04:00:00,1200505,Horta / Aeroporto,38.5211,-28.7128,29.9,17.7,,6,0.0,8.3,95.0,1010.1,SW
2026-02-09 04:00:00,1200506,Horta (Obs. Principe Alberto),38.540781,-28.63225,24.5,17.7,0.0,6,0.0,6.8,99.0,1009.5,SW
2026-02-09 04:00:00,1200507,Graciosa (Aeródromo),39.09036,-28.02852,34.9,17.9,0.0,6,0.0,9.7,89.0,1008.5,SW
2026-02-09 04:00:00,1200510,São Jorge,38.66,-28.17,16.2,18.3,0.0,6,0.0,4.5,,1010.6,SW
2026-02-09 04:00:00,1200511,Angra do Heroísmo,38.6659435,-27.216567,24.8,16.5,0.0,7,0.7,6.9,100.0,1011.1,W
2026-02-09 04:00:00,1200512,P. Delgada (Aeródromo),37.74414,-25.6953048,27.4,16.4,0.0,7,0.0,7.6,98.0,1013.9,W
2026-02-09 04:00:00,1200515,Santa Maria (Aeródromo),36.967175,-25.1679,41.0,16.9,0.1,6,0.0,11.4,,1016.0,SW
2026-02-09 04:00:00,1200521,Santa Catarina (Aeródromo),32.69688,-16.77612,,16.6,0.0,0,0.0,,75.0,1022.9,
2026-02-09 04:00:00,1200522,Funchal,32.64786,-16.888,3.2,16.6,0.0,1,0.0,0.9,72.0,1023.0,N
2026-02-09 04:00:00,1200524,Porto Santo,33.074029,-16.34868,20.2,17.3,0.2,7,0.0,5.6,90.0,1022.7,W
2026-02-09 04:00:00,1200533,Sagres,37.012835,-8.949089,27.0,15.3,,7,0.0,7.5,100.0,1014.4,W
2026-02-09 04:00:00,1200535,Lisboa (Geofísico),38.71907778,-9.14972222,12.2,14.8,0.0,7,0.0,3.4,100.0,1011.9,W
2026-02-09 04:00:00,1200541,Sines,37.954504,-8.838271,21.2,14.8,0.0,7,0.1,5.9,100.0,1013.3,W
2026-02-09 04:00:00,1200545,"Porto, Pedras Rubras (Aeródromo)",41.233502,-8.681332,13.0,13.4,0.0,6,0.0,3.6,98.0,1009.1,SW
2026-02-09 04:00:00,1200548,Coimbra (Aeródromo),40.15006944,-8.46669167,,,0.0,0,0.2,,,,
2026-02-09 04:00:00,1200551,"Viana Castelo, Chafé",41.648875,-8.804606,9.0,13.1,0.0,6,0.0,2.5,100.0,1008.2,SW
2026-02-09 04:00:00,1200554,Faro (Aeródromo),37.016579,-7.971953,24.1,15.2,0.0,7,0.0,6.7,98.0,1013.6,W
2026-02-09 04:00:00,1200558,Évora (C.Coordenação),38.53336389,-7.88338056,19.8,13.6,0.0,7,0.2,5.5,,1011.7,W
2026-02-09 04:00:00,1200559,Viseu (Aeródromo),40.72645,-7.887472,10.8,10.0,,7,0.1,3.0,99.0,1009.6,W
2026-02-09 04:00:00,1200560,Viseu (C.Coordenação),40.71492222,-7.89592222,12.2,9.7,,7,0.0,3.4,100.0,,W
2026-02-09 04:00:00,1200562,Beja,38.02493056,-7.867275,25.9,14.2,0.0,7,0.1,7.2,100.0,1011.9,W
2026-02-09 04:00:00,1200567,Vila Real,41.27418611,-7.7171,2.2,10.1,0.0,4,0.2,0.6,100.0,1008.8,SE
2026-02-09 04:00:00,1200568,Penhas Douradas,40.41136667,-7.55865278,,5.5,,0,,,100.0,,
2026-02-09 04:00:00,1200571,Portalegre,39.29546944,-7.41996944,22.0,10.5,0.0,8,0.4,6.1,100.0,1011.1,NW
2026-02-09 04:00:00,1200575,Bragança,41.80388889,-6.74283889,6.5,5.5,0.0,4,0.0,1.8,,1009.9,SE
2026-02-09 04:00:00,1200576,Bragança (Aeródromo),41.85763611,-6.70796389,7.6,6.5,,4,0.0,2.1,99.0,1008.6,SE
2026-02-09 04:00:00,1200843,Évora (Aeródromo),38.5296,-7.8916,22.0,13.4,,7,0.1,6.1,100.0,1011.4,W
2026-02-09 04:00:00,1210513,P. Delgada (Obs. A. Chaves),37.7464,-25.662283,3.2,16.9,0.0,5,0.0,0.9,,,S
2026-02-09 04:00:00,1210517,Flores / Morro Alto,39.4633,-31.2207,103.0,13.5,,6,0.0,28.6,100.0,998.1,SW
2026-02-09 04:00:00,1210518,São Miguel - Pico Santos De Cima,37.819,-25.7512,72.0,13.4,,7,0.2,20.0,100.0,1012.6,W
2026-02-09 04:00:00,1210520,Ilhas selvagens,30.140595,-15.869153,22.7,16.6,0.0,8,0.0,6.3,91.0,1024.6,NW
2026-02-09 04:00:00,1210550,Coruche / Cruz Do Leão,39.07101,-8.4,7.2,13.8,,7,0.0,2.0,100.0,1011.4,W
2026-02-09 04:00:00,1210553,Loulé / Cavalos De Caldeirão,37.3042,-7.9534,27.7,12.7,,7,0.2,7.7,100.0,1013.7,W
2026-02-09 04:00:00,1210577,"Odemira, S.Teotónio",37.54710833,-8.72899167,22.3,15.0,0.0,7,0.0,6.2,99.0,,W
2026-02-09 04:00:00,1210580,"Lisboa, Relógio",38.7618,-9.1254,23.4,14.6,,7,0.1,6.5,96.0,1012.2,W
2026-02-09 04:00:00,1210604,V.N.Cerveira (Aeródromo),41.96673056,-8.66676111,12.6,13.7,0.0,6,0.0,3.5,92.0,1007.8,SW
2026-02-09 04:00:00,1210605,"Monção, Valinha",42.06669,-8.383347,10.1,12.2,0.0,5,0.0,2.8,92.0,,S
2026-02-09 04:00:00,1210606,"Lamas de Mouro, P.Ribeiro",42.03333333,-8.18333333,,8.3,0.0,0,0.1,,98.0,1008.7,
2026-02-09 04:00:00,1210611,Montalegre,41.82276667,-7.78797778,11.5,7.1,0.0,7,0.0,3.2,99.0,,W
2026-02-09 04:00:00,1210612,Vinhais,41.8434,-7.0034416,7.9,5.6,,8,0.0,2.2,100.0,,NW
2026-02-09 04:00:00,1210615,Ponte de Lima,41.75013889,-8.56671389,1.8,10.4,0.0,3,0.0,0.5,99.0,,E
2026-02-09 04:00:00,1210616,Chaves (Aeródromo),41.72516667,-7.46540833,2.2,7.7,0.0,1,0.1,0.6,97.0,1008.9,N
2026-02-09 04:00:00,1210619,Cabril,41.71666667,-8.01666667,10.8,9.5,,7,0.6,3.0,99.0,,W
2026-02-09 04:00:00,1210622,"Braga, Merelim",41.56678056,-8.45003056,1.8,9.8,0.2,1,0.1,0.5,100.0,1009.0,N
2026-02-09 04:00:00,1210630,Cabeceiras de Basto,41.53333333,-7.96666667,1.1,9.1,0.0,6,0.1,0.3,100.0,,SW
2026-02-09 04:00:00,1210632,Mirandela,41.51478611,-7.19083889,0.0,8.4,0.0,0,0.0,0.0,97.0,,
2026-02-09 04:00:00,1210633,"Macedo Cavaleiros, Bagueixe",41.56666667,-6.78333333,4.0,6.9,,6,0.0,1.1,100.0,,SW
2026-02-09 04:00:00,1210635,Miranda do Douro,41.51666667,-6.28333333,12.6,7.7,,7,0.1,3.5,99.0,,W
2026-02-09 04:00:00,1210637,Mogadouro,41.33333333,-6.73333333,26.6,7.7,0.0,6,0.0,7.4,99.0,,SW
2026-02-09 04:00:00,1210643,Paços Ferreira,41.27365,-8.38012,9.7,11.9,,6,0.1,2.7,100.0,,SW
2026-02-09 04:00:00,1210644,Carrazêda de Ansiães,41.23333333,-7.28333333,8.3,8.8,0.0,6,0.0,2.3,94.0,,SW
2026-02-09 04:00:00,1210654,Moncorvo,41.18333333,-7.01666667,16.6,10.4,0.0,7,0.0,4.6,84.0,1008.7,W
2026-02-09 04:00:00,1210655,"Pinhão, Santa Bárbara",41.172775,-7.5489722,4.3,11.0,,6,0.1,1.2,91.0,,SW
2026-02-09 04:00:00,1210657,Luzim,41.14585,-8.2490333,5.0,11.1,0.1,6,0.0,1.4,97.0,,SW
2026-02-09 04:00:00,1210663,Moimenta da Beira,40.98333333,-7.6,6.5,9.7,0.0,7,0.0,1.8,87.0,,W
2026-02-09 04:00:00,1210666,"Trancoso, Bandarra",40.78333333,-7.36666667,24.5,8.6,0.0,6,0.2,6.8,99.0,,SW
2026-02-09 04:00:00,1210669,Arouca,40.93333333,-8.25,5.4,12.3,0.0,7,0.1,1.5,98.0,,W
2026-02-09 04:00:00,1210671,"F. Castelo Rodrigo, V.Torpim",40.75,-6.88333333,12.6,9.5,0.0,6,0.0,3.5,99.0,,SW
2026-02-09 04:00:00,1210683,Guarda,40.53333333,-7.26666667,9.0,7.2,6.2,7,0.0,2.5,100.0,,W
2026-02-09 04:00:00,1210685,Nelas,40.51666667,-7.85,7.9,11.0,0.0,6,0.0,2.2,100.0,,SW
2026-02-09 04:00:00,1210686,"Pampilhosa da Serra, Fajão",40.145653,-7.92704,9.4,8.8,,7,0.2,2.6,100.0,,W
2026-02-09 04:00:00,1210690,Aldeia Souto (Q. Lageosa),40.35425833,-7.38931111,2.9,8.4,0.7,2,0.0,0.8,97.0,,NE
2026-02-09 04:00:00,1210697,Lousã (Aeródromo),40.143922,-8.244066,4.0,13.4,,6,0.3,1.1,99.0,,SW
2026-02-09 04:00:00,1210698,Fundão,40.14063611,-7.55362778,5.0,8.4,0.2,4,0.0,1.4,100.0,,SE
2026-02-09 04:00:00,1210704,Dunas de Mira,40.445955,-8.76168055,12.2,14.7,0.0,6,0.0,3.4,97.0,,SW
2026-02-09 04:00:00,1210705,Anadia,40.438852,-8.439996,2.2,12.8,0.0,6,0.1,0.6,97.0,,SW
2026-02-09 04:00:00,1210707,"Coimbra, Bencanta",40.2134694,-8.45515277,3.6,13.4,0.0,7,0.0,1.0,100.0,,W
2026-02-09 04:00:00,1210716,Ansião,39.9,-8.4,7.6,11.1,0.0,7,,2.1,99.0,,W
2026-02-09 04:00:00,1210726,Alcobaça,39.51666667,-8.96666667,7.6,14.8,0.0,7,0.1,2.1,94.0,,W
2026-02-09 04:00:00,1210734,"Santarém, Fonte Boa",39.201216,-8.736656,8.6,14.3,0.0,6,0.1,2.4,98.0,1011.4,SW
2026-02-09 04:00:00,1210735,Chamusca / Chouto,39.27,-8.3508,6.5,13.5,,6,0.1,1.8,100.0,1011.2,SW
2026-02-09 04:00:00,1210739,"Torres Vedras, Dois Portos",39.04389444,-9.179,19.4,14.7,0.0,7,0.0,5.4,99.0,,W
2026-02-09 04:00:00,1210744,Coruche,38.94096667,-8.51073611,8.6,14.6,1.4,7,0.0,2.4,,,W
2026-02-09 04:00:00,1210750,Cabo da Roca,38.78171,-9.4975361,25.9,14.1,0.0,8,0.0,7.2,100.0,,NW
2026-02-09 04:00:00,1210752,Sintra/Tapada do Mouco,38.781669,-9.400398,15.8,12.2,,8,0.0,4.4,100.0,,NW
2026-02-09 04:00:00,1210762,"Lisboa, Tapada da Ajuda",38.70956111,-9.182825,12.6,15.0,0.0,7,0.0,3.5,100.0,,W
2026-02-09 04:00:00,1210765,Cabo Raso,38.70900833,-9.48538333,24.8,14.6,,7,0.0,6.9,100.0,,W
2026-02-09 04:00:00,1210766,"Barreiro, Lavradio",38.67448611,-9.04766111,13.0,15.3,0.0,7,0.0,3.6,99.0,,W
2026-02-09 04:00:00,1210767,Pegões,38.65079,-8.63503,15.5,14.6,0.0,7,0.0,4.3,100.0,,W
2026-02-09 04:00:00,1210770,Setúbal,38.54846008,-8.89077058,17.3,15.4,20.9,7,0.0,4.8,93.0,,W
2026-02-09 04:00:00,1210776,"Alcácer do Sal, Barrosinha",38.36666667,-8.48333333,20.2,15.1,0.0,7,0.1,5.6,99.0,,W
2026-02-09 04:00:00,1210783,Alvalade,37.946806,-8.394504,18.7,15.7,0.0,7,0.0,5.2,98.0,,W
2026-02-09 04:00:00,1210785,Ourique / Santana Da Serra,37.5025,-8.3019,,14.9,0.0,0,,,97.0,1013.3,
2026-02-09 04:00:00,1210789,Aljezur,37.31675278,-8.80001667,5.4,16.0,8.5,6,0.1,1.5,99.0,,SW
2026-02-09 04:00:00,1210790,Fóia,37.3143,-8.595733,46.1,,,8,,12.8,,,NW
2026-02-09 04:00:00,1210800,"Sabugal, Martim Rei",40.33918056,-7.03693333,5.4,7.0,0.0,6,0.0,1.5,99.0,,SW
2026-02-09 04:00:00,1210806,"Proença-a-Nova, P.Moitas",39.73333333,-7.86666667,5.8,9.1,12.0,7,0.1,1.6,100.0,,W
2026-02-09 04:00:00,1210824,"Avis, Benavila",39.1,-7.86666667,9.0,13.9,0.0,7,0.2,2.5,,,W
2026-02-09 04:00:00,1210826,Mora,38.94068,-8.16406,10.8,14.1,0.0,6,0.2,3.0,100.0,,SW
2026-02-09 04:00:00,1210835,Elvas,38.8908,-7.13976111,7.2,11.7,0.0,6,0.2,2.0,100.0,,SW
2026-02-09 04:00:00,1210837,Estremoz,38.86666667,-7.51666667,10.1,12.8,0.0,7,0.2,2.8,100.0,,W
2026-02-09 04:00:00,1210840,"Reguengos, S. P. do Corval",38.484866,-7.4729166,10.1,13.1,0.2,6,0.2,2.8,100.0,,SW
2026-02-09 04:00:00,1210846,Montemor-O-Novo,38.6451,-8.1991,15.8,14.0,,7,0.2,4.4,100.0,1012.5,W
2026-02-09 04:00:00,1210847,Viana do Alentejo,38.3319194,-8.04553888,19.4,14.2,0.4,7,,5.4,,,W
2026-02-09 04:00:00,1210848,"Portel, Oriola",38.31666667,-7.86666667,14.4,14.3,,7,0.1,4.0,98.0,,W
2026-02-09 04:00:00,1210851,Amareleja,38.2007,-7.2261,5.8,,0.0,7,0.0,1.6,,1011.4,W
2026-02-09 04:00:00,1210863,"Mértola, Vale Formoso",37.75,-7.55,17.6,14.8,0.0,7,0.4,4.9,98.0,,W
2026-02-09 04:00:00,1210864,"Castro Verde, N.Corvo",37.57655833,-7.97211389,18.4,14.8,0.0,7,0.0,5.1,99.0,,W
2026-02-09 04:00:00,1210865,"Alcoutim, Mart.Longo",37.43333333,-7.76666667,15.1,14.6,,7,0.0,4.2,99.0,1012.9,W
2026-02-09 04:00:00,1210866,Vila Real de S.António,37.1871055,-7.416325,,14.9,,0,0.0,,98.0,,
2026-02-09 04:00:00,1210874,Albufeira,37.0935,-8.262,18.0,14.4,,7,0.0,5.0,100.0,,W
2026-02-09 04:00:00,1210878,Portimão (Aeródromo),37.149167,-8.581389,25.9,16.2,0.0,7,0.0,7.2,95.0,1014.0,W
2026-02-09 04:00:00,1210881,"Olhão, EPPO",37.033,-7.821,13.0,15.5,0.0,6,0.0,3.6,100.0,1014.1,SW
2026-02-09 04:00:00,1210883,Tavira,37.12166968,-7.62050375,17.3,15.2,,6,0.1,4.8,98.0,1013.5,SW
2026-02-09 04:00:00,1210907,Faja / Ilha das Flores,39.45328,-31.2647,,18.1,,0,,,96.0,1005.2,
2026-02-09 04:00:00,1210932,"S. Miguel, Nordeste",37.83256,-25.150108,19.4,19.7,,6,0.0,5.4,78.0,,SW
2026-02-09 04:00:00,1210956,"Madeira, Porto Moniz",32.867477,-17.171373,,19.3,0.5,0,0.0,,73.0,,
2026-02-09 04:00:00,1210960,"Madeira, S. Jorge, Santana",32.83446944,-16.906219,4.3,17.1,67.8,1,0.0,1.2,85.0,1022.9,N
2026-02-09 04:00:00,1210965,"Madeira, Santana",32.808238,-16.8864166,,15.2,38.4,0,0.0,,81.0,,
2026-02-09 04:00:00,1210967,"Madeira, São Vicente",32.8001833,-17.044722,,15.3,0.1,0,0.0,,83.0,,
2026-02-09 04:00:00,1210972,"Madeira, Pico Alto",32.693491,-16.903955,2.5,13.5,0.0,7,,0.7,74.0,,W
2026-02-09 04:00:00,1210973,"Madeira, Areeiro",32.71666667,-16.91666667,4.0,10.7,9.4,9,0.0,1.1,82.0,,N
2026-02-09 04:00:00,1210974,"Madeira, Pico do Areeiro",32.735107,-16.928271,,8.8,,0,0.0,,90.0,,
2026-02-09 04:00:00,1210975,"Madeira, Santo da Serra",32.7258972,-16.816822,,12.1,0.0,0,0.0,,90.0,,
2026-02-09 04:00:00,1210976,"Madeira, Monte",32.675833,-16.906944,3.2,13.1,7.2,2,0.0,0.9,82.0,,NE
2026-02-09 04:00:00,1210977,"Madeira, Cancela",32.64500556,-16.86575,4.7,14.7,0.0,3,0.0,1.3,87.0,,E
2026-02-09 04:00:00,1210978,"Madeira, S. Lourenço",32.747,-16.706,9.7,16.7,0.0,5,0.0,2.7,85.0,,S
2026-02-09 04:00:00,1210984,"Madeira, Quinta Grande",32.6629722,-17.01503611,,13.0,0.0,0,0.0,,81.0,,
2026-02-09 04:00:00,1210986,Ponta do Sol/Lugar de Baixo,32.681502,-17.104167,5.8,17.3,0.0,3,0.0,1.6,81.0,,E
2026-02-09 04:00:00,1210987,Prazeres (Calheta),32.757205,-17.201551,12.6,13.9,0.0,8,0.0,3.5,95.0,,NW
2026-02-09 04:00:00,1210990,"Madeira, Calheta",32.81384167,-17.26321389,3.6,15.2,0.0,6,0.0,1.0,97.0,1021.5,SW
2026-02-09 04:00:00,1240546,"Porto, Serra do Pilar",41.1385194,-8.6025,,13.3,,0,0.0,,100.0,1008.6,
2026-02-09 04:00:00,1240566,Vila Real (Cidade),41.30898056,-7.740522,3.6,10.5,,5,0.1,1.0,98.0,,S
2026-02-09 04:00:00,1240610,Viana do Castelo,41.695,-8.82916,,11.8,,0,0.0,,99.0,,
2026-02-09 04:00:00,1240675,Viseu (Cidade),40.662738,-7.9039694,,,,0,0.0,,20.0,,
2026-02-09 04:00:00,1240903,"Porto, Massarelos",41.15257,-8.62598,,13.3,,0,,,100.0,,
2026-02-09 04:00:00,1240971,"Madeira, Funchal, Lido",32.63655,-16.935592,0.0,17.5,0.0,0,0.0,0.0,79.0,,
2026-02-09 04:00:00,1259203,Seia/Aeródromo,40.45517056,-7.68614846,13.3,11.7,,6,0.0,3.7,96.0,1010.7,SW
2026-02-09 04:00:00,1259204,Seia/Senhora do Espinheiro,40.412775,-7.673406,10.1,8.2,,6,0.0,2.8,100.0,1011.1,SW
2026-02-09 04:00:00,5210758,Alcochete / Campo Tiro,38.7627,-8.7825,6.5,14.7,,6,0.0,1.8,100.0,1011.6,SW
2026-02-09 04:00:00,6210817,Ponte de Sôr / Aeródromo,39.21536,-8.05417,9.0,13.4,,6,,2.5,98.0,1010.9,SW
2026-02-09 04:00:00,6210872,Loulé (CML),37.129946,-8.06523593,11.9,,,7,0.0,3.3,,1013.9,W
2026-02-09 04:00:00,6210879,Portimão (Praia da Rocha),37.11670461,-8.52946314,25.6,15.8,,7,0.1,7.1,99.0,,W
2026-02-09 04:00:00,6211211,Monção - Guimil (CIM),42.042944,-8.421872,10.4,,0.1,5,,2.9,,1006.6,S
2026-02-09 04:00:00,6211213,Paredes De Coura - Vascões (CIM),41.913444,-8.492111,6.1,9.0,0.1,6,,1.7,100.0,1008.2,SW
2026-02-09 04:00:00,6211216,Arcos De Valdevez - Heliporto (CIM),41.831,-8.44375,4.0,10.2,,6,0.3,1.1,100.0,1008.5,SW
2026-02-09 04:00:00,6211217,Viana Do Castelo - Fonte Louçã (CIM),41.745722,-8.815306,31.0,,1.0,6,0.0,8.6,,1010.9,SW
2026-02-09 04:00:00,6211218,Ponte De Lima - Anais (CIM),41.698083,-8.522444,3.6,10.3,2.9,8,,1.0,96.0,1008.4,NW
2026-02-09 04:00:00,6212121,Terras de Bouro/Barral (CIM),41.70225278,-8.31808611,2.9,9.6,,8,0.1,0.8,95.0,1007.0,NW
2026-02-09 04:00:00,6212122,Amares Caldelas (CIM),41.66796389,-8.37977778,2.9,9.8,,2,0.0,0.8,95.0,1009.3,NE
2026-02-09 04:00:00,6212123,Vila Verde (CIM),41.64686111,-8.43398056,1.8,10.0,,6,,0.5,91.0,1009.0,SW
2026-02-09 04:00:00,6212124,Braga (CIM),41.53568333,-8.42514722,10.8,12.2,,6,0.0,3.0,100.0,1009.8,SW
2026-02-09 04:00:00,6212126,Esposende (CIM),41.52645556,-8.77984444,20.5,13.9,,6,0.0,5.7,98.0,1009.2,SW
2026-02-09 04:00:00,6213012,Carregal do Sal (CIM),40.46718056,-7.92626389,9.4,11.4,,6,,2.6,99.0,,SW
2026-02-09 04:00:00,6213013,Castro Daire / Mézio (CIM),40.98086111,-7.88318889,8.3,8.0,,6,,2.3,94.0,,SW
2026-02-09 04:00:00,6213014,Mangualde / Chãs de Tavares  (CIM),40.61096111,-7.60838889,21.6,9.8,,6,0.0,6.0,100.0,,SW
2026-02-09 04:00:00,6213016,Oliveira de Frades (CIM),40.716925,-8.20133889,11.9,10.0,,5,,3.3,100.0,,S
2026-02-09 04:00:00,6213017,Penalva do Castelo (CIM),40.65706389,-7.69655278,11.9,10.5,,7,0.0,3.3,100.0,,W
2026-02-09 04:00:00,6213020,Satão (CIM),40.76072778,-7.72019722,11.9,9.0,,6,0.0,3.3,100.0,,SW
2026-02-09 04:00:00,6213022,Vila Nova de Paiva (CIM),40.85595,-7.72716389,7.6,8.3,,6,0.0,2.1,,,SW
2026-02-09 04:00:00,6213611,Arganil / Aeródromo (CIM),40.274578,-7.974399,1.4,12.2,,1,0.7,0.4,98.0,,N
2026-02-09 04:00:00,6213612,Cantanhede / Fonte Dom Pedro (CIM),40.341894,-8.577613,7.2,13.8,,6,0.1,2.0,96.0,,SW
2026-02-09 04:00:00,6213613,Coimbra / Mata de São Pedro (CIM),40.330787,-8.374887,4.7,11.1,,6,,1.3,100.0,,SW
2026-02-09 04:00:00,6213614,Góis / Quinta da Ribeira (CIM),40.171642,-8.103238,5.8,,,5,,1.6,,,S
2026-02-09 04:00:00,6213615,Mealhada / Quinta do Vale (CIM),40.373343,-8.4388429,4.3,12.1,,5,0.1,1.2,99.0,,S
2026-02-09 04:00:00,6213616,Mortágua / Aeródromo (CIM),40.426239,-8.232142,4.0,12.6,,6,0.0,1.1,100.0,,SW
2026-02-09 04:00:00,6213617,Penacova / Hombres (CIM),40.280921,-8.198685,6.5,,,6,0.3,1.8,99.0,,SW
2026-02-09 04:00:00,6213619,Vila Nova de Poiares (CIM),40.211411,-8.241995,5.4,13.3,,4,0.6,1.5,94.0,,SE
2026-02-09 04:00:00,6213620,Oliveira do Hospital (CIM),40.413306,-7.867972,3.2,11.5,,6,0.0,0.9,97.0,,SW
2026-02-09 04:00:00,6215302,"Lisboa, Carnide (CML)",38.7751,-9.1855,11.2,14.7,,7,,3.1,100.0,1011.5,W
2026-02-09 04:00:00,6215360,Oeiras / Vila Fria (CMO),38.7239536,-9.2939255,15.1,14.7,0.0,7,0.0,4.2,100.0,1012.0,W
2026-02-09 04:00:00,7240919,"Lisboa, Amoreiras (LFCL)",38.7239,-9.1649,9.7,14.2,,7,0.0,2.7,100.0,1012.7,W
2026-02-09 05:00:00,11217160,Santa Maria / Praia Formosa (DROTRH),36.9542,-25.0917,13.3,16.4,0.0,8,0.0,3.7,100.0,,NW
2026-02-09 05:00:00,11217165,Santa Maria / Maia (DROTRH),36.9412,-25.0176,24.8,16.4,0.0,6,0.0,6.9,100.0,,SW
2026-02-09 05:00:00,11217225,São Miguel / Sete Cidades (DROTRH),37.8679,-25.772,27.7,16.2,0.0,6,0.0,7.7,100.0,,SW
2026-02-09 05:00:00,11217255,São Miguel / Lagoa das Furnas (DROTRH),37.7619,-25.3291,10.8,16.3,0.0,4,0.3,3.0,100.0,,SE
2026-02-09 05:00:00,11217430,Graciosa / Serra das Fontes (DROTRH),39.0672,-28.0038,22.7,16.8,0.0,6,0.2,6.3,100.0,,SW
2026-02-09 05:00:00,11217510,São Jorge / Pico do Areeiro (DROTRH),38.6435,-28.0591,61.6,14.0,0.0,5,0.5,17.1,100.0,,S
2026-02-09 05:00:00,11217625,Pico / Cabeço do Teicho (DROTRH),38.489,-28.3534,31.3,14.6,0.0,6,2.9,8.7,99.0,,SW
2026-02-09 05:00:00,11217645,Pico / Cabecinho (DROTRH),38.4338,-28.1141,8.3,15.0,0.0,4,0.4,2.3,100.0,,SE
2026-02-09 05:00:00,11217730,Faial / Cabeço Verde (DROTRH),38.5843,-28.7576,25.9,15.4,0.0,5,0.1,7.2,100.0,,S
2026-02-09 05:00:00,1200501,Flores (Aeródromo),39.45819,-31.1301,36.4,19.5,0.0,6,0.0,10.1,84.0,1003.9,SW
2026-02-09 05:00:00,1200502,Corvo (Aeródromo),39.67389,-31.11362,41.0,17.8,0.0,7,0.0,11.4,93.0,1002.8,W
2026-02-09 05:00:00,1200504,Pico (Aeródromo),38.55219,-28.44137,25.9,18.8,0.0,6,0.2,7.2,90.0,1009.0,SW
2026-02-09 05:00:00,1200505,Horta / Aeroporto,38.5211,-28.7128,32.8,17.6,,6,0.0,9.1,96.0,1009.6,SW
2026-02-09 05:00:00,1200506,Horta (Obs. Principe Alberto),38.540781,-28.63225,19.1,17.6,0.0,6,0.0,5.3,100.0,1009.1,SW
2026-02-09 05:00:00,1200507,Graciosa (Aeródromo),39.09036,-28.02852,31.0,17.7,0.0,6,0.0,8.6,90.0,1008.1,SW
2026-02-09 05:00:00,1200510,São Jorge,38.66,-28.17,13.3,18.3,0.0,6,0.0,3.7,,1010.3,SW
2026-02-09 05:00:00,1200511,Angra do Heroísmo,38.6659435,-27.216567,28.1,16.4,0.0,6,0.0,7.8,100.0,1010.8,SW
2026-02-09 05:00:00,1200512,P. Delgada (Aeródromo),37.74414,-25.6953048,32.8,16.5,0.0,7,0.0,9.1,99.0,1013.6,W
2026-02-09 05:00:00,1200515,Santa Maria (Aeródromo),36.967175,-25.1679,32.0,17.0,0.0,6,0.0,8.9,,1015.9,SW
2026-02-09 05:00:00,1200521,Santa Catarina (Aeródromo),32.69688,-16.77612,,16.6,0.1,0,0.0,,74.0,1022.5,
2026-02-09 05:00:00,1200522,Funchal,32.64786,-16.888,4.7,16.3,0.0,1,0.0,1.3,73.0,1022.8,N
2026-02-09 05:00:00,1200524,Porto Santo,33.074029,-16.34868,21.6,17.3,0.0,7,0.0,6.0,91.0,1022.1,W
2026-02-09 05:00:00,1200533,Sagres,37.012835,-8.949089,26.3,15.4,,7,0.0,7.3,100.0,1014.3,W
2026-02-09 05:00:00,1200535,Lisboa (Geofísico),38.71907778,-9.14972222,8.6,14.7,0.0,7,0.0,2.4,100.0,1012.1,W
2026-02-09 05:00:00,1200541,Sines,37.954504,-8.838271,26.6,14.6,0.0,7,0.0,7.4,100.0,1013.5,W
2026-02-09 05:00:00,1200545,"Porto, Pedras Rubras (Aeródromo)",41.233502,-8.681332,10.8,13.3,0.1,6,0.0,3.0,98.0,1009.2,SW
2026-02-09 05:00:00,1200548,Coimbra (Aeródromo),40.15006944,-8.46669167,,,0.0,0,0.4,,,,
2026-02-09 05:00:00,1200551,"Viana Castelo, Chafé",41.648875,-8.804606,6.8,13.3,0.0,6,0.0,1.9,100.0,1008.3,SW
2026-02-09 05:00:00,1200554,Faro (Aeródromo),37.016579,-7.971953,20.2,15.2,0.0,7,0.0,5.6,98.0,1013.7,W
2026-02-09 05:00:00,1200558,Évora (C.Coordenação),38.53336389,-7.88338056,17.3,13.9,0.0,7,0.0,4.8,,1012.0,W
2026-02-09 05:00:00,1200559,Viseu (Aeródromo),40.72645,-7.887472,10.4,9.9,,6,0.0,2.9,99.0,1010.0,SW
2026-02-09 05:00:00,1200560,Viseu (C.Coordenação),40.71492222,-7.89592222,10.1,9.6,,6,0.0,2.8,100.0,,SW
2026-02-09 05:00:00,1200562,Beja,38.02493056,-7.867275,27.0,14.2,0.0,7,0.0,7.5,100.0,1012.1,W
2026-02-09 05:00:00,1200567,Vila Real,41.27418611,-7.7171,5.4,10.0,0.0,5,0.0,1.5,100.0,1009.1,S
2026-02-09 05:00:00,1200568,Penhas Douradas,40.41136667,-7.55865278,,5.5,,0,,,100.0,,
2026-02-09 05:00:00,1200571,Portalegre,39.29546944,-7.41996944,15.8,10.7,0.0,7,0.2,4.4,100.0,1011.4,W
2026-02-09 05:00:00,1200575,Bragança,41.80388889,-6.74283889,5.8,6.7,0.0,2,0.0,1.6,,1009.7,NE
2026-02-09 05:00:00,1200576,Bragança (Aeródromo),41.85763611,-6.70796389,12.2,6.9,,6,0.0,3.4,99.0,1008.7,SW
2026-02-09 05:00:00,1200843,Évora (Aeródromo),38.5296,-7.8916,10.4,13.7,,7,0.0,2.9,100.0,1011.7,W
2026-02-09 05:00:00,1210513,P. Delgada (Obs. A. Chaves),37.7464,-25.662283,10.4,17.0,0.0,6,0.0,2.9,,,SW
2026-02-09 05:00:00,1210517,Flores / Morro Alto,39.4633,-31.2207,107.3,13.4,,6,0.0,29.8,100.0,997.9,SW
2026-02-09 05:00:00,1210518,São Miguel - Pico Santos De Cima,37.819,-25.7512,74.9,13.2,,7,0.1,20.8,100.0,1012.3,W
2026-02-09 05:00:00,1210520,Ilhas selvagens,30.140595,-15.869153,0.4,16.4,0.2,9,0.0,0.1,90.0,1024.0,N
2026-02-09 05:00:00,1210550,Coruche / Cruz Do Leão,39.07101,-8.4,7.6,13.9,,7,0.0,2.1,100.0,1011.7,W
2026-02-09 05:00:00,1210553,Loulé / Cavalos De Caldeirão,37.3042,-7.9534,23.0,12.7,,7,0.1,6.4,100.0,1013.8,W
2026-02-09 05:00:00,1210577,"Odemira, S.Teotónio",37.54710833,-8.72899167,24.1,15.0,0.0,7,0.0,6.7,99.0,,W
2026-02-09 05:00:00,1210580,"Lisboa, Relógio",38.7618,-9.1254,22.7,14.3,,7,0.0,6.3,97.0,1012.4,W
2026-02-09 05:00:00,1210604,V.N.Cerveira (Aeródromo),41.96673056,-8.66676111,9.7,14.2,0.0,6,0.0,2.7,87.0,1007.9,SW
2026-02-09 05:00:00,1210605,"Monção, Valinha",42.06669,-8.383347,11.9,12.6,0.0,6,0.0,3.3,90.0,,SW
2026-02-09 05:00:00,1210606,"Lamas de Mouro, P.Ribeiro",42.03333333,-8.18333333,,8.3,0.0,0,0.0,,95.0,1008.8,
2026-02-09 05:00:00,1210611,Montalegre,41.82276667,-7.78797778,15.1,7.2,0.0,7,0.0,4.2,99.0,,W
2026-02-09 05:00:00,1210612,Vinhais,41.8434,-7.0034416,6.1,5.6,,8,0.0,1.7,100.0,,NW
2026-02-09 05:00:00,1210615,Ponte de Lima,41.75013889,-8.56671389,2.9,10.5,0.0,4,0.0,0.8,99.0,,SE
2026-02-09 05:00:00,1210616,Chaves (Aeródromo),41.72516667,-7.46540833,3.2,7.8,0.0,2,0.0,0.9,97.0,1008.9,NE
2026-02-09 05:00:00,1210619,Cabril,41.71666667,-8.01666667,15.5,9.8,,7,0.7,4.3,99.0,,W
2026-02-09 05:00:00,1210622,"Braga, Merelim",41.56678056,-8.45003056,5.8,9.9,0.0,3,0.0,1.6,100.0,1009.3,E
2026-02-09 05:00:00,1210630,Cabeceiras de Basto,41.53333333,-7.96666667,2.2,9.2,0.0,2,0.2,0.6,100.0,,NE
2026-02-09 05:00:00,1210632,Mirandela,41.51478611,-7.19083889,0.0,8.1,0.0,0,0.0,0.0,97.0,,
2026-02-09 05:00:00,1210633,"Macedo Cavaleiros, Bagueixe",41.56666667,-6.78333333,6.1,7.2,,7,0.2,1.7,100.0,,W
2026-02-09 05:00:00,1210635,Miranda do Douro,41.51666667,-6.28333333,6.5,8.1,,7,0.3,1.8,99.0,,W
2026-02-09 05:00:00,1210637,Mogadouro,41.33333333,-6.73333333,21.2,7.9,0.0,7,0.0,5.9,99.0,,W
2026-02-09 05:00:00,1210643,Paços Ferreira,41.27365,-8.38012,7.2,11.8,,6,0.1,2.0,100.0,,SW
2026-02-09 05:00:00,1210644,Carrazêda de Ansiães,41.23333333,-7.28333333,6.5,8.8,0.0,6,0.0,1.8,93.0,,SW
2026-02-09 05:00:00,1210654,Moncorvo,41.18333333,-7.01666667,16.2,10.1,0.0,7,0.0,4.5,84.0,1008.9,W
2026-02-09 05:00:00,1210655,"Pinhão, Santa Bárbara",41.172775,-7.5489722,7.2,12.1,,9,0.0,2.0,87.0,,N
2026-02-09 05:00:00,1210657,Luzim,41.14585,-8.2490333,3.2,11.0,0.4,6,0.0,0.9,95.0,,SW
2026-02-09 05:00:00,1210663,Moimenta da Beira,40.98333333,-7.6,10.8,9.5,0.5,7,0.0,3.0,87.0,,W
2026-02-09 05:00:00,1210666,"Trancoso, Bandarra",40.78333333,-7.36666667,23.0,8.4,0.0,6,0.0,6.4,99.0,,SW
2026-02-09 05:00:00,1210669,Arouca,40.93333333,-8.25,3.2,12.3,0.0,8,0.0,0.9,98.0,,NW
2026-02-09 05:00:00,1210671,"F. Castelo Rodrigo, V.Torpim",40.75,-6.88333333,19.4,9.3,0.0,6,0.1,5.4,99.0,,SW
2026-02-09 05:00:00,1210683,Guarda,40.53333333,-7.26666667,17.3,7.8,5.1,7,0.0,4.8,97.0,,W
2026-02-09 05:00:00,1210685,Nelas,40.51666667,-7.85,9.0,11.0,0.0,6,0.0,2.5,100.0,,SW
2026-02-09 05:00:00,1210686,"Pampilhosa da Serra, Fajão",40.145653,-7.92704,12.6,9.0,,7,0.5,3.5,100.0,,W
2026-02-09 05:00:00,1210690,Aldeia Souto (Q. Lageosa),40.35425833,-7.38931111,1.8,8.5,0.1,1,0.1,0.5,97.0,,N
2026-02-09 05:00:00,1210697,Lousã (Aeródromo),40.143922,-8.244066,8.6,13.5,,5,0.4,2.4,100.0,,S
2026-02-09 05:00:00,1210698,Fundão,40.14063611,-7.55362778,2.9,8.3,0.1,4,0.0,0.8,100.0,,SE
2026-02-09 05:00:00,1210704,Dunas de Mira,40.445955,-8.76168055,9.7,14.5,0.0,6,0.0,2.7,97.0,,SW
2026-02-09 05:00:00,1210705,Anadia,40.438852,-8.439996,1.8,13.1,0.0,5,0.1,0.5,97.0,,S
2026-02-09 05:00:00,1210707,"Coimbra, Bencanta",40.2134694,-8.45515277,6.1,13.9,0.0,6,0.7,1.7,100.0,,SW
2026-02-09 05:00:00,1210716,Ansião,39.9,-8.4,16.2,11.3,0.0,7,,4.5,99.0,,W
2026-02-09 05:00:00,1210726,Alcobaça,39.51666667,-8.96666667,7.2,14.7,0.0,7,0.3,2.0,94.0,,W
2026-02-09 05:00:00,1210734,"Santarém, Fonte Boa",39.201216,-8.736656,9.0,14.5,0.0,6,0.2,2.5,98.0,1011.7,SW
2026-02-09 05:00:00,1210735,Chamusca / Chouto,39.27,-8.3508,6.8,14.1,,6,0.0,1.9,100.0,1011.3,SW
2026-02-09 05:00:00,1210739,"Torres Vedras, Dois Portos",39.04389444,-9.179,19.8,14.4,0.0,7,0.0,5.5,99.0,,W
2026-02-09 05:00:00,1210744,Coruche,38.94096667,-8.51073611,10.1,14.6,0.0,7,0.1,2.8,,,W
2026-02-09 05:00:00,1210750,Cabo da Roca,38.78171,-9.4975361,24.1,13.9,0.0,8,0.0,6.7,100.0,,NW
2026-02-09 05:00:00,1210752,Sintra/Tapada do Mouco,38.781669,-9.400398,15.5,12.0,,8,0.1,4.3,100.0,,NW
2026-02-09 05:00:00,1210762,"Lisboa, Tapada da Ajuda",38.70956111,-9.182825,10.4,15.0,0.0,7,0.0,2.9,100.0,,W
2026-02-09 05:00:00,1210765,Cabo Raso,38.70900833,-9.48538333,18.7,14.4,,7,0.0,5.2,100.0,,W
2026-02-09 05:00:00,1210766,"Barreiro, Lavradio",38.67448611,-9.04766111,10.8,15.3,0.0,7,0.0,3.0,98.0,,W
2026-02-09 05:00:00,1210767,Pegões,38.65079,-8.63503,11.5,14.6,0.0,7,0.0,3.2,100.0,,W
2026-02-09 05:00:00,1210770,Setúbal,38.54846008,-8.89077058,17.6,15.2,17.0,8,0.0,4.9,94.0,,NW
2026-02-09 05:00:00,1210776,"Alcácer do Sal, Barrosinha",38.36666667,-8.48333333,16.6,15.1,0.0,8,0.0,4.6,99.0,,NW
2026-02-09 05:00:00,1210783,Alvalade,37.946806,-8.394504,19.4,15.6,0.0,7,0.1,5.4,97.0,,W
2026-02-09 05:00:00,1210785,Ourique / Santana Da Serra,37.5025,-8.3019,,14.8,0.0,0,,,97.0,1013.4,
2026-02-09 05:00:00,1210789,Aljezur,37.31675278,-8.80001667,4.0,15.9,6.9,7,0.0,1.1,99.0,,W
2026-02-09 05:00:00,1210790,Fóia,37.3143,-8.595733,46.8,11.2,0.0,8,1.2,13.0,,,NW
2026-02-09 05:00:00,1210800,"Sabugal, Martim Rei",40.33918056,-7.03693333,7.9,7.0,0.0,6,0.0,2.2,99.0,,SW
2026-02-09 05:00:00,1210806,"Proença-a-Nova, P.Moitas",39.73333333,-7.86666667,6.1,9.5,12.0,7,0.2,1.7,100.0,,W
2026-02-09 05:00:00,1210824,"Avis, Benavila",39.1,-7.86666667,13.0,14.2,0.0,7,0.0,3.6,,,W
2026-02-09 05:00:00,1210826,Mora,38.94068,-8.16406,8.3,14.3,0.0,6,0.0,2.3,100.0,,SW
2026-02-09 05:00:00,1210835,Elvas,38.8908,-7.13976111,5.0,12.1,0.0,5,0.3,1.4,100.0,,S
2026-02-09 05:00:00,1210837,Estremoz,38.86666667,-7.51666667,13.7,13.1,0.0,7,0.2,3.8,100.0,,W
2026-02-09 05:00:00,1210840,"Reguengos, S. P. do Corval",38.484866,-7.4729166,16.9,13.4,0.0,7,0.0,4.7,100.0,,W
2026-02-09 05:00:00,1210846,Montemor-O-Novo,38.6451,-8.1991,13.3,14.0,,7,0.1,3.7,100.0,1012.9,W
2026-02-09 05:00:00,1210847,Viana do Alentejo,38.3319194,-8.04553888,18.4,14.2,0.0,7,,5.1,,,W
2026-02-09 05:00:00,1210848,"Portel, Oriola",38.31666667,-7.86666667,13.3,14.4,,7,0.0,3.7,98.0,,W
2026-02-09 05:00:00,1210851,Amareleja,38.2007,-7.2261,8.3,,0.0,6,0.0,2.3,,1011.6,SW
2026-02-09 05:00:00,1210863,"Mértola, Vale Formoso",37.75,-7.55,19.4,14.8,0.0,7,0.0,5.4,98.0,,W
2026-02-09 05:00:00,1210864,"Castro Verde, N.Corvo",37.57655833,-7.97211389,15.8,14.9,0.0,7,0.0,4.4,99.0,,W
2026-02-09 05:00:00,1210865,"Alcoutim, Mart.Longo",37.43333333,-7.76666667,16.9,14.7,,7,0.0,4.7,99.0,1013.0,W
2026-02-09 05:00:00,1210866,Vila Real de S.António,37.1871055,-7.416325,,15.0,,0,0.0,,98.0,,
2026-02-09 05:00:00,1210874,Albufeira,37.0935,-8.262,18.0,14.6,,7,0.1,5.0,100.0,,W
2026-02-09 05:00:00,1210878,Portimão (Aeródromo),37.149167,-8.581389,24.8,16.1,0.0,8,0.0,6.9,95.0,1014.0,NW
