obs_datetime,station_id,station_name,lat,lon,intensidadeVentoKM,temperatura,radiacao,idDireccVento,precAcumulada,intensidadeVento,humidade,pressao,direccVento_txt
2026-02-06 00:00:00,11217160,Santa Maria / Praia Formosa (DROTRH),36.9542,-25.0917,20.9,11.5,0.0,2,0.0,5.8,70.0,,NE
2026-02-06 00:00:00,11217165,Santa Maria / Maia (DROTRH),36.9412,-25.0176,27.0,11.1,0.0,8,0.0,7.5,70.0,,NW
2026-02-06 00:00:00,11217217,São Miguel / Santana (DROTRH),37.8049,-25.5618,7.2,11.3,0.0,7,0.0,2.0,71.0,,W
2026-02-06 00:00:00,11217225,São Miguel / Sete Cidades (DROTRH),37.8679,-25.772,19.4,10.8,0.0,7,0.0,5.4,75.0,,W
2026-02-06 00:00:00,11217255,São Miguel / Lagoa das Furnas (DROTRH),37.7619,-25.3291,16.2,9.8,0.3,5,0.1,4.5,73.0,,S
2026-02-06 00:00:00,11217370,Terceira / Ribeira das Nove (DROTRH),38.754,-27.3245,8.6,5.1,0.0,4,0.0,2.4,99.0,,SE
2026-02-06 00:00:00,11217430,Graciosa / Serra das Fontes (DROTRH),39.0672,-28.0038,43.2,9.6,0.0,8,0.0,12.0,84.0,,NW
2026-02-06 00:00:00,11217510,São Jorge / Pico do Areeiro (DROTRH),38.6435,-28.0591,42.1,4.2,0.0,6,0.0,11.7,93.0,,SW
2026-02-06 00:00:00,11217625,Pico / Cabeço do Teicho (DROTRH),38.489,-28.3534,15.8,4.1,0.0,7,0.3,4.4,95.0,,W
2026-02-06 00:00:00,11217645,Pico / Cabecinho (DROTRH),38.4338,-28.1141,24.1,6.3,0.0,8,1.1,6.7,87.0,,NW
2026-02-06 00:00:00,11217730,Faial / Cabeço Verde (DROTRH),38.5843,-28.7576,9.7,7.5,0.0,8,0.0,2.7,84.0,,NW
2026-02-06 00:00:00,1200501,Flores (Aeródromo),39.45819,-31.1301,17.6,11.4,0.0,7,0.4,4.9,71.0,1012.7,W
2026-02-06 00:00:00,1200502,Corvo (Aeródromo),39.67389,-31.11362,42.5,12.5,352.2,8,0.0,11.8,66.0,1011.6,NW
2026-02-06 00:00:00,1200504,Pico (Aeródromo),38.55219,-28.44137,18.4,10.1,0.0,7,0.0,5.1,80.0,1013.1,W
2026-02-06 00:00:00,1200505,Horta / Aeroporto,38.5211,-28.7128,27.0,12.1,,7,0.0,7.5,63.0,1012.9,W
2026-02-06 00:00:00,1200506,Horta (Obs. Principe Alberto),38.540781,-28.63225,32.4,10.8,0.0,7,0.0,9.0,74.0,1013.5,W
2026-02-06 00:00:00,1200507,Graciosa (Aeródromo),39.09036,-28.02852,50.8,12.3,0.0,8,0.0,14.1,60.0,1010.9,NW
2026-02-06 00:00:00,1200510,São Jorge,38.66,-28.17,26.3,11.3,0.4,8,0.0,7.3,67.0,1012.4,NW
2026-02-06 00:00:00,1200511,Angra do Heroísmo,38.6659435,-27.216567,28.1,10.8,0.0,7,0.0,7.8,69.0,1011.6,W
2026-02-06 00:00:00,1200512,P. Delgada (Aeródromo),37.74414,-25.6953048,50.8,12.3,0.0,8,0.0,14.1,70.0,1011.6,NW
2026-02-06 00:00:00,1200515,Santa Maria (Aeródromo),36.967175,-25.1679,49.0,12.7,0.0,8,0.0,13.6,68.0,1013.4,NW
2026-02-06 00:00:00,1200521,Santa Catarina (Aeródromo),32.69688,-16.77612,,16.3,0.4,0,0.0,,65.0,1014.1,
2026-02-06 00:00:00,1200522,Funchal,32.64786,-16.888,10.4,16.6,0.0,8,2.0,2.9,65.0,1014.3,NW
2026-02-06 00:00:00,1200524,Porto Santo,33.074029,-16.34868,23.4,15.6,0.9,7,3.5,6.5,78.0,1013.7,W
2026-02-06 00:00:00,1200533,Sagres,37.012835,-8.949089,21.6,14.5,,7,0.0,6.0,77.0,1006.0,W
2026-02-06 00:00:00,1200535,Lisboa (Geofísico),38.71907778,-9.14972222,18.4,12.7,0.0,6,0.0,5.1,96.0,1002.8,SW
2026-02-06 00:00:00,1200541,Sines,37.954504,-8.838271,20.2,13.7,0.0,7,0.0,5.6,97.0,1004.5,W
2026-02-06 00:00:00,1200545,"Porto, Pedras Rubras (Aeródromo)",41.233502,-8.681332,14.8,11.2,0.3,6,0.5,4.1,84.0,998.3,SW
2026-02-06 00:00:00,1200548,Coimbra (Aeródromo),40.15006944,-8.46669167,,,0.0,0,0.0,,,,
2026-02-06 00:00:00,1200551,"Viana Castelo, Chafé",41.648875,-8.804606,16.9,11.6,0.0,6,0.0,4.7,94.0,997.1,SW
2026-02-06 00:00:00,1200554,Faro (Aeródromo),37.016579,-7.971953,23.4,14.4,0.0,7,0.0,6.5,89.0,1006.5,W
2026-02-06 00:00:00,1200558,Évora (C.Coordenação),38.53336389,-7.88338056,15.8,11.1,0.0,6,2.1,4.4,,1004.2,SW
2026-02-06 00:00:00,1200559,Viseu (Aeródromo),40.72645,-7.887472,18.7,7.0,,6,0.1,5.2,90.0,999.7,SW
2026-02-06 00:00:00,1200560,Viseu (C.Coordenação),40.71492222,-7.89592222,18.0,6.7,,6,0.0,5.0,92.0,,SW
2026-02-06 00:00:00,1200562,Beja,38.02493056,-7.867275,19.4,11.3,0.0,6,0.0,5.4,100.0,1004.7,SW
2026-02-06 00:00:00,1200567,Vila Real,41.27418611,-7.7171,10.8,6.1,0.0,6,1.6,3.0,95.0,999.2,SW
2026-02-06 00:00:00,1200568,Penhas Douradas,40.41136667,-7.55865278,,0.8,,0,,,100.0,,
2026-02-06 00:00:00,1200570,Castelo Branco,39.83339444,-7.46678889,13.0,9.5,0.0,6,0.0,3.6,100.0,1000.7,SW
2026-02-06 00:00:00,1200571,Portalegre,39.29546944,-7.41996944,13.0,7.8,0.0,7,0.0,3.6,100.0,1003.6,W
2026-02-06 00:00:00,1200575,Bragança,41.80388889,-6.74283889,16.9,6.3,0.0,6,0.1,4.7,86.0,997.6,SW
2026-02-06 00:00:00,1200576,Bragança (Aeródromo),41.85763611,-6.70796389,20.9,6.3,,6,0.0,5.8,87.0,996.9,SW
2026-02-06 00:00:00,1200843,Évora (Aeródromo),38.5296,-7.8916,18.4,11.1,,6,1.6,5.1,94.0,1003.8,SW
2026-02-06 00:00:00,1210513,P. Delgada (Obs. A. Chaves),37.7464,-25.662283,11.9,11.7,6.9,9,0.1,3.3,69.0,,N
2026-02-06 00:00:00,1210517,Flores / Morro Alto,39.4633,-31.2207,44.3,3.8,,6,0.0,12.3,100.0,1010.2,SW
2026-02-06 00:00:00,1210518,São Miguel - Pico Santos De Cima,37.819,-25.7512,40.3,5.0,,8,0.0,11.2,100.0,1011.8,NW
2026-02-06 00:00:00,1210520,Ilhas selvagens,30.140595,-15.869153,40.7,17.2,0.1,7,0.0,11.3,86.0,1017.0,W
2026-02-06 00:00:00,1210550,Coruche / Cruz Do Leão,39.07101,-8.4,7.9,10.1,,5,0.0,2.2,95.0,1003.1,S
2026-02-06 00:00:00,1210553,Loulé / Cavalos De Caldeirão,37.3042,-7.9534,28.8,9.1,,6,0.0,8.0,100.0,1006.6,SW
2026-02-06 00:00:00,1210577,"Odemira, S.Teotónio",37.54710833,-8.72899167,13.7,13.4,0.0,6,0.0,3.8,93.0,,SW
2026-02-06 00:00:00,1210580,"Lisboa, Relógio",38.7618,-9.1254,25.2,12.1,,6,0.0,7.0,80.0,1003.1,SW
2026-02-06 00:00:00,1210604,V.N.Cerveira (Aeródromo),41.96673056,-8.66676111,12.6,11.5,0.0,7,0.0,3.5,81.0,996.4,W
2026-02-06 00:00:00,1210605,"Monção, Valinha",42.06669,-8.383347,17.3,10.6,0.0,6,0.0,4.8,86.0,,SW
2026-02-06 00:00:00,1210606,"Lamas de Mouro, P.Ribeiro",42.03333333,-8.18333333,,4.7,0.0,0,3.5,,97.0,997.5,
2026-02-06 00:00:00,1210611,Montalegre,41.82276667,-7.78797778,21.2,4.0,0.0,7,1.4,5.9,99.0,,W
2026-02-06 00:00:00,1210612,Vinhais,41.8434,-7.0034416,9.4,5.0,,6,0.0,2.6,100.0,,SW
2026-02-06 00:00:00,1210615,Ponte de Lima,41.75013889,-8.56671389,9.4,11.6,0.0,5,0.0,2.6,82.0,,S
2026-02-06 00:00:00,1210616,Chaves (Aeródromo),41.72516667,-7.46540833,12.6,8.9,0.0,6,0.6,3.5,82.0,996.5,SW
2026-02-06 00:00:00,1210619,Cabril,41.71666667,-8.01666667,16.6,7.1,,7,0.4,4.6,99.0,,W
2026-02-06 00:00:00,1210622,"Braga, Merelim",41.56678056,-8.45003056,6.8,11.1,5.3,5,0.1,1.9,85.0,997.7,S
2026-02-06 00:00:00,1210630,Cabeceiras de Basto,41.53333333,-7.96666667,11.9,9.9,0.0,6,0.7,3.3,87.0,,SW
2026-02-06 00:00:00,1210632,Mirandela,41.51478611,-7.19083889,13.3,8.8,0.0,5,0.4,3.7,82.0,,S
2026-02-06 00:00:00,1210633,"Macedo Cavaleiros, Bagueixe",41.56666667,-6.78333333,17.3,5.8,,7,1.0,4.8,100.0,,W
2026-02-06 00:00:00,1210635,Miranda do Douro,41.51666667,-6.28333333,26.6,6.4,,7,0.6,7.4,93.0,,W
2026-02-06 00:00:00,1210637,Mogadouro,41.33333333,-6.73333333,27.0,5.6,0.0,7,0.3,7.5,99.0,,W
2026-02-06 00:00:00,1210643,Paços Ferreira,41.27365,-8.38012,7.9,8.1,,6,0.5,2.2,95.0,,SW
2026-02-06 00:00:00,1210644,Carrazêda de Ansiães,41.23333333,-7.28333333,4.3,5.9,0.0,6,1.1,1.2,90.0,,SW
2026-02-06 00:00:00,1210654,Moncorvo,41.18333333,-7.01666667,13.7,7.3,0.0,8,0.5,3.8,87.0,998.9,NW
2026-02-06 00:00:00,1210655,"Pinhão, Santa Bárbara",41.172775,-7.5489722,4.7,10.3,,9,0.3,1.3,78.0,,N
2026-02-06 00:00:00,1210657,Luzim,41.14585,-8.2490333,9.4,7.8,2.1,6,2.9,2.6,92.0,,SW
2026-02-06 00:00:00,1210663,Moimenta da Beira,40.98333333,-7.6,17.6,6.7,0.0,7,0.1,4.9,85.0,,W
2026-02-06 00:00:00,1210666,"Trancoso, Bandarra",40.78333333,-7.36666667,29.2,5.4,0.0,6,1.3,8.1,99.0,,SW
2026-02-06 00:00:00,1210669,Arouca,40.93333333,-8.25,12.2,10.5,0.0,7,0.4,3.4,85.0,,W
2026-02-06 00:00:00,1210671,"F. Castelo Rodrigo, V.Torpim",40.75,-6.88333333,31.3,7.2,0.0,6,0.2,8.7,93.0,,SW
2026-02-06 00:00:00,1210683,Guarda,40.53333333,-7.26666667,22.0,4.4,2.5,7,0.4,6.1,87.0,,W
2026-02-06 00:00:00,1210685,Nelas,40.51666667,-7.85,10.8,8.0,0.0,6,0.1,3.0,98.0,,SW
2026-02-06 00:00:00,1210686,"Pampilhosa da Serra, Fajão",40.145653,-7.92704,30.2,5.2,,6,0.0,8.4,97.0,,SW
2026-02-06 00:00:00,1210687,Covilhã (Aeródromo),40.264309,-7.482302,16.6,9.0,0.0,6,,4.6,73.0,,SW
2026-02-06 00:00:00,1210690,Aldeia Souto (Q. Lageosa),40.35425833,-7.38931111,3.6,8.1,0.3,8,0.1,1.0,79.0,,NW
2026-02-06 00:00:00,1210698,Fundão,40.14063611,-7.55362778,10.8,8.3,1.4,7,0.2,3.0,87.0,,W
2026-02-06 00:00:00,1210702,Aveiro (Universidade),40.63529722,-8.65958333,18.4,12.5,0.0,6,0.0,5.1,80.0,1000.0,SW
2026-02-06 00:00:00,1210704,Dunas de Mira,40.445955,-8.76168055,2.9,10.5,2.2,5,0.9,0.8,85.0,,S
2026-02-06 00:00:00,1210705,Anadia,40.438852,-8.439996,2.5,10.1,0.0,6,3.5,0.7,95.0,,SW
2026-02-06 00:00:00,1210707,"Coimbra, Bencanta",40.2134694,-8.45515277,4.3,11.7,0.0,8,0.0,1.2,92.0,,NW
2026-02-06 00:00:00,1210713,"Figueira da Foz, Vila Verde",40.139764,-8.805945,21.6,13.4,,7,0.0,6.0,,,W
2026-02-06 00:00:00,1210716,Ansião,39.9,-8.4,16.6,8.6,0.0,6,,4.6,98.0,,SW
2026-02-06 00:00:00,1210726,Alcobaça,39.51666667,-8.96666667,5.8,11.7,0.0,6,6.5,1.6,83.0,,SW
2026-02-06 00:00:00,1210729,Rio Maior,39.35,-8.93333333,8.3,12.8,0.0,7,0.0,2.3,74.0,,W
2026-02-06 00:00:00,1210734,"Santarém, Fonte Boa",39.201216,-8.736656,13.7,11.6,0.0,6,0.0,3.8,83.0,1002.4,SW
2026-02-06 00:00:00,1210735,Chamusca / Chouto,39.27,-8.3508,4.7,9.6,,4,0.0,1.3,97.0,1002.8,SE
2026-02-06 00:00:00,1210739,"Torres Vedras, Dois Portos",39.04389444,-9.179,15.1,12.3,0.0,6,0.0,4.2,81.0,,SW
2026-02-06 00:00:00,1210744,Coruche,38.94096667,-8.51073611,7.6,11.4,0.0,6,0.0,2.1,,,SW
2026-02-06 00:00:00,1210746,Santa Cruz (Aeródromo),39.12594166,-9.3790388,21.2,12.2,0.0,7,0.0,5.9,80.0,1002.2,W
2026-02-06 00:00:00,1210750,Cabo da Roca,38.78171,-9.4975361,44.6,13.2,0.0,7,0.0,12.4,77.0,,W
2026-02-06 00:00:00,1210752,Sintra/Tapada do Mouco,38.781669,-9.400398,12.6,9.6,,7,0.0,3.5,93.0,,W
2026-02-06 00:00:00,1210762,"Lisboa, Tapada da Ajuda",38.70956111,-9.182825,9.0,13.0,0.0,7,0.0,2.5,80.0,,W
2026-02-06 00:00:00,1210765,Cabo Raso,38.70900833,-9.48538333,31.3,14.6,,7,0.0,8.7,79.0,,W
2026-02-06 00:00:00,1210766,"Barreiro, Lavradio",38.67448611,-9.04766111,13.0,14.1,0.0,6,0.0,3.6,79.0,,SW
2026-02-06 00:00:00,1210767,Pegões,38.65079,-8.63503,10.1,11.7,0.0,6,0.0,2.8,100.0,,SW
2026-02-06 00:00:00,1210770,Setúbal,38.54846008,-8.89077058,11.9,13.2,0.0,7,0.0,3.3,78.0,,W
2026-02-06 00:00:00,1210776,"Alcácer do Sal, Barrosinha",38.36666667,-8.48333333,10.8,13.7,0.0,6,0.0,3.0,81.0,,SW
2026-02-06 00:00:00,1210783,Alvalade,37.946806,-8.394504,11.5,13.6,0.0,6,0.0,3.2,85.0,,SW
2026-02-06 00:00:00,1210785,Ourique / Santana Da Serra,37.5025,-8.3019,14.8,12.4,0.0,4,,4.1,84.0,1005.5,SE
2026-02-06 00:00:00,1210789,Aljezur,37.31675278,-8.80001667,5.4,14.5,0.0,6,0.0,1.5,84.0,,SW
2026-02-06 00:00:00,1210790,Fóia,37.3143,-8.595733,34.6,7.4,0.1,7,0.0,9.6,,,W
2026-02-06 00:00:00,1210800,"Sabugal, Martim Rei",40.33918056,-7.03693333,19.4,5.9,0.0,6,0.0,5.4,94.0,,SW
2026-02-06 00:00:00,1210803,Zebreira,39.86666667,-7.01666667,19.8,9.4,0.0,6,0.0,5.5,90.0,,SW
2026-02-06 00:00:00,1210806,"Proença-a-Nova, P.Moitas",39.73333333,-7.86666667,14.4,9.1,8.3,7,0.1,4.0,98.0,,W
2026-02-06 00:00:00,1210812,Alvega,39.46666667,-8.05,11.5,12.1,,6,0.0,3.2,87.0,,SW
2026-02-06 00:00:00,1210824,"Avis, Benavila",39.1,-7.86666667,14.8,11.2,0.0,6,0.0,4.1,99.0,,SW
2026-02-06 00:00:00,1210826,Mora,38.94068,-8.16406,11.9,10.9,0.0,6,0.0,3.3,92.0,,SW
2026-02-06 00:00:00,1210835,Elvas,38.8908,-7.13976111,15.5,10.6,0.0,6,0.0,4.3,90.0,,SW
2026-02-06 00:00:00,1210837,Estremoz,38.86666667,-7.51666667,14.0,9.9,0.0,6,0.0,3.9,100.0,,SW
2026-02-06 00:00:00,1210840,"Reguengos, S. P. do Corval",38.484866,-7.4729166,12.2,10.5,0.1,5,0.1,3.4,96.0,,S
2026-02-06 00:00:00,1210846,Montemor-O-Novo,38.6451,-8.1991,10.1,11.1,,6,0.0,2.8,90.0,1004.7,SW
2026-02-06 00:00:00,1210847,Viana do Alentejo,38.3319194,-8.04553888,14.8,11.9,0.0,6,,4.1,84.0,,SW
2026-02-06 00:00:00,1210848,"Portel, Oriola",38.31666667,-7.86666667,12.6,12.2,,6,0.0,3.5,88.0,,SW
2026-02-06 00:00:00,1210851,Amareleja,38.2007,-7.2261,12.2,,0.0,6,0.0,3.4,,1004.3,SW
2026-02-06 00:00:00,1210863,"Mértola, Vale Formoso",37.75,-7.55,,11.7,0.0,0,0.0,,88.0,,
2026-02-06 00:00:00,1210864,"Castro Verde, N.Corvo",37.57655833,-7.97211389,13.3,12.4,0.0,6,0.0,3.7,99.0,,SW
2026-02-06 00:00:00,1210865,"Alcoutim, Mart.Longo",37.43333333,-7.76666667,11.2,11.6,,6,0.0,3.1,84.0,1005.8,SW
2026-02-06 00:00:00,1210866,Vila Real de S.António,37.1871055,-7.416325,,13.6,,0,0.0,,88.0,,
2026-02-06 00:00:00,1210874,Albufeira,37.0935,-8.262,15.1,12.8,,6,0.0,4.2,92.0,,SW
2026-02-06 00:00:00,1210878,Portimão (Aeródromo),37.149167,-8.581389,5.0,13.3,0.0,6,0.0,1.4,85.0,1006.1,SW
2026-02-06 00:00:00,1210881,"Olhão, EPPO",37.033,-7.821,9.4,14.5,0.0,6,0.0,2.6,89.0,1007.0,SW
2026-02-06 00:00:00,1210883,Tavira,37.12166968,-7.62050375,11.9,13.0,,6,0.0,3.3,91.0,1006.5,SW
2026-02-06 00:00:00,1210907,Faja / Ilha das Flores,39.45328,-31.2647,,12.7,,0,,,70.0,1013.5,
2026-02-06 00:00:00,1210932,"S. Miguel, Nordeste",37.83256,-25.150108,19.1,10.2,,8,1.6,5.3,80.0,,NW
2026-02-06 00:00:00,1210956,"Madeira, Porto Moniz",32.867477,-17.171373,,16.8,4.9,0,0.3,,72.0,,
2026-02-06 00:00:00,1210960,"Madeira, S. Jorge, Santana",32.83446944,-16.906219,18.4,14.7,81.9,7,0.0,5.1,79.0,1013.8,W
2026-02-06 00:00:00,1210965,"Madeira, Santana",32.808238,-16.8864166,,12.8,40.1,0,0.4,,72.0,,
2026-02-06 00:00:00,1210967,"Madeira, São Vicente",32.8001833,-17.044722,,13.4,0.0,0,1.1,,84.0,,
2026-02-06 00:00:00,1210972,"Madeira, Pico Alto",32.693491,-16.903955,9.0,7.2,0.0,6,,2.5,84.0,,SW
2026-02-06 00:00:00,1210973,"Madeira, Areeiro",32.71666667,-16.91666667,31.7,4.4,7.9,8,0.4,8.8,88.0,,NW
2026-02-06 00:00:00,1210974,"Madeira, Pico do Areeiro",32.735107,-16.928271,,2.0,,0,0.6,,100.0,,
2026-02-06 00:00:00,1210975,"Madeira, Santo da Serra",32.7258972,-16.816822,,10.2,0.0,0,0.1,,89.0,,
2026-02-06 00:00:00,1210976,"Madeira, Monte",32.675833,-16.906944,7.2,11.0,0.3,8,0.2,2.0,82.0,,NW
2026-02-06 00:00:00,1210977,"Madeira, Cancela",32.64500556,-16.86575,10.8,14.9,0.0,1,0.8,3.0,79.0,,N
2026-02-06 00:00:00,1210978,"Madeira, S. Lourenço",32.747,-16.706,17.6,17.2,0.0,3,0.0,4.9,60.0,,E
2026-02-06 00:00:00,1210984,"Madeira, Quinta Grande",32.6629722,-17.01503611,,13.3,0.4,0,0.0,,74.0,,
2026-02-06 00:00:00,1210986,Ponta do Sol/Lugar de Baixo,32.681502,-17.104167,4.3,16.1,0.1,8,0.0,1.2,75.0,,NW
2026-02-06 00:00:00,1210987,Prazeres (Calheta),32.757205,-17.201551,31.7,11.2,1.0,8,0.1,8.8,98.0,,NW
2026-02-06 00:00:00,1210990,"Madeira, Calheta",32.81384167,-17.26321389,35.3,13.6,1.7,8,1.3,9.8,85.0,1013.2,NW
2026-02-06 00:00:00,1240546,"Porto, Serra do Pilar",41.1385194,-8.6025,,11.5,,0,0.0,,93.0,997.8,
2026-02-06 00:00:00,1240566,Vila Real (Cidade),41.30898056,-7.740522,8.3,6.9,,6,2.5,2.3,93.0,,SW
2026-02-06 00:00:00,1240610,Viana do Castelo,41.695,-8.82916,,12.5,,0,0.0,,82.0,,
2026-02-06 00:00:00,1240675,Viseu (Cidade),40.662738,-7.9039694,,7.8,,0,0.2,,90.0,,
2026-02-06 00:00:00,1240903,"Porto, Massarelos",41.15257,-8.62598,,11.3,,0,,,98.0,,
2026-02-06 00:00:00,1240971,"Madeira, Funchal, Lido",32.63655,-16.935592,1.4,16.9,0.3,9,0.6,0.4,72.0,,N
2026-02-06 00:00:00,5210758,Alcochete / Campo Tiro,38.7627,-8.7825,9.0,11.9,,5,0.0,2.5,87.0,1002.8,S
2026-02-06 00:00:00,6210872,Loulé (CML),37.129946,-8.06523593,2.9,,,2,0.0,0.8,,1006.8,NE
2026-02-06 00:00:00,6210879,Portimão (Praia da Rocha),37.11670461,-8.52946314,8.6,14.2,,6,0.0,2.4,89.0,,SW
2026-02-06 00:00:00,6211211,Monção - Guimil (CIM),42.042944,-8.421872,17.6,,0.8,6,,4.9,,995.2,SW
2026-02-06 00:00:00,6211213,Paredes De Coura - Vascões (CIM),41.913444,-8.492111,6.5,6.3,0.4,6,,1.8,99.0,996.4,SW
2026-02-06 00:00:00,6211216,Arcos De Valdevez - Heliporto (CIM),41.831,-8.44375,7.2,8.9,,7,3.2,2.0,91.0,997.3,W
2026-02-06 00:00:00,6211217,Viana Do Castelo - Fonte Louçã (CIM),41.745722,-8.815306,,,,0,,,,994.2,
2026-02-06 00:00:00,6211218,Ponte De Lima - Anais (CIM),41.698083,-8.522444,3.6,8.6,0.8,6,,1.0,88.0,996.7,SW
2026-02-06 00:00:00,6212122,Amares Caldelas (CIM),41.66796389,-8.37977778,6.1,9.5,,5,4.5,1.7,87.0,998.1,S
2026-02-06 00:00:00,6212123,Vila Verde (CIM),41.64686111,-8.43398056,2.2,10.2,,7,,0.6,86.0,997.5,W
2026-02-06 00:00:00,6212124,Braga (CIM),41.53568333,-8.42514722,15.8,10.1,,6,0.1,4.4,87.0,998.8,SW
2026-02-06 00:00:00,6212126,Esposende (CIM),41.52645556,-8.77984444,28.4,13.0,,6,0.0,7.9,93.0,998.1,SW
2026-02-06 00:00:00,6213012,Carregal do Sal (CIM),40.46718056,-7.92626389,18.0,8.6,,6,,5.0,95.0,,SW
2026-02-06 00:00:00,6213013,Castro Daire / Mézio (CIM),40.98086111,-7.88318889,31.7,4.8,,6,,8.8,98.0,,SW
2026-02-06 00:00:00,6213014,Mangualde / Chãs de Tavares  (CIM),40.61096111,-7.60838889,29.9,6.9,,6,0.2,8.3,100.0,,SW
2026-02-06 00:00:00,6213016,Oliveira de Frades (CIM),40.716925,-8.20133889,33.8,7.2,,4,,9.4,96.0,,SE
2026-02-06 00:00:00,6213017,Penalva do Castelo (CIM),40.65706389,-7.69655278,16.6,7.6,,6,1.6,4.6,100.0,,SW
2026-02-06 00:00:00,6213020,Satão (CIM),40.76072778,-7.72019722,11.9,5.9,,6,0.1,3.3,100.0,,SW
2026-02-06 00:00:00,6213022,Vila Nova de Paiva (CIM),40.85595,-7.72716389,13.3,5.3,,6,6.9,3.7,,,SW
2026-02-06 00:00:00,6213611,Arganil / Aeródromo (CIM),40.274578,-7.974399,7.6,9.8,,8,0.9,2.1,88.0,,NW
2026-02-06 00:00:00,6213612,Cantanhede / Fonte Dom Pedro (CIM),40.341894,-8.577613,4.0,9.9,,6,0.1,1.1,89.0,,SW
2026-02-06 00:00:00,6213613,Coimbra / Mata de São Pedro (CIM),40.330787,-8.374887,,7.9,,0,,,100.0,,
2026-02-06 00:00:00,6213614,Góis / Quinta da Ribeira (CIM),40.171642,-8.103238,21.6,,,6,,6.0,,,SW
2026-02-06 00:00:00,6213615,Mealhada / Quinta do Vale (CIM),40.373343,-8.4388429,3.6,10.1,,6,0.1,1.0,95.0,,SW
2026-02-06 00:00:00,6213616,Mortágua / Aeródromo (CIM),40.426239,-8.232142,11.2,10.0,,7,1.8,3.1,94.0,,W
2026-02-06 00:00:00,6213617,Penacova / Hombres (CIM),40.280921,-8.198685,5.0,,,6,0.8,1.4,94.0,,SW
2026-02-06 00:00:00,6213619,Vila Nova de Poiares (CIM),40.211411,-8.241995,11.2,11.8,,6,0.0,3.1,83.0,,SW
2026-02-06 00:00:00,6213620,Oliveira do Hospital (CIM),40.413306,-7.867972,15.8,8.2,,6,2.3,4.4,94.0,,SW
2026-02-06 00:00:00,6214119,Pedrógão Grande (CMPG),39.926573,-8.150912,16.9,9.0,,6,0.0,4.7,91.0,1002.2,SW
2026-02-06 00:00:00,6215302,"Lisboa, Carnide (CML)",38.7751,-9.1855,15.1,12.4,,7,,4.2,87.0,1002.4,W
2026-02-06 00:00:00,6215360,Oeiras / Vila Fria (CMO),38.7239536,-9.2939255,22.7,12.9,0.0,7,0.0,6.3,80.0,1003.0,W
2026-02-06 00:00:00,7240919,"Lisboa, Amoreiras (LFCL)",38.7239,-9.1649,16.2,11.7,,7,0.0,4.5,96.0,1003.7,W
2026-02-06 01:00:00,11217160,Santa Maria / Praia Formosa (DROTRH),36.9542,-25.0917,18.7,11.6,0.0,3,0.0,5.2,72.0,,E
2026-02-06 01:00:00,11217165,Santa Maria / Maia (DROTRH),36.9412,-25.0176,20.2,11.3,0.0,8,0.0,5.6,73.0,,NW
2026-02-06 01:00:00,11217217,São Miguel / Santana (DROTRH),37.8049,-25.5618,7.2,11.2,5.0,7,0.3,2.0,73.0,,W
2026-02-06 01:00:00,11217225,São Miguel / Sete Cidades (DROTRH),37.8679,-25.772,23.8,10.7,5.7,7,0.1,6.6,76.0,,W
2026-02-06 01:00:00,11217255,São Miguel / Lagoa das Furnas (DROTRH),37.7619,-25.3291,11.5,10.2,0.2,6,0.0,3.2,69.0,,SW
2026-02-06 01:00:00,11217370,Terceira / Ribeira das Nove (DROTRH),38.754,-27.3245,8.3,5.6,0.0,5,0.0,2.3,99.0,,S
2026-02-06 01:00:00,11217430,Graciosa / Serra das Fontes (DROTRH),39.0672,-28.0038,35.6,10.0,0.0,8,0.0,9.9,80.0,,NW
2026-02-06 01:00:00,11217510,São Jorge / Pico do Areeiro (DROTRH),38.6435,-28.0591,39.6,4.3,0.0,6,0.2,11.0,97.0,,SW
2026-02-06 01:00:00,11217625,Pico / Cabeço do Teicho (DROTRH),38.489,-28.3534,22.7,4.5,0.0,7,0.0,6.3,90.0,,W
2026-02-06 01:00:00,11217645,Pico / Cabecinho (DROTRH),38.4338,-28.1141,21.2,6.6,0.0,7,0.0,5.9,79.0,,W
2026-02-06 01:00:00,11217730,Faial / Cabeço Verde (DROTRH),38.5843,-28.7576,10.1,8.0,0.0,8,0.1,2.8,81.0,,NW
2026-02-06 01:00:00,1200501,Flores (Aeródromo),39.45819,-31.1301,19.8,11.7,0.0,7,0.1,5.5,69.0,1012.7,W
2026-02-06 01:00:00,1200502,Corvo (Aeródromo),39.67389,-31.11362,45.0,12.4,0.0,7,0.0,12.5,70.0,1011.6,W
2026-02-06 01:00:00,1200504,Pico (Aeródromo),38.55219,-28.44137,16.2,10.6,0.0,7,0.0,4.5,72.0,1013.4,W
2026-02-06 01:00:00,1200505,Horta / Aeroporto,38.5211,-28.7128,24.1,12.6,,7,0.0,6.7,60.0,1013.1,W
2026-02-06 01:00:00,1200506,Horta (Obs. Principe Alberto),38.540781,-28.63225,30.2,11.4,0.0,7,0.0,8.4,69.0,1013.7,W
2026-02-06 01:00:00,1200507,Graciosa (Aeródromo),39.09036,-28.02852,38.2,12.5,0.0,7,0.0,10.6,55.0,1011.3,W
2026-02-06 01:00:00,1200510,São Jorge,38.66,-28.17,26.6,11.0,1.5,7,0.1,7.4,76.0,1012.9,W
2026-02-06 01:00:00,1200511,Angra do Heroísmo,38.6659435,-27.216567,28.8,11.3,0.0,7,0.0,8.0,65.0,1011.9,W
2026-02-06 01:00:00,1200512,P. Delgada (Aeródromo),37.74414,-25.6953048,50.0,12.6,0.0,8,0.0,13.9,66.0,1011.9,NW
2026-02-06 01:00:00,1200515,Santa Maria (Aeródromo),36.967175,-25.1679,46.1,12.9,0.0,8,0.0,12.8,68.0,1013.8,NW
2026-02-06 01:00:00,1200521,Santa Catarina (Aeródromo),32.69688,-16.77612,,16.1,0.0,0,0.0,,69.0,1014.4,
2026-02-06 01:00:00,1200522,Funchal,32.64786,-16.888,6.5,15.5,0.0,8,0.0,1.8,72.0,1014.6,NW
2026-02-06 01:00:00,1200524,Porto Santo,33.074029,-16.34868,26.3,14.7,4.4,7,2.9,7.3,82.0,1014.0,W
2026-02-06 01:00:00,1200533,Sagres,37.012835,-8.949089,23.8,14.4,,6,0.0,6.6,76.0,1006.0,SW
2026-02-06 01:00:00,1200535,Lisboa (Geofísico),38.71907778,-9.14972222,15.1,12.6,0.0,6,0.0,4.2,91.0,1003.0,SW
2026-02-06 01:00:00,1200541,Sines,37.954504,-8.838271,23.4,13.6,0.0,6,0.0,6.5,99.0,1004.6,SW
2026-02-06 01:00:00,1200545,"Porto, Pedras Rubras (Aeródromo)",41.233502,-8.681332,17.3,11.5,0.0,6,0.0,4.8,83.0,998.8,SW
2026-02-06 01:00:00,1200548,Coimbra (Aeródromo),40.15006944,-8.46669167,,,0.0,0,0.4,,,,
2026-02-06 01:00:00,1200551,"Viana Castelo, Chafé",41.648875,-8.804606,18.0,12.0,0.0,6,0.0,5.0,88.0,997.7,SW
2026-02-06 01:00:00,1200554,Faro (Aeródromo),37.016579,-7.971953,15.1,14.3,0.0,7,0.0,4.2,89.0,1006.5,W
2026-02-06 01:00:00,1200558,Évora (C.Coordenação),38.53336389,-7.88338056,13.7,10.8,0.0,6,0.0,3.8,,1004.3,SW
2026-02-06 01:00:00,1200559,Viseu (Aeródromo),40.72645,-7.887472,18.7,6.8,,6,0.1,5.2,82.0,1000.4,SW
2026-02-06 01:00:00,1200560,Viseu (C.Coordenação),40.71492222,-7.89592222,17.3,6.5,,6,0.1,4.8,87.0,,SW
2026-02-06 01:00:00,1200562,Beja,38.02493056,-7.867275,15.1,10.9,0.0,6,0.0,4.2,100.0,1004.9,SW
2026-02-06 01:00:00,1200567,Vila Real,41.27418611,-7.7171,4.7,5.9,0.0,6,2.2,1.3,94.0,999.7,SW
2026-02-06 01:00:00,1200568,Penhas Douradas,40.41136667,-7.55865278,,0.4,,0,,,100.0,,
2026-02-06 01:00:00,1200570,Castelo Branco,39.83339444,-7.46678889,16.2,9.2,0.0,7,0.0,4.5,100.0,1001.3,W
2026-02-06 01:00:00,1200571,Portalegre,39.29546944,-7.41996944,14.0,7.7,0.0,6,0.0,3.9,100.0,1003.9,SW
2026-02-06 01:00:00,1200575,Bragança,41.80388889,-6.74283889,15.8,6.4,0.0,6,0.9,4.4,84.0,998.2,SW
2026-02-06 01:00:00,1200576,Bragança (Aeródromo),41.85763611,-6.70796389,22.0,6.5,,6,0.4,6.1,87.0,997.4,SW
2026-02-06 01:00:00,1200843,Évora (Aeródromo),38.5296,-7.8916,16.9,10.6,,6,0.0,4.7,94.0,1004.0,SW
2026-02-06 01:00:00,1210513,P. Delgada (Obs. A. Chaves),37.7464,-25.662283,12.6,12.0,2.7,9,0.0,3.5,65.0,,N
2026-02-06 01:00:00,1210517,Flores / Morro Alto,39.4633,-31.2207,50.8,3.8,,6,0.0,14.1,100.0,1010.0,SW
2026-02-06 01:00:00,1210518,São Miguel - Pico Santos De Cima,37.819,-25.7512,40.0,5.0,,8,0.0,11.1,100.0,1012.2,NW
2026-02-06 01:00:00,1210520,Ilhas selvagens,30.140595,-15.869153,31.7,16.2,0.3,7,0.0,8.8,90.0,1017.0,W
2026-02-06 01:00:00,1210550,Coruche / Cruz Do Leão,39.07101,-8.4,6.5,10.1,,6,0.5,1.8,98.0,1003.2,SW
2026-02-06 01:00:00,1210553,Loulé / Cavalos De Caldeirão,37.3042,-7.9534,34.2,9.2,,6,0.0,9.5,100.0,1006.5,SW
2026-02-06 01:00:00,1210577,"Odemira, S.Teotónio",37.54710833,-8.72899167,15.5,13.0,0.0,6,0.0,4.3,93.0,,SW
2026-02-06 01:00:00,1210580,"Lisboa, Relógio",38.7618,-9.1254,20.9,12.0,,6,0.0,5.8,77.0,1003.2,SW
2026-02-06 01:00:00,1210604,V.N.Cerveira (Aeródromo),41.96673056,-8.66676111,10.4,11.0,0.0,6,8.6,2.9,85.0,996.9,SW
2026-02-06 01:00:00,1210605,"Monção, Valinha",42.06669,-8.383347,15.8,11.0,0.0,6,0.5,4.4,81.0,,SW
2026-02-06 01:00:00,1210606,"Lamas de Mouro, P.Ribeiro",42.03333333,-8.18333333,,4.7,0.0,0,0.2,,98.0,998.1,
2026-02-06 01:00:00,1210611,Montalegre,41.82276667,-7.78797778,17.3,3.6,0.0,7,0.4,4.8,99.0,,W
2026-02-06 01:00:00,1210612,Vinhais,41.8434,-7.0034416,11.5,5.0,,7,1.4,3.2,100.0,,W
2026-02-06 01:00:00,1210615,Ponte de Lima,41.75013889,-8.56671389,2.5,10.7,0.0,4,4.7,0.7,87.0,,SE
2026-02-06 01:00:00,1210616,Chaves (Aeródromo),41.72516667,-7.46540833,13.0,8.6,0.0,6,2.0,3.6,86.0,997.5,SW
2026-02-06 01:00:00,1210619,Cabril,41.71666667,-8.01666667,20.9,6.5,,7,1.5,5.8,99.0,,W
2026-02-06 01:00:00,1210622,"Braga, Merelim",41.56678056,-8.45003056,13.3,11.1,1.1,6,0.0,3.7,82.0,998.2,SW
2026-02-06 01:00:00,1210630,Cabeceiras de Basto,41.53333333,-7.96666667,11.2,10.0,0.0,6,0.1,3.1,85.0,,SW
2026-02-06 01:00:00,1210632,Mirandela,41.51478611,-7.19083889,18.0,8.4,0.0,5,1.0,5.0,83.0,,S
2026-02-06 01:00:00,1210633,"Macedo Cavaleiros, Bagueixe",41.56666667,-6.78333333,18.0,5.2,,7,2.1,5.0,98.0,,W
2026-02-06 01:00:00,1210635,Miranda do Douro,41.51666667,-6.28333333,20.2,6.2,,7,0.9,5.6,95.0,,W
2026-02-06 01:00:00,1210637,Mogadouro,41.33333333,-6.73333333,27.7,5.2,0.0,7,1.2,7.7,99.0,,W
2026-02-06 01:00:00,1210643,Paços Ferreira,41.27365,-8.38012,11.5,8.2,,6,1.9,3.2,97.0,,SW
2026-02-06 01:00:00,1210644,Carrazêda de Ansiães,41.23333333,-7.28333333,4.0,5.2,0.0,6,1.6,1.1,90.0,,SW
2026-02-06 01:00:00,1210654,Moncorvo,41.18333333,-7.01666667,4.0,7.0,0.0,6,0.2,1.1,90.0,999.8,SW
2026-02-06 01:00:00,1210655,"Pinhão, Santa Bárbara",41.172775,-7.5489722,6.5,9.5,,3,0.0,1.8,81.0,,E
2026-02-06 01:00:00,1210657,Luzim,41.14585,-8.2490333,10.1,8.7,5.7,5,0.0,2.8,88.0,,S
2026-02-06 01:00:00,1210663,Moimenta da Beira,40.98333333,-7.6,16.2,6.3,0.0,7,0.9,4.5,90.0,,W
2026-02-06 01:00:00,1210666,"Trancoso, Bandarra",40.78333333,-7.36666667,29.5,5.1,0.0,6,0.2,8.2,99.0,,SW
2026-02-06 01:00:00,1210669,Arouca,40.93333333,-8.25,14.8,10.5,0.0,7,0.0,4.1,81.0,,W
2026-02-06 01:00:00,1210671,"F. Castelo Rodrigo, V.Torpim",40.75,-6.88333333,27.7,6.9,0.0,6,0.1,7.7,94.0,,SW
2026-02-06 01:00:00,1210683,Guarda,40.53333333,-7.26666667,18.4,3.0,0.4,7,1.8,5.1,93.0,,W
2026-02-06 01:00:00,1210685,Nelas,40.51666667,-7.85,9.7,7.3,0.0,6,1.3,2.7,98.0,,SW
2026-02-06 01:00:00,1210686,"Pampilhosa da Serra, Fajão",40.145653,-7.92704,26.6,5.1,,7,0.0,7.4,94.0,,W
2026-02-06 01:00:00,1210687,Covilhã (Aeródromo),40.264309,-7.482302,17.6,8.7,0.0,7,,4.9,73.0,,W
2026-02-06 01:00:00,1210690,Aldeia Souto (Q. Lageosa),40.35425833,-7.38931111,3.6,7.7,0.1,9,0.2,1.0,73.0,,N
2026-02-06 01:00:00,1210698,Fundão,40.14063611,-7.55362778,6.8,8.2,1.7,7,0.0,1.9,87.0,,W
2026-02-06 01:00:00,1210702,Aveiro (Universidade),40.63529722,-8.65958333,27.4,12.1,0.0,7,0.0,7.6,82.0,1000.3,W
2026-02-06 01:00:00,1210704,Dunas de Mira,40.445955,-8.76168055,14.4,11.8,0.3,6,0.0,4.0,82.0,,SW
2026-02-06 01:00:00,1210705,Anadia,40.438852,-8.439996,2.9,9.0,0.0,4,0.0,0.8,95.0,,SE
2026-02-06 01:00:00,1210707,"Coimbra, Bencanta",40.2134694,-8.45515277,4.3,10.8,0.5,1,0.0,1.2,99.0,,N
2026-02-06 01:00:00,1210713,"Figueira da Foz, Vila Verde",40.139764,-8.805945,18.7,12.8,,6,1.6,5.2,,,SW
2026-02-06 01:00:00,1210716,Ansião,39.9,-8.4,14.8,8.2,0.0,6,,4.1,98.0,,SW
2026-02-06 01:00:00,1210726,Alcobaça,39.51666667,-8.96666667,4.0,11.0,0.0,7,0.0,1.1,88.0,,W
2026-02-06 01:00:00,1210729,Rio Maior,39.35,-8.93333333,1.8,12.2,0.0,7,0.0,0.5,77.0,,W
2026-02-06 01:00:00,1210734,"Santarém, Fonte Boa",39.201216,-8.736656,6.5,10.8,0.0,5,0.0,1.8,85.0,1002.7,S
2026-02-06 01:00:00,1210735,Chamusca / Chouto,39.27,-8.3508,4.0,8.6,,5,0.0,1.1,100.0,1003.1,S
2026-02-06 01:00:00,1210739,"Torres Vedras, Dois Portos",39.04389444,-9.179,15.5,12.2,0.0,6,0.0,4.3,81.0,,SW
2026-02-06 01:00:00,1210744,Coruche,38.94096667,-8.51073611,12.6,11.7,0.3,6,0.0,3.5,,,SW
2026-02-06 01:00:00,1210746,Santa Cruz (Aeródromo),39.12594166,-9.3790388,21.2,12.1,0.0,7,0.0,5.9,77.0,1002.3,W
2026-02-06 01:00:00,1210750,Cabo da Roca,38.78171,-9.4975361,20.9,13.1,0.0,6,0.0,5.8,78.0,,SW
2026-02-06 01:00:00,1210752,Sintra/Tapada do Mouco,38.781669,-9.400398,7.2,9.2,,6,0.0,2.0,90.0,,SW
2026-02-06 01:00:00,1210762,"Lisboa, Tapada da Ajuda",38.70956111,-9.182825,6.5,12.8,0.0,6,0.0,1.8,79.0,,SW
2026-02-06 01:00:00,1210765,Cabo Raso,38.70900833,-9.48538333,23.0,14.4,,6,0.0,6.4,81.0,,SW
2026-02-06 01:00:00,1210766,"Barreiro, Lavradio",38.67448611,-9.04766111,10.4,13.9,0.0,6,0.0,2.9,82.0,,SW
2026-02-06 01:00:00,1210767,Pegões,38.65079,-8.63503,10.1,11.7,0.0,6,0.0,2.8,100.0,,SW
2026-02-06 01:00:00,1210770,Setúbal,38.54846008,-8.89077058,5.0,13.1,0.0,5,0.0,1.4,79.0,,S
2026-02-06 01:00:00,1210776,"Alcácer do Sal, Barrosinha",38.36666667,-8.48333333,10.1,13.2,0.0,6,0.0,2.8,84.0,,SW
2026-02-06 01:00:00,1210783,Alvalade,37.946806,-8.394504,10.8,13.3,0.0,6,0.0,3.0,87.0,,SW
2026-02-06 01:00:00,1210785,Ourique / Santana Da Serra,37.5025,-8.3019,15.8,12.5,0.0,4,,4.4,83.0,1005.4,SE
2026-02-06 01:00:00,1210789,Aljezur,37.31675278,-8.80001667,6.8,13.7,0.0,6,0.0,1.9,85.0,,SW
2026-02-06 01:00:00,1210790,Fóia,37.3143,-8.595733,35.3,7.2,0.0,7,0.0,9.8,,,W
2026-02-06 01:00:00,1210800,"Sabugal, Martim Rei",40.33918056,-7.03693333,15.8,5.8,0.0,6,0.4,4.4,93.0,,SW
2026-02-06 01:00:00,1210803,Zebreira,39.86666667,-7.01666667,17.3,9.4,5.5,6,0.0,4.8,92.0,,SW
2026-02-06 01:00:00,1210806,"Proença-a-Nova, P.Moitas",39.73333333,-7.86666667,13.7,9.0,12.7,7,0.5,3.8,99.0,,W
2026-02-06 01:00:00,1210812,Alvega,39.46666667,-8.05,12.6,11.5,,6,0.0,3.5,89.0,,SW
2026-02-06 01:00:00,1210824,"Avis, Benavila",39.1,-7.86666667,10.1,10.8,0.0,6,0.0,2.8,99.0,,SW
2026-02-06 01:00:00,1210826,Mora,38.94068,-8.16406,12.6,10.8,0.0,6,0.0,3.5,92.0,,SW
2026-02-06 01:00:00,1210835,Elvas,38.8908,-7.13976111,11.2,11.1,0.0,6,0.0,3.1,84.0,,SW
2026-02-06 01:00:00,1210837,Estremoz,38.86666667,-7.51666667,11.2,9.7,0.0,6,0.0,3.1,100.0,,SW
2026-02-06 01:00:00,1210840,"Reguengos, S. P. do Corval",38.484866,-7.4729166,11.9,9.9,0.0,6,0.0,3.3,96.0,,SW
2026-02-06 01:00:00,1210846,Montemor-O-Novo,38.6451,-8.1991,12.6,10.9,,6,0.0,3.5,94.0,1004.8,SW
2026-02-06 01:00:00,1210847,Viana do Alentejo,38.3319194,-8.04553888,15.1,11.2,0.0,6,,4.2,88.0,,SW
2026-02-06 01:00:00,1210848,"Portel, Oriola",38.31666667,-7.86666667,11.2,11.4,,6,0.0,3.1,91.0,,SW
2026-02-06 01:00:00,1210851,Amareleja,38.2007,-7.2261,10.4,,0.0,6,0.0,2.9,,1004.3,SW
2026-02-06 01:00:00,1210863,"Mértola, Vale Formoso",37.75,-7.55,9.7,11.4,0.0,6,0.0,2.7,88.0,,SW
2026-02-06 01:00:00,1210864,"Castro Verde, N.Corvo",37.57655833,-7.97211389,12.2,11.6,0.0,6,0.0,3.4,99.0,,SW
2026-02-06 01:00:00,1210865,"Alcoutim, Mart.Longo",37.43333333,-7.76666667,14.8,11.2,,6,0.0,4.1,87.0,1005.8,SW
2026-02-06 01:00:00,1210866,Vila Real de S.António,37.1871055,-7.416325,,13.3,,0,0.0,,90.0,,
2026-02-06 01:00:00,1210874,Albufeira,37.0935,-8.262,16.2,13.0,,6,0.0,4.5,92.0,,SW
2026-02-06 01:00:00,1210878,Portimão (Aeródromo),37.149167,-8.581389,10.1,13.3,0.0,7,0.0,2.8,86.0,1006.1,W
2026-02-06 01:00:00,1210881,"Olhão, EPPO",37.033,-7.821,10.8,14.3,0.0,6,0.0,3.0,91.0,1007.1,SW
2026-02-06 01:00:00,1210883,Tavira,37.12166968,-7.62050375,9.4,12.7,,6,0.0,2.6,92.0,1006.6,SW
2026-02-06 01:00:00,1210907,Faja / Ilha das Flores,39.45328,-31.2647,,13.1,,0,,,67.0,1013.4,
2026-02-06 01:00:00,1210932,"S. Miguel, Nordeste",37.83256,-25.150108,16.9,9.6,,8,0.9,4.7,83.0,,NW
2026-02-06 01:00:00,1210956,"Madeira, Porto Moniz",32.867477,-17.171373,,16.9,0.1,0,0.0,,72.0,,
2026-02-06 01:00:00,1210960,"Madeira, S. Jorge, Santana",32.83446944,-16.906219,18.4,14.4,101.6,7,0.0,5.1,84.0,1014.1,W
2026-02-06 01:00:00,1210965,"Madeira, Santana",32.808238,-16.8864166,,12.5,29.8,0,0.0,,82.0,,
2026-02-06 01:00:00,1210967,"Madeira, São Vicente",32.8001833,-17.044722,,13.0,0.0,0,0.1,,90.0,,
2026-02-06 01:00:00,1210972,"Madeira, Pico Alto",32.693491,-16.903955,15.1,7.1,0.0,6,,4.2,86.0,,SW
2026-02-06 01:00:00,1210973,"Madeira, Areeiro",32.71666667,-16.91666667,39.2,4.1,8.3,8,0.4,10.9,92.0,,NW
2026-02-06 01:00:00,1210974,"Madeira, Pico do Areeiro",32.735107,-16.928271,,2.2,,0,0.6,,100.0,,
2026-02-06 01:00:00,1210975,"Madeira, Santo da Serra",32.7258972,-16.816822,,9.6,0.0,0,0.1,,92.0,,
2026-02-06 01:00:00,1210976,"Madeira, Monte",32.675833,-16.906944,6.5,11.1,0.3,7,0.0,1.8,80.0,,W
2026-02-06 01:00:00,1210977,"Madeira, Cancela",32.64500556,-16.86575,4.7,13.7,0.0,9,0.1,1.3,88.0,,N
2026-02-06 01:00:00,1210978,"Madeira, S. Lourenço",32.747,-16.706,16.9,16.2,0.0,9,0.0,4.7,69.0,,N
2026-02-06 01:00:00,1210984,"Madeira, Quinta Grande",32.6629722,-17.01503611,,13.2,0.1,0,0.0,,64.0,,
2026-02-06 01:00:00,1210986,Ponta do Sol/Lugar de Baixo,32.681502,-17.104167,5.4,16.1,0.0,3,0.0,1.5,71.0,,E
2026-02-06 01:00:00,1210987,Prazeres (Calheta),32.757205,-17.201551,24.8,11.1,0.2,8,0.0,6.9,96.0,,NW
2026-02-06 01:00:00,1210990,"Madeira, Calheta",32.81384167,-17.26321389,25.2,13.7,0.2,8,0.0,7.0,83.0,1013.5,NW
2026-02-06 01:00:00,1240546,"Porto, Serra do Pilar",41.1385194,-8.6025,,11.6,,0,0.0,,90.0,998.4,
2026-02-06 01:00:00,1240566,Vila Real (Cidade),41.30898056,-7.740522,8.6,6.7,,6,1.2,2.4,92.0,,SW
2026-02-06 01:00:00,1240610,Viana do Castelo,41.695,-8.82916,,12.6,,0,0.0,,78.0,,
2026-02-06 01:00:00,1240675,Viseu (Cidade),40.662738,-7.9039694,,7.9,,0,0.2,,87.0,,
2026-02-06 01:00:00,1240903,"Porto, Massarelos",41.15257,-8.62598,,11.1,,0,,,99.0,,
2026-02-06 01:00:00,1240971,"Madeira, Funchal, Lido",32.63655,-16.935592,2.2,16.7,3.2,8,0.0,0.6,68.0,,NW
2026-02-06 01:00:00,5210758,Alcochete / Campo Tiro,38.7627,-8.7825,6.8,11.0,,5,0.0,1.9,90.0,1003.0,S
2026-02-06 01:00:00,6210872,Loulé (CML),37.129946,-8.06523593,1.1,,,3,0.0,0.3,,1006.7,E
2026-02-06 01:00:00,6210879,Portimão (Praia da Rocha),37.11670461,-8.52946314,12.6,14.1,,7,0.0,3.5,92.0,,W
2026-02-06 01:00:00,6211211,Monção - Guimil (CIM),42.042944,-8.421872,16.2,,1.6,6,,4.5,,995.4,SW
2026-02-06 01:00:00,6211213,Paredes De Coura - Vascões (CIM),41.913444,-8.492111,14.0,5.7,0.7,6,,3.9,98.0,997.1,SW
2026-02-06 01:00:00,6211216,Arcos De Valdevez - Heliporto (CIM),41.831,-8.44375,7.9,8.2,,6,0.7,2.2,92.0,997.5,SW
2026-02-06 01:00:00,6211217,Viana Do Castelo - Fonte Louçã (CIM),41.745722,-8.815306,34.2,,3.2,7,1.4,9.5,,993.1,W
2026-02-06 01:00:00,6211218,Ponte De Lima - Anais (CIM),41.698083,-8.522444,6.1,8.4,1.3,8,,1.7,89.0,997.8,NW
2026-02-06 01:00:00,6212122,Amares Caldelas (CIM),41.66796389,-8.37977778,8.6,9.1,,5,0.0,2.4,89.0,998.5,S
2026-02-06 01:00:00,6212123,Vila Verde (CIM),41.64686111,-8.43398056,8.3,9.6,,6,,2.3,90.0,998.0,SW
2026-02-06 01:00:00,6212124,Braga (CIM),41.53568333,-8.42514722,15.1,9.8,,6,0.0,4.2,84.0,999.3,SW
2026-02-06 01:00:00,6212126,Esposende (CIM),41.52645556,-8.77984444,31.3,12.9,,7,0.3,8.7,94.0,998.6,W
2026-02-06 01:00:00,6213012,Carregal do Sal (CIM),40.46718056,-7.92626389,7.6,7.9,,6,,2.1,96.0,,SW
2026-02-06 01:00:00,6213013,Castro Daire / Mézio (CIM),40.98086111,-7.88318889,20.2,4.3,,6,,5.6,96.0,,SW
2026-02-06 01:00:00,6213014,Mangualde / Chãs de Tavares  (CIM),40.61096111,-7.60838889,30.2,6.2,,6,2.7,8.4,99.0,,SW
2026-02-06 01:00:00,6213016,Oliveira de Frades (CIM),40.716925,-8.20133889,25.2,6.7,,5,,7.0,97.0,,S
2026-02-06 01:00:00,6213017,Penalva do Castelo (CIM),40.65706389,-7.69655278,17.6,7.5,,6,0.9,4.9,98.0,,SW
2026-02-06 01:00:00,6213020,Satão (CIM),40.76072778,-7.72019722,13.0,5.4,,6,0.1,3.6,100.0,,SW
2026-02-06 01:00:00,6213022,Vila Nova de Paiva (CIM),40.85595,-7.72716389,15.5,4.8,,6,0.9,4.3,,,SW
2026-02-06 01:00:00,6213611,Arganil / Aeródromo (CIM),40.274578,-7.974399,13.7,8.7,,6,0.9,3.8,93.0,,SW
2026-02-06 01:00:00,6213612,Cantanhede / Fonte Dom Pedro (CIM),40.341894,-8.577613,7.9,9.2,,6,0.0,2.2,93.0,,SW
2026-02-06 01:00:00,6213613,Coimbra / Mata de São Pedro (CIM),40.330787,-8.374887,9.4,7.7,,6,,2.6,100.0,,SW
2026-02-06 01:00:00,6213614,Góis / Quinta da Ribeira (CIM),40.171642,-8.103238,15.8,,,5,,4.4,,,S
2026-02-06 01:00:00,6213615,Mealhada / Quinta do Vale (CIM),40.373343,-8.4388429,6.8,8.9,,5,0.0,1.9,98.0,,S
2026-02-06 01:00:00,6213616,Mortágua / Aeródromo (CIM),40.426239,-8.232142,5.8,9.2,,7,0.0,1.6,92.0,,W
2026-02-06 01:00:00,6213617,Penacova / Hombres (CIM),40.280921,-8.198685,9.7,,,6,3.6,2.7,94.0,,SW
2026-02-06 01:00:00,6213619,Vila Nova de Poiares (CIM),40.211411,-8.241995,8.3,11.5,,5,0.0,2.3,82.0,,S
2026-02-06 01:00:00,6213620,Oliveira do Hospital (CIM),40.413306,-7.867972,6.5,7.2,,6,0.7,1.8,94.0,,SW
2026-02-06 01:00:00,6214119,Pedrógão Grande (CMPG),39.926573,-8.150912,11.9,8.8,,6,0.1,3.3,93.0,1002.7,SW
2026-02-06 01:00:00,6215302,"Lisboa, Carnide (CML)",38.7751,-9.1855,13.3,12.1,,6,,3.7,86.0,1002.5,SW
2026-02-06 01:00:00,6215360,Oeiras / Vila Fria (CMO),38.7239536,-9.2939255,15.8,12.6,0.0,7,0.0,4.4,79.0,1003.1,W
2026-02-06 01:00:00,7240919,"Lisboa, Amoreiras (LFCL)",38.7239,-9.1649,9.0,11.7,,7,0.0,2.5,93.0,1003.8,W
2026-02-06 02:00:00,11217160,Santa Maria / Praia Formosa (DROTRH),36.9542,-25.0917,18.0,11.2,0.1,3,0.0,5.0,78.0,,E
2026-02-06 02:00:00,11217165,Santa Maria / Maia (DROTRH),36.9412,-25.0176,23.0,11.0,0.3,8,0.0,6.4,76.0,,NW
2026-02-06 02:00:00,11217217,São Miguel / Santana (DROTRH),37.8049,-25.5618,7.6,11.1,13.5,7,0.0,2.1,71.0,,W
2026-02-06 02:00:00,11217225,São Miguel / Sete Cidades (DROTRH),37.8679,-25.772,19.8,10.9,0.0,7,0.0,5.5,74.0,,W
2026-02-06 02:00:00,11217255,São Miguel / Lagoa das Furnas (DROTRH),37.7619,-25.3291,11.2,10.2,0.0,5,0.0,3.1,69.0,,S
2026-02-06 02:00:00,11217430,Graciosa / Serra das Fontes (DROTRH),39.0672,-28.0038,34.6,10.1,0.0,8,0.0,9.6,83.0,,NW
2026-02-06 02:00:00,11217510,São Jorge / Pico do Areeiro (DROTRH),38.6435,-28.0591,33.8,4.3,0.0,6,0.1,9.4,98.0,,SW
2026-02-06 02:00:00,11217625,Pico / Cabeço do Teicho (DROTRH),38.489,-28.3534,24.1,4.7,0.0,6,0.5,6.7,91.0,,SW
2026-02-06 02:00:00,11217645,Pico / Cabecinho (DROTRH),38.4338,-28.1141,15.1,7.0,0.0,7,0.0,4.2,78.0,,W
2026-02-06 02:00:00,11217730,Faial / Cabeço Verde (DROTRH),38.5843,-28.7576,4.7,7.4,0.0,6,0.5,1.3,97.0,,SW
2026-02-06 02:00:00,1200501,Flores (Aeródromo),39.45819,-31.1301,23.0,12.6,0.0,7,0.0,6.4,63.0,1012.7,W
2026-02-06 02:00:00,1200502,Corvo (Aeródromo),39.67389,-31.11362,41.4,13.2,488.3,7,0.0,11.5,67.0,1011.5,W
2026-02-06 02:00:00,1200504,Pico (Aeródromo),38.55219,-28.44137,14.4,10.7,0.0,6,0.0,4.0,75.0,1013.6,SW
2026-02-06 02:00:00,1200505,Horta / Aeroporto,38.5211,-28.7128,35.3,12.4,,7,0.0,9.8,69.0,1013.4,W
2026-02-06 02:00:00,1200506,Horta (Obs. Principe Alberto),38.540781,-28.63225,34.6,10.8,0.0,7,0.4,9.6,82.0,1014.0,W
2026-02-06 02:00:00,1200507,Graciosa (Aeródromo),39.09036,-28.02852,40.0,12.5,0.0,7,0.0,11.1,60.0,1011.7,W
2026-02-06 02:00:00,1200510,São Jorge,38.66,-28.17,22.0,11.0,0.0,7,0.0,6.1,76.0,1013.2,W
2026-02-06 02:00:00,1200511,Angra do Heroísmo,38.6659435,-27.216567,24.5,11.3,0.0,7,0.0,6.8,67.0,1012.3,W
2026-02-06 02:00:00,1200512,P. Delgada (Aeródromo),37.74414,-25.6953048,49.7,12.7,0.0,8,0.0,13.8,67.0,1012.4,NW
2026-02-06 02:00:00,1200515,Santa Maria (Aeródromo),36.967175,-25.1679,47.9,12.3,1.5,8,0.0,13.3,75.0,1014.2,NW
2026-02-06 02:00:00,1200521,Santa Catarina (Aeródromo),32.69688,-16.77612,,15.8,0.0,0,0.0,,66.0,1014.5,
2026-02-06 02:00:00,1200522,Funchal,32.64786,-16.888,11.5,15.7,0.0,7,0.0,3.2,66.0,1014.5,W
2026-02-06 02:00:00,1200524,Porto Santo,33.074029,-16.34868,32.8,15.6,0.0,7,0.0,9.1,76.0,1014.1,W
2026-02-06 02:00:00,1200533,Sagres,37.012835,-8.949089,24.5,14.4,,6,0.0,6.8,78.0,1005.7,SW
2026-02-06 02:00:00,1200535,Lisboa (Geofísico),38.71907778,-9.14972222,14.0,12.3,0.0,6,0.0,3.9,98.0,1002.6,SW
2026-02-06 02:00:00,1200541,Sines,37.954504,-8.838271,19.1,13.5,0.0,6,0.0,5.3,98.0,1004.4,SW
2026-02-06 02:00:00,1200545,"Porto, Pedras Rubras (Aeródromo)",41.233502,-8.681332,17.3,11.2,0.0,6,0.1,4.8,81.0,999.0,SW
2026-02-06 02:00:00,1200548,Coimbra (Aeródromo),40.15006944,-8.46669167,,,0.0,0,0.0,,,,
2026-02-06 02:00:00,1200551,"Viana Castelo, Chafé",41.648875,-8.804606,14.4,11.6,0.0,7,0.8,4.0,91.0,997.8,W
2026-02-06 02:00:00,1200554,Faro (Aeródromo),37.016579,-7.971953,18.0,14.2,0.0,7,0.0,5.0,89.0,1006.2,W
2026-02-06 02:00:00,1200558,Évora (C.Coordenação),38.53336389,-7.88338056,9.4,10.5,0.0,5,0.0,2.6,,1004.2,S
2026-02-06 02:00:00,1200559,Viseu (Aeródromo),40.72645,-7.887472,16.6,6.6,,6,1.0,4.6,88.0,1000.8,SW
2026-02-06 02:00:00,1200560,Viseu (C.Coordenação),40.71492222,-7.89592222,19.4,6.4,,6,0.5,5.4,90.0,,SW
2026-02-06 02:00:00,1200562,Beja,38.02493056,-7.867275,18.4,10.7,0.0,6,0.0,5.1,100.0,1004.8,SW
2026-02-06 02:00:00,1200567,Vila Real,41.27418611,-7.7171,7.2,5.8,0.0,6,2.2,2.0,97.0,1000.1,SW
2026-02-06 02:00:00,1200568,Penhas Douradas,40.41136667,-7.55865278,,0.7,,0,,,100.0,,
2026-02-06 02:00:00,1200570,Castelo Branco,39.83339444,-7.46678889,20.5,9.0,0.0,7,0.0,5.7,100.0,1001.5,W
2026-02-06 02:00:00,1200571,Portalegre,39.29546944,-7.41996944,13.7,7.8,0.0,6,0.0,3.8,100.0,1004.1,SW
2026-02-06 02:00:00,1200575,Bragança,41.80388889,-6.74283889,11.2,5.6,0.0,6,0.5,3.1,91.0,999.3,SW
2026-02-06 02:00:00,1200576,Bragança (Aeródromo),41.85763611,-6.70796389,27.4,5.9,,6,0.3,7.6,89.0,998.2,SW
2026-02-06 02:00:00,1200843,Évora (Aeródromo),38.5296,-7.8916,9.4,10.4,,5,0.0,2.6,94.0,1003.9,S
2026-02-06 02:00:00,1210513,P. Delgada (Obs. A. Chaves),37.7464,-25.662283,11.2,12.2,1.5,9,0.1,3.1,64.0,,N
2026-02-06 02:00:00,1210517,Flores / Morro Alto,39.4633,-31.2207,57.2,4.3,,6,0.0,15.9,100.0,1009.6,SW
2026-02-06 02:00:00,1210518,São Miguel - Pico Santos De Cima,37.819,-25.7512,47.2,5.1,,8,0.0,13.1,99.0,1012.7,NW
2026-02-06 02:00:00,1210520,Ilhas selvagens,30.140595,-15.869153,47.9,16.6,0.2,7,0.0,13.3,89.0,1016.8,W
2026-02-06 02:00:00,1210550,Coruche / Cruz Do Leão,39.07101,-8.4,8.6,9.6,,6,0.0,2.4,98.0,1003.2,SW
2026-02-06 02:00:00,1210553,Loulé / Cavalos De Caldeirão,37.3042,-7.9534,38.5,9.3,,6,0.0,10.7,100.0,1006.1,SW
2026-02-06 02:00:00,1210577,"Odemira, S.Teotónio",37.54710833,-8.72899167,15.5,12.9,0.0,6,0.0,4.3,91.0,,SW
2026-02-06 02:00:00,1210580,"Lisboa, Relógio",38.7618,-9.1254,20.2,11.9,,6,0.0,5.6,80.0,1002.9,SW
2026-02-06 02:00:00,1210604,V.N.Cerveira (Aeródromo),41.96673056,-8.66676111,11.2,10.9,0.0,6,0.1,3.1,83.0,997.2,SW
2026-02-06 02:00:00,1210605,"Monção, Valinha",42.06669,-8.383347,9.0,10.0,0.0,6,2.0,2.5,87.0,,SW
2026-02-06 02:00:00,1210606,"Lamas de Mouro, P.Ribeiro",42.03333333,-8.18333333,,4.9,0.0,0,0.2,,92.0,998.4,
2026-02-06 02:00:00,1210611,Montalegre,41.82276667,-7.78797778,19.1,3.7,0.0,6,0.5,5.3,99.0,,SW
2026-02-06 02:00:00,1210612,Vinhais,41.8434,-7.0034416,15.8,4.5,,7,0.3,4.4,100.0,,W
2026-02-06 02:00:00,1210615,Ponte de Lima,41.75013889,-8.56671389,2.5,8.9,0.0,9,0.2,0.7,96.0,,N
2026-02-06 02:00:00,1210616,Chaves (Aeródromo),41.72516667,-7.46540833,7.2,7.8,0.0,5,0.1,2.0,85.0,997.9,S
2026-02-06 02:00:00,1210619,Cabril,41.71666667,-8.01666667,19.4,6.5,,7,2.6,5.4,99.0,,W
2026-02-06 02:00:00,1210622,"Braga, Merelim",41.56678056,-8.45003056,10.4,10.8,0.3,6,0.2,2.9,84.0,998.5,SW
2026-02-06 02:00:00,1210630,Cabeceiras de Basto,41.53333333,-7.96666667,5.8,10.1,0.0,5,0.2,1.6,81.0,,S
2026-02-06 02:00:00,1210632,Mirandela,41.51478611,-7.19083889,27.0,8.4,0.0,5,0.0,7.5,79.0,,S
2026-02-06 02:00:00,1210633,"Macedo Cavaleiros, Bagueixe",41.56666667,-6.78333333,15.8,4.8,,7,0.0,4.4,99.0,,W
2026-02-06 02:00:00,1210635,Miranda do Douro,41.51666667,-6.28333333,24.1,5.7,,7,0.1,6.7,93.0,,W
2026-02-06 02:00:00,1210637,Mogadouro,41.33333333,-6.73333333,19.8,4.8,0.0,6,0.0,5.5,99.0,,SW
2026-02-06 02:00:00,1210643,Paços Ferreira,41.27365,-8.38012,12.6,8.6,,6,0.9,3.5,96.0,,SW
2026-02-06 02:00:00,1210644,Carrazêda de Ansiães,41.23333333,-7.28333333,0.7,5.1,0.0,6,1.1,0.2,91.0,,SW
2026-02-06 02:00:00,1210654,Moncorvo,41.18333333,-7.01666667,15.8,7.2,0.0,6,0.0,4.4,86.0,999.9,SW
2026-02-06 02:00:00,1210655,"Pinhão, Santa Bárbara",41.172775,-7.5489722,4.7,8.7,,4,1.2,1.3,85.0,,SE
2026-02-06 02:00:00,1210657,Luzim,41.14585,-8.2490333,8.3,8.5,5.2,5,0.0,2.3,85.0,,S
2026-02-06 02:00:00,1210663,Moimenta da Beira,40.98333333,-7.6,17.3,5.8,0.0,7,0.3,4.8,90.0,,W
2026-02-06 02:00:00,1210666,"Trancoso, Bandarra",40.78333333,-7.36666667,22.0,4.7,0.0,6,0.2,6.1,99.0,,SW
2026-02-06 02:00:00,1210669,Arouca,40.93333333,-8.25,14.4,10.3,0.0,6,0.0,4.0,81.0,,SW
2026-02-06 02:00:00,1210671,"F. Castelo Rodrigo, V.Torpim",40.75,-6.88333333,19.1,6.4,0.0,6,0.0,5.3,90.0,,SW
2026-02-06 02:00:00,1210683,Guarda,40.53333333,-7.26666667,9.4,3.1,0.0,5,0.6,2.6,98.0,,S
2026-02-06 02:00:00,1210685,Nelas,40.51666667,-7.85,10.8,7.1,0.0,6,0.4,3.0,100.0,,SW
2026-02-06 02:00:00,1210686,"Pampilhosa da Serra, Fajão",40.145653,-7.92704,29.5,5.0,,7,0.0,8.2,95.0,,W
2026-02-06 02:00:00,1210687,Covilhã (Aeródromo),40.264309,-7.482302,19.8,8.6,0.0,7,,5.5,72.0,,W
2026-02-06 02:00:00,1210690,Aldeia Souto (Q. Lageosa),40.35425833,-7.38931111,3.6,7.4,1.1,8,0.2,1.0,78.0,,NW
2026-02-06 02:00:00,1210698,Fundão,40.14063611,-7.55362778,10.8,8.3,1.8,6,0.0,3.0,84.0,,SW
2026-02-06 02:00:00,1210702,Aveiro (Universidade),40.63529722,-8.65958333,20.9,12.7,0.0,7,0.0,5.8,74.0,1000.5,W
2026-02-06 02:00:00,1210704,Dunas de Mira,40.445955,-8.76168055,15.8,12.8,0.0,6,0.0,4.4,74.0,,SW
2026-02-06 02:00:00,1210705,Anadia,40.438852,-8.439996,2.5,8.9,0.0,4,0.0,0.7,95.0,,SE
2026-02-06 02:00:00,1210707,"Coimbra, Bencanta",40.2134694,-8.45515277,6.1,10.8,0.0,5,0.0,1.7,96.0,,S
2026-02-06 02:00:00,1210713,"Figueira da Foz, Vila Verde",40.139764,-8.805945,18.0,12.5,,6,0.6,5.0,,,SW
2026-02-06 02:00:00,1210716,Ansião,39.9,-8.4,13.7,8.2,0.0,6,,3.8,98.0,,SW
2026-02-06 02:00:00,1210726,Alcobaça,39.51666667,-8.96666667,2.9,10.3,0.0,3,0.1,0.8,90.0,,E
2026-02-06 02:00:00,1210729,Rio Maior,39.35,-8.93333333,4.3,10.6,0.0,5,0.0,1.2,88.0,,S
2026-02-06 02:00:00,1210734,"Santarém, Fonte Boa",39.201216,-8.736656,9.0,9.9,0.0,5,0.0,2.5,91.0,1002.8,S
2026-02-06 02:00:00,1210735,Chamusca / Chouto,39.27,-8.3508,4.7,7.8,,4,0.0,1.3,100.0,1003.1,SE
2026-02-06 02:00:00,1210739,"Torres Vedras, Dois Portos",39.04389444,-9.179,16.9,12.1,0.0,5,0.0,4.7,79.0,,S
2026-02-06 02:00:00,1210744,Coruche,38.94096667,-8.51073611,2.2,11.2,0.0,3,0.0,0.6,,,E
2026-02-06 02:00:00,1210746,Santa Cruz (Aeródromo),39.12594166,-9.3790388,18.0,12.0,0.0,6,0.0,5.0,79.0,1002.0,SW
2026-02-06 02:00:00,1210750,Cabo da Roca,38.78171,-9.4975361,15.5,13.0,0.0,6,0.0,4.3,85.0,,SW
2026-02-06 02:00:00,1210752,Sintra/Tapada do Mouco,38.781669,-9.400398,10.1,9.4,,6,0.0,2.8,97.0,,SW
2026-02-06 02:00:00,1210762,"Lisboa, Tapada da Ajuda",38.70956111,-9.182825,6.5,12.5,0.0,6,0.0,1.8,84.0,,SW
2026-02-06 02:00:00,1210765,Cabo Raso,38.70900833,-9.48538333,25.2,14.4,,6,0.0,7.0,85.0,,SW
2026-02-06 02:00:00,1210766,"Barreiro, Lavradio",38.67448611,-9.04766111,7.9,13.9,0.0,6,0.0,2.2,85.0,,SW
2026-02-06 02:00:00,1210767,Pegões,38.65079,-8.63503,10.8,11.9,0.0,6,0.0,3.0,100.0,,SW
2026-02-06 02:00:00,1210770,Setúbal,38.54846008,-8.89077058,6.5,12.7,0.0,6,0.0,1.8,84.0,,SW
2026-02-06 02:00:00,1210776,"Alcácer do Sal, Barrosinha",38.36666667,-8.48333333,,13.1,0.0,0,0.0,,85.0,,
2026-02-06 02:00:00,1210783,Alvalade,37.946806,-8.394504,10.1,12.6,0.5,6,0.9,2.8,84.0,,SW
2026-02-06 02:00:00,1210785,Ourique / Santana Da Serra,37.5025,-8.3019,20.2,12.5,0.0,4,,5.6,79.0,1005.2,SE
2026-02-06 02:00:00,1210789,Aljezur,37.31675278,-8.80001667,9.0,14.3,0.0,6,0.0,2.5,86.0,,SW
2026-02-06 02:00:00,1210790,Fóia,37.3143,-8.595733,34.6,7.1,0.1,7,0.0,9.6,,,W
2026-02-06 02:00:00,1210800,"Sabugal, Martim Rei",40.33918056,-7.03693333,16.6,5.5,0.0,6,0.0,4.6,97.0,,SW
2026-02-06 02:00:00,1210803,Zebreira,39.86666667,-7.01666667,17.6,9.1,2.1,6,0.0,4.9,93.0,,SW
2026-02-06 02:00:00,1210806,"Proença-a-Nova, P.Moitas",39.73333333,-7.86666667,14.4,8.5,13.1,7,0.0,4.0,99.0,,W
2026-02-06 02:00:00,1210812,Alvega,39.46666667,-8.05,1.8,11.1,,6,0.1,0.5,94.0,,SW
2026-02-06 02:00:00,1210824,"Avis, Benavila",39.1,-7.86666667,8.3,10.4,2.7,6,1.4,2.3,99.0,,SW
2026-02-06 02:00:00,1210826,Mora,38.94068,-8.16406,11.2,10.9,0.0,6,0.0,3.1,90.0,,SW
2026-02-06 02:00:00,1210835,Elvas,38.8908,-7.13976111,11.5,10.3,0.0,6,0.0,3.2,90.0,,SW
2026-02-06 02:00:00,1210837,Estremoz,38.86666667,-7.51666667,10.1,9.3,0.0,6,0.0,2.8,100.0,,SW
2026-02-06 02:00:00,1210840,"Reguengos, S. P. do Corval",38.484866,-7.4729166,13.3,9.7,0.0,5,0.0,3.7,97.0,,S
2026-02-06 02:00:00,1210846,Montemor-O-Novo,38.6451,-8.1991,7.6,11.0,,6,0.0,2.1,96.0,1004.6,SW
2026-02-06 02:00:00,1210847,Viana do Alentejo,38.3319194,-8.04553888,14.4,10.9,0.0,5,,4.0,95.0,,S
2026-02-06 02:00:00,1210848,"Portel, Oriola",38.31666667,-7.86666667,9.0,11.3,,5,0.0,2.5,91.0,,S
2026-02-06 02:00:00,1210851,Amareleja,38.2007,-7.2261,7.9,,0.0,5,0.0,2.2,,1004.3,S
2026-02-06 02:00:00,1210863,"Mértola, Vale Formoso",37.75,-7.55,6.1,10.9,0.0,5,0.0,1.7,89.0,,S
2026-02-06 02:00:00,1210864,"Castro Verde, N.Corvo",37.57655833,-7.97211389,15.5,11.2,0.0,6,0.0,4.3,99.0,,SW
2026-02-06 02:00:00,1210865,"Alcoutim, Mart.Longo",37.43333333,-7.76666667,10.4,11.3,,6,0.0,2.9,87.0,1005.7,SW
2026-02-06 02:00:00,1210866,Vila Real de S.António,37.1871055,-7.416325,,13.3,,0,0.0,,91.0,,
2026-02-06 02:00:00,1210874,Albufeira,37.0935,-8.262,15.1,12.8,,6,0.0,4.2,89.0,,SW
2026-02-06 02:00:00,1210878,Portimão (Aeródromo),37.149167,-8.581389,2.2,12.6,0.0,9,0.0,0.6,86.0,1005.9,N
2026-02-06 02:00:00,1210881,"Olhão, EPPO",37.033,-7.821,10.8,14.2,0.0,6,0.0,3.0,91.0,1006.8,SW
2026-02-06 02:00:00,1210883,Tavira,37.12166968,-7.62050375,11.9,12.3,,6,0.0,3.3,94.0,1006.3,SW
2026-02-06 02:00:00,1210907,Faja / Ilha das Flores,39.45328,-31.2647,,13.7,,0,,,63.0,1013.5,
2026-02-06 02:00:00,1210932,"S. Miguel, Nordeste",37.83256,-25.150108,23.8,10.6,,8,0.0,6.6,75.0,,NW
2026-02-06 02:00:00,1210956,"Madeira, Porto Moniz",32.867477,-17.171373,,17.2,0.0,0,0.0,,67.0,,
2026-02-06 02:00:00,1210960,"Madeira, S. Jorge, Santana",32.83446944,-16.906219,35.6,14.6,26.7,7,0.0,9.9,75.0,1013.9,W
2026-02-06 02:00:00,1210965,"Madeira, Santana",32.808238,-16.8864166,,12.5,28.6,0,0.0,,72.0,,
2026-02-06 02:00:00,1210967,"Madeira, São Vicente",32.8001833,-17.044722,,13.1,0.0,0,0.0,,84.0,,
2026-02-06 02:00:00,1210972,"Madeira, Pico Alto",32.693491,-16.903955,11.9,7.0,0.0,6,,3.3,82.0,,SW
2026-02-06 02:00:00,1210973,"Madeira, Areeiro",32.71666667,-16.91666667,35.6,3.7,9.2,8,0.0,9.9,89.0,,NW
2026-02-06 02:00:00,1210974,"Madeira, Pico do Areeiro",32.735107,-16.928271,,1.4,,0,0.0,,100.0,,
2026-02-06 02:00:00,1210975,"Madeira, Santo da Serra",32.7258972,-16.816822,,10.3,0.0,0,0.0,,79.0,,
2026-02-06 02:00:00,1210976,"Madeira, Monte",32.675833,-16.906944,8.6,11.5,0.5,7,0.0,2.4,72.0,,W
2026-02-06 02:00:00,1210977,"Madeira, Cancela",32.64500556,-16.86575,9.4,14.1,0.0,3,0.0,2.6,77.0,,E
2026-02-06 02:00:00,1210978,"Madeira, S. Lourenço",32.747,-16.706,18.0,16.5,0.0,9,0.0,5.0,62.0,,N
2026-02-06 02:00:00,1210984,"Madeira, Quinta Grande",32.6629722,-17.01503611,,13.1,0.0,0,0.0,,65.0,,
2026-02-06 02:00:00,1210986,Ponta do Sol/Lugar de Baixo,32.681502,-17.104167,18.4,16.3,0.0,6,0.0,5.1,68.0,,SW
2026-02-06 02:00:00,1210987,Prazeres (Calheta),32.757205,-17.201551,31.3,11.2,0.7,8,0.0,8.7,91.0,,NW
2026-02-06 02:00:00,1210990,"Madeira, Calheta",32.81384167,-17.26321389,32.8,14.0,0.0,8,0.0,9.1,76.0,1013.7,NW
2026-02-06 02:00:00,1240546,"Porto, Serra do Pilar",41.1385194,-8.6025,,11.6,,0,0.3,,88.0,998.5,
2026-02-06 02:00:00,1240566,Vila Real (Cidade),41.30898056,-7.740522,6.1,7.0,,5,0.5,1.7,91.0,,S
2026-02-06 02:00:00,1240610,Viana do Castelo,41.695,-8.82916,,12.5,,0,0.3,,78.0,,
2026-02-06 02:00:00,1240675,Viseu (Cidade),40.662738,-7.9039694,,7.7,,0,0.1,,89.0,,
2026-02-06 02:00:00,1240903,"Porto, Massarelos",41.15257,-8.62598,,11.3,,0,,,97.0,,
2026-02-06 02:00:00,1240971,"Madeira, Funchal, Lido",32.63655,-16.935592,6.1,16.9,1.9,7,0.1,1.7,64.0,,W
2026-02-06 02:00:00,5210758,Alcochete / Campo Tiro,38.7627,-8.7825,7.6,10.8,,5,0.0,2.1,93.0,1002.9,S
2026-02-06 02:00:00,6210872,Loulé (CML),37.129946,-8.06523593,1.4,,,2,0.0,0.4,,1006.5,NE
2026-02-06 02:00:00,6210879,Portimão (Praia da Rocha),37.11670461,-8.52946314,12.2,14.1,,7,0.0,3.4,90.0,,W
2026-02-06 02:00:00,6211211,Monção - Guimil (CIM),42.042944,-8.421872,15.5,,1.8,6,,4.3,,996.2,SW
2026-02-06 02:00:00,6211213,Paredes De Coura - Vascões (CIM),41.913444,-8.492111,10.4,5.8,0.2,6,,2.9,98.0,997.6,SW
2026-02-06 02:00:00,6211216,Arcos De Valdevez - Heliporto (CIM),41.831,-8.44375,4.7,7.7,2239.6,5,0.2,1.3,95.0,998.5,S
2026-02-06 02:00:00,6211217,Viana Do Castelo - Fonte Louçã (CIM),41.745722,-8.815306,39.6,,1.2,7,0.9,11.0,,995.0,W
2026-02-06 02:00:00,6211218,Ponte De Lima - Anais (CIM),41.698083,-8.522444,2.2,8.5,1.1,9,,0.6,88.0,997.8,N
2026-02-06 02:00:00,6212122,Amares Caldelas (CIM),41.66796389,-8.37977778,4.7,9.6,,5,0.7,1.3,89.0,998.8,S
2026-02-06 02:00:00,6212123,Vila Verde (CIM),41.64686111,-8.43398056,2.5,10.2,,5,,0.7,90.0,998.0,S
2026-02-06 02:00:00,6212124,Braga (CIM),41.53568333,-8.42514722,12.2,9.6,,6,0.0,3.4,86.0,999.6,SW
2026-02-06 02:00:00,6212126,Esposende (CIM),41.52645556,-8.77984444,19.1,12.0,,7,0.2,5.3,96.0,998.7,W
2026-02-06 02:00:00,6213012,Carregal do Sal (CIM),40.46718056,-7.92626389,5.4,7.5,,6,,1.5,97.0,,SW
2026-02-06 02:00:00,6213013,Castro Daire / Mézio (CIM),40.98086111,-7.88318889,20.9,4.1,,6,,5.8,98.0,,SW
2026-02-06 02:00:00,6213014,Mangualde / Chãs de Tavares  (CIM),40.61096111,-7.60838889,26.3,5.7,,6,0.1,7.3,100.0,,SW
2026-02-06 02:00:00,6213016,Oliveira de Frades (CIM),40.716925,-8.20133889,23.8,6.2,,5,,6.6,91.0,,S
2026-02-06 02:00:00,6213017,Penalva do Castelo (CIM),40.65706389,-7.69655278,16.6,7.1,,6,0.0,4.6,97.0,,SW
2026-02-06 02:00:00,6213020,Satão (CIM),40.76072778,-7.72019722,10.8,4.9,,6,0.4,3.0,100.0,,SW
2026-02-06 02:00:00,6213022,Vila Nova de Paiva (CIM),40.85595,-7.72716389,11.5,4.7,,6,0.7,3.2,,,SW
2026-02-06 02:00:00,6213611,Arganil / Aeródromo (CIM),40.274578,-7.974399,13.3,9.3,,6,0.3,3.7,92.0,,SW
2026-02-06 02:00:00,6213612,Cantanhede / Fonte Dom Pedro (CIM),40.341894,-8.577613,10.1,9.8,,5,0.0,2.8,88.0,,S
2026-02-06 02:00:00,6213613,Coimbra / Mata de São Pedro (CIM),40.330787,-8.374887,6.5,7.2,,5,,1.8,100.0,,S
2026-02-06 02:00:00,6213614,Góis / Quinta da Ribeira (CIM),40.171642,-8.103238,18.4,,,6,,5.1,,,SW
2026-02-06 02:00:00,6213615,Mealhada / Quinta do Vale (CIM),40.373343,-8.4388429,6.1,9.0,,5,0.0,1.7,99.0,,S
2026-02-06 02:00:00,6213616,Mortágua / Aeródromo (CIM),40.426239,-8.232142,4.7,8.9,,6,0.0,1.3,92.0,,SW
2026-02-06 02:00:00,6213617,Penacova / Hombres (CIM),40.280921,-8.198685,11.5,,,6,0.1,3.2,93.0,,SW
2026-02-06 02:00:00,6213619,Vila Nova de Poiares (CIM),40.211411,-8.241995,5.0,10.4,,5,0.6,1.4,82.0,,S
2026-02-06 02:00:00,6213620,Oliveira do Hospital (CIM),40.413306,-7.867972,3.6,7.1,,5,0.1,1.0,96.0,,S
2026-02-06 02:00:00,6214119,Pedrógão Grande (CMPG),39.926573,-8.150912,8.6,8.4,,6,0.1,2.4,94.0,1003.0,SW
2026-02-06 02:00:00,6215302,"Lisboa, Carnide (CML)",38.7751,-9.1855,13.0,11.9,,6,,3.6,89.0,1002.2,SW
2026-02-06 02:00:00,6215360,Oeiras / Vila Fria (CMO),38.7239536,-9.2939255,19.1,12.6,0.0,6,0.0,5.3,84.0,1002.7,SW
2026-02-06 02:00:00,7240919,"Lisboa, Amoreiras (LFCL)",38.7239,-9.1649,10.4,11.5,,7,0.0,2.9,96.0,1003.4,W
2026-02-06 03:00:00,11217160,Santa Maria / Praia Formosa (DROTRH),36.9542,-25.0917,15.1,11.6,5.8,3,0.2,4.2,74.0,,E
2026-02-06 03:00:00,11217165,Santa Maria / Maia (DROTRH),36.9412,-25.0176,21.2,11.3,0.1,8,0.0,5.9,74.0,,NW
2026-02-06 03:00:00,11217217,São Miguel / Santana (DROTRH),37.8049,-25.5618,7.2,11.4,1.3,7,0.0,2.0,69.0,,W
2026-02-06 03:00:00,11217225,São Miguel / Sete Cidades (DROTRH),37.8679,-25.772,15.8,10.9,0.0,7,0.0,4.4,74.0,,W
2026-02-06 03:00:00,11217255,São Miguel / Lagoa das Furnas (DROTRH),37.7619,-25.3291,8.3,10.2,0.0,5,0.0,2.3,68.0,,S
2026-02-06 03:00:00,11217430,Graciosa / Serra das Fontes (DROTRH),39.0672,-28.0038,34.9,9.7,0.0,8,0.0,9.7,89.0,,NW
2026-02-06 03:00:00,11217510,São Jorge / Pico do Areeiro (DROTRH),38.6435,-28.0591,41.4,5.0,0.0,6,0.3,11.5,100.0,,SW
2026-02-06 03:00:00,11217625,Pico / Cabeço do Teicho (DROTRH),38.489,-28.3534,25.9,5.3,0.0,6,0.0,7.2,89.0,,SW
2026-02-06 03:00:00,11217645,Pico / Cabecinho (DROTRH),38.4338,-28.1141,27.4,7.8,0.0,7,0.0,7.6,76.0,,W
2026-02-06 03:00:00,11217730,Faial / Cabeço Verde (DROTRH),38.5843,-28.7576,7.6,8.0,0.0,6,0.0,2.1,91.0,,SW
2026-02-06 03:00:00,1200501,Flores (Aeródromo),39.45819,-31.1301,17.6,12.3,0.0,6,0.1,4.9,70.0,1012.3,SW
2026-02-06 03:00:00,1200502,Corvo (Aeródromo),39.67389,-31.11362,35.3,13.4,,7,0.0,9.8,69.0,1011.2,W
2026-02-06 03:00:00,1200504,Pico (Aeródromo),38.55219,-28.44137,16.6,11.1,0.0,7,0.0,4.6,76.0,1013.5,W
2026-02-06 03:00:00,1200505,Horta / Aeroporto,38.5211,-28.7128,34.2,13.1,,7,0.0,9.5,64.0,1013.3,W
2026-02-06 03:00:00,1200506,Horta (Obs. Principe Alberto),38.540781,-28.63225,37.4,11.8,0.0,7,0.0,10.4,76.0,1013.8,W
2026-02-06 03:00:00,1200507,Graciosa (Aeródromo),39.09036,-28.02852,34.2,12.3,0.0,7,0.0,9.5,64.0,1011.8,W
2026-02-06 03:00:00,1200510,São Jorge,38.66,-28.17,27.4,11.9,0.0,7,0.0,7.6,78.0,1013.1,W
2026-02-06 03:00:00,1200511,Angra do Heroísmo,38.6659435,-27.216567,28.8,11.6,0.0,7,0.0,8.0,67.0,1012.7,W
2026-02-06 03:00:00,1200512,P. Delgada (Aeródromo),37.74414,-25.6953048,45.0,12.9,0.0,8,0.0,12.5,66.0,1012.9,NW
2026-02-06 03:00:00,1200515,Santa Maria (Aeródromo),36.967175,-25.1679,47.9,13.1,0.0,8,0.0,13.3,68.0,1014.6,NW
2026-02-06 03:00:00,1200521,Santa Catarina (Aeródromo),32.69688,-16.77612,,15.6,0.0,0,0.0,,67.0,1014.8,
2026-02-06 03:00:00,1200522,Funchal,32.64786,-16.888,13.7,16.0,0.0,7,0.0,3.8,62.0,1014.8,W
2026-02-06 03:00:00,1200524,Porto Santo,33.074029,-16.34868,36.4,15.9,0.0,7,0.0,10.1,72.0,1014.3,W
2026-02-06 03:00:00,1200533,Sagres,37.012835,-8.949089,21.2,14.5,,6,0.0,5.9,78.0,1005.5,SW
2026-02-06 03:00:00,1200535,Lisboa (Geofísico),38.71907778,-9.14972222,13.7,12.5,0.0,6,0.0,3.8,96.0,1002.5,SW
2026-02-06 03:00:00,1200541,Sines,37.954504,-8.838271,18.4,13.6,0.0,6,0.0,5.1,98.0,1004.2,SW
2026-02-06 03:00:00,1200545,"Porto, Pedras Rubras (Aeródromo)",41.233502,-8.681332,20.9,12.0,0.0,6,0.1,5.8,78.0,999.0,SW
2026-02-06 03:00:00,1200548,Coimbra (Aeródromo),40.15006944,-8.46669167,,,0.0,0,0.0,,,,
2026-02-06 03:00:00,1200551,"Viana Castelo, Chafé",41.648875,-8.804606,13.3,11.0,0.0,6,0.0,3.7,91.0,998.0,SW
2026-02-06 03:00:00,1200554,Faro (Aeródromo),37.016579,-7.971953,20.5,14.1,0.0,6,0.0,5.7,89.0,1006.2,SW
2026-02-06 03:00:00,1200558,Évora (C.Coordenação),38.53336389,-7.88338056,5.0,10.5,0.0,8,0.3,1.4,,1004.2,NW
2026-02-06 03:00:00,1200559,Viseu (Aeródromo),40.72645,-7.887472,13.7,6.2,,6,2.9,3.8,94.0,1001.3,SW
2026-02-06 03:00:00,1200560,Viseu (C.Coordenação),40.71492222,-7.89592222,12.2,6.0,,6,3.0,3.4,93.0,,SW
2026-02-06 03:00:00,1200562,Beja,38.02493056,-7.867275,17.3,10.7,0.0,6,1.0,4.8,100.0,1004.8,SW
2026-02-06 03:00:00,1200567,Vila Real,41.27418611,-7.7171,7.9,6.2,0.0,6,0.5,2.2,95.0,1000.2,SW
2026-02-06 03:00:00,1200568,Penhas Douradas,40.41136667,-7.55865278,,0.8,,0,,,100.0,,
2026-02-06 03:00:00,1200570,Castelo Branco,39.83339444,-7.46678889,11.5,8.5,0.0,6,0.0,3.2,100.0,1001.9,SW
2026-02-06 03:00:00,1200571,Portalegre,39.29546944,-7.41996944,11.2,7.4,0.0,7,0.0,3.1,100.0,1004.3,W
2026-02-06 03:00:00,1200575,Bragança,41.80388889,-6.74283889,13.0,5.1,0.0,5,0.3,3.6,91.0,1000.0,S
2026-02-06 03:00:00,1200576,Bragança (Aeródromo),41.85763611,-6.70796389,14.0,5.4,,6,0.1,3.9,91.0,999.1,SW
2026-02-06 03:00:00,1200843,Évora (Aeródromo),38.5296,-7.8916,4.0,10.2,,8,0.0,1.1,97.0,1003.9,NW
2026-02-06 03:00:00,1210513,P. Delgada (Obs. A. Chaves),37.7464,-25.662283,10.1,12.3,0.1,9,0.0,2.8,63.0,,N
2026-02-06 03:00:00,1210517,Flores / Morro Alto,39.4633,-31.2207,54.4,4.6,,6,0.0,15.1,100.0,1008.9,SW
2026-02-06 03:00:00,1210518,São Miguel - Pico Santos De Cima,37.819,-25.7512,38.5,5.2,,8,0.0,10.7,97.0,1013.2,NW
2026-02-06 03:00:00,1210520,Ilhas selvagens,30.140595,-15.869153,58.0,17.0,0.0,7,0.0,16.1,84.0,1016.5,W
2026-02-06 03:00:00,1210550,Coruche / Cruz Do Leão,39.07101,-8.4,5.4,9.7,,6,0.4,1.5,99.0,1003.2,SW
2026-02-06 03:00:00,1210553,Loulé / Cavalos De Caldeirão,37.3042,-7.9534,37.1,9.3,,6,0.0,10.3,100.0,1006.0,SW
2026-02-06 03:00:00,1210577,"Odemira, S.Teotónio",37.54710833,-8.72899167,14.0,13.4,0.0,6,0.0,3.9,92.0,,SW
2026-02-06 03:00:00,1210580,"Lisboa, Relógio",38.7618,-9.1254,17.6,11.7,,6,1.2,4.9,84.0,1003.0,SW
2026-02-06 03:00:00,1210604,V.N.Cerveira (Aeródromo),41.96673056,-8.66676111,12.6,11.3,0.0,6,0.0,3.5,78.0,997.5,SW
2026-02-06 03:00:00,1210605,"Monção, Valinha",42.06669,-8.383347,13.0,10.3,0.0,6,0.0,3.6,81.0,,SW
2026-02-06 03:00:00,1210606,"Lamas de Mouro, P.Ribeiro",42.03333333,-8.18333333,,4.5,0.0,0,0.5,,91.0,999.0,
2026-02-06 03:00:00,1210611,Montalegre,41.82276667,-7.78797778,17.6,3.5,0.0,6,0.3,4.9,99.0,,SW
2026-02-06 03:00:00,1210612,Vinhais,41.8434,-7.0034416,9.0,4.5,,6,0.1,2.5,100.0,,SW
2026-02-06 03:00:00,1210615,Ponte de Lima,41.75013889,-8.56671389,6.5,10.0,0.0,5,2.3,1.8,92.0,,S
2026-02-06 03:00:00,1210616,Chaves (Aeródromo),41.72516667,-7.46540833,10.8,8.5,0.0,6,0.0,3.0,83.0,998.1,SW
2026-02-06 03:00:00,1210619,Cabril,41.71666667,-8.01666667,16.6,6.4,,7,0.7,4.6,99.0,,W
2026-02-06 03:00:00,1210622,"Braga, Merelim",41.56678056,-8.45003056,5.8,9.9,1.0,6,2.4,1.6,90.0,999.0,SW
2026-02-06 03:00:00,1210630,Cabeceiras de Basto,41.53333333,-7.96666667,6.8,8.7,0.0,2,2.5,1.9,92.0,,NE
2026-02-06 03:00:00,1210632,Mirandela,41.51478611,-7.19083889,11.2,8.3,0.0,5,0.0,3.1,79.0,,S
2026-02-06 03:00:00,1210633,"Macedo Cavaleiros, Bagueixe",41.56666667,-6.78333333,14.8,4.5,,7,0.0,4.1,98.0,,W
2026-02-06 03:00:00,1210635,Miranda do Douro,41.51666667,-6.28333333,25.2,5.8,,7,0.3,7.0,92.0,,W
2026-02-06 03:00:00,1210637,Mogadouro,41.33333333,-6.73333333,21.2,4.4,0.0,7,1.9,5.9,99.0,,W
2026-02-06 03:00:00,1210643,Paços Ferreira,41.27365,-8.38012,5.0,7.8,,5,0.1,1.4,95.0,,S
2026-02-06 03:00:00,1210644,Carrazêda de Ansiães,41.23333333,-7.28333333,7.9,5.0,0.0,6,0.9,2.2,91.0,,SW
2026-02-06 03:00:00,1210654,Moncorvo,41.18333333,-7.01666667,11.2,7.5,0.0,6,0.0,3.1,79.0,1000.4,SW
2026-02-06 03:00:00,1210655,"Pinhão, Santa Bárbara",41.172775,-7.5489722,8.3,9.2,,3,0.1,2.3,81.0,,E
2026-02-06 03:00:00,1210657,Luzim,41.14585,-8.2490333,5.8,8.1,1.5,6,0.2,1.6,89.0,,SW
2026-02-06 03:00:00,1210663,Moimenta da Beira,40.98333333,-7.6,16.9,5.6,0.0,7,0.4,4.7,88.0,,W
2026-02-06 03:00:00,1210666,"Trancoso, Bandarra",40.78333333,-7.36666667,24.1,4.8,0.0,6,0.2,6.7,99.0,,SW
2026-02-06 03:00:00,1210669,Arouca,40.93333333,-8.25,10.8,10.3,0.0,7,0.1,3.0,82.0,,W
2026-02-06 03:00:00,1210671,"F. Castelo Rodrigo, V.Torpim",40.75,-6.88333333,29.9,6.3,0.0,6,0.0,8.3,94.0,,SW
2026-02-06 03:00:00,1210683,Guarda,40.53333333,-7.26666667,15.8,3.2,0.1,7,0.1,4.4,92.0,,W
2026-02-06 03:00:00,1210685,Nelas,40.51666667,-7.85,6.1,6.9,0.0,6,0.0,1.7,100.0,,SW
2026-02-06 03:00:00,1210686,"Pampilhosa da Serra, Fajão",40.145653,-7.92704,21.6,4.5,,6,0.0,6.0,92.0,,SW
2026-02-06 03:00:00,1210687,Covilhã (Aeródromo),40.264309,-7.482302,15.1,8.1,0.0,6,,4.2,77.0,,SW
2026-02-06 03:00:00,1210690,Aldeia Souto (Q. Lageosa),40.35425833,-7.38931111,3.2,7.2,0.0,2,0.6,0.9,81.0,,NE
2026-02-06 03:00:00,1210698,Fundão,40.14063611,-7.55362778,16.2,8.3,0.0,6,0.0,4.5,83.0,,SW
2026-02-06 03:00:00,1210702,Aveiro (Universidade),40.63529722,-8.65958333,10.8,12.2,0.0,5,0.0,3.0,74.0,1000.7,S
2026-02-06 03:00:00,1210704,Dunas de Mira,40.445955,-8.76168055,8.3,10.6,2.0,6,2.0,2.3,85.0,,SW
2026-02-06 03:00:00,1210705,Anadia,40.438852,-8.439996,3.2,9.2,0.0,8,0.4,0.9,95.0,,NW
2026-02-06 03:00:00,1210707,"Coimbra, Bencanta",40.2134694,-8.45515277,7.9,10.5,0.0,5,0.0,2.2,100.0,,S
2026-02-06 03:00:00,1210713,"Figueira da Foz, Vila Verde",40.139764,-8.805945,16.6,12.7,,6,0.0,4.6,,,SW
2026-02-06 03:00:00,1210716,Ansião,39.9,-8.4,12.6,8.3,0.0,6,,3.5,98.0,,SW
2026-02-06 03:00:00,1210726,Alcobaça,39.51666667,-8.96666667,0.7,10.4,0.0,5,0.8,0.2,88.0,,S
2026-02-06 03:00:00,1210729,Rio Maior,39.35,-8.93333333,2.2,9.4,13.1,6,0.0,0.6,93.0,,SW
2026-02-06 03:00:00,1210734,"Santarém, Fonte Boa",39.201216,-8.736656,15.5,10.6,0.0,5,0.0,4.3,90.0,1002.6,S
2026-02-06 03:00:00,1210735,Chamusca / Chouto,39.27,-8.3508,0.0,8.0,,0,0.0,0.0,100.0,1003.2,
2026-02-06 03:00:00,1210739,"Torres Vedras, Dois Portos",39.04389444,-9.179,11.5,10.7,6.7,5,0.8,3.2,88.0,,S
2026-02-06 03:00:00,1210744,Coruche,38.94096667,-8.51073611,1.8,10.1,0.3,2,0.0,0.5,,,NE
2026-02-06 03:00:00,1210746,Santa Cruz (Aeródromo),39.12594166,-9.3790388,25.6,11.7,0.0,7,0.2,7.1,82.0,1001.8,W
2026-02-06 03:00:00,1210750,Cabo da Roca,38.78171,-9.4975361,16.6,12.9,0.0,6,0.0,4.6,86.0,,SW
2026-02-06 03:00:00,1210752,Sintra/Tapada do Mouco,38.781669,-9.400398,9.7,9.5,,6,0.0,2.7,96.0,,SW
2026-02-06 03:00:00,1210762,"Lisboa, Tapada da Ajuda",38.70956111,-9.182825,6.8,12.6,0.0,6,0.0,1.9,82.0,,SW
2026-02-06 03:00:00,1210765,Cabo Raso,38.70900833,-9.48538333,26.3,14.2,,6,0.0,7.3,85.0,,SW
2026-02-06 03:00:00,1210766,"Barreiro, Lavradio",38.67448611,-9.04766111,17.6,14.1,0.0,6,0.0,4.9,81.0,,SW
2026-02-06 03:00:00,1210767,Pegões,38.65079,-8.63503,8.3,12.0,0.0,6,0.0,2.3,100.0,,SW
2026-02-06 03:00:00,1210770,Setúbal,38.54846008,-8.89077058,5.4,12.7,0.0,6,0.0,1.5,83.0,,SW
2026-02-06 03:00:00,1210776,"Alcácer do Sal, Barrosinha",38.36666667,-8.48333333,12.6,12.7,0.0,6,0.1,3.5,91.0,,SW
2026-02-06 03:00:00,1210783,Alvalade,37.946806,-8.394504,9.4,13.3,0.0,6,0.0,2.6,88.0,,SW
2026-02-06 03:00:00,1210785,Ourique / Santana Da Serra,37.5025,-8.3019,14.8,12.3,0.0,4,,4.1,80.0,1005.2,SE
2026-02-06 03:00:00,1210789,Aljezur,37.31675278,-8.80001667,11.5,14.4,0.1,6,0.0,3.2,88.0,,SW
2026-02-06 03:00:00,1210790,Fóia,37.3143,-8.595733,34.2,7.2,0.2,7,1.5,9.5,,,W
2026-02-06 03:00:00,1210800,"Sabugal, Martim Rei",40.33918056,-7.03693333,5.4,5.1,0.0,6,0.0,1.5,95.0,,SW
2026-02-06 03:00:00,1210803,Zebreira,39.86666667,-7.01666667,14.8,8.6,0.0,6,0.0,4.1,91.0,,SW
2026-02-06 03:00:00,1210806,"Proença-a-Nova, P.Moitas",39.73333333,-7.86666667,13.0,8.1,18.0,6,0.1,3.6,100.0,,SW
2026-02-06 03:00:00,1210812,Alvega,39.46666667,-8.05,2.2,9.8,,6,0.1,0.6,100.0,,SW
2026-02-06 03:00:00,1210824,"Avis, Benavila",39.1,-7.86666667,6.8,9.5,0.0,5,0.0,1.9,99.0,,S
2026-02-06 03:00:00,1210826,Mora,38.94068,-8.16406,10.1,10.7,0.0,6,0.0,2.8,91.0,,SW
2026-02-06 03:00:00,1210835,Elvas,38.8908,-7.13976111,9.4,9.8,0.0,5,0.0,2.6,94.0,,S
2026-02-06 03:00:00,1210837,Estremoz,38.86666667,-7.51666667,9.4,9.5,0.0,6,0.0,2.6,100.0,,SW
2026-02-06 03:00:00,1210840,"Reguengos, S. P. do Corval",38.484866,-7.4729166,9.7,9.3,0.0,5,0.0,2.7,98.0,,S
2026-02-06 03:00:00,1210846,Montemor-O-Novo,38.6451,-8.1991,6.8,10.6,,7,0.5,1.9,97.0,1004.6,W
2026-02-06 03:00:00,1210847,Viana do Alentejo,38.3319194,-8.04553888,16.2,10.6,0.0,6,,4.5,100.0,,SW
2026-02-06 03:00:00,1210848,"Portel, Oriola",38.31666667,-7.86666667,11.9,11.0,,6,0.0,3.3,93.0,,SW
2026-02-06 03:00:00,1210851,Amareleja,38.2007,-7.2261,8.3,,0.0,4,0.0,2.3,,1004.4,SE
2026-02-06 03:00:00,1210863,"Mértola, Vale Formoso",37.75,-7.55,5.0,10.5,0.0,4,0.0,1.4,91.0,,SE
2026-02-06 03:00:00,1210864,"Castro Verde, N.Corvo",37.57655833,-7.97211389,11.2,11.5,0.0,6,0.0,3.1,99.0,,SW
2026-02-06 03:00:00,1210865,"Alcoutim, Mart.Longo",37.43333333,-7.76666667,12.2,11.3,,6,0.0,3.4,87.0,1005.7,SW
2026-02-06 03:00:00,1210866,Vila Real de S.António,37.1871055,-7.416325,,13.2,,0,0.0,,91.0,,
2026-02-06 03:00:00,1210874,Albufeira,37.0935,-8.262,12.6,12.7,,6,0.0,3.5,92.0,,SW
2026-02-06 03:00:00,1210878,Portimão (Aeródromo),37.149167,-8.581389,4.7,10.3,0.0,6,0.0,1.3,94.0,1005.8,SW
2026-02-06 03:00:00,1210881,"Olhão, EPPO",37.033,-7.821,11.2,14.0,0.0,6,0.0,3.1,91.0,1006.8,SW
2026-02-06 03:00:00,1210883,Tavira,37.12166968,-7.62050375,12.6,12.0,,7,0.0,3.5,95.0,1006.3,W
2026-02-06 03:00:00,1210907,Faja / Ilha das Flores,39.45328,-31.2647,,13.4,,0,,,70.0,1013.2,
2026-02-06 03:00:00,1210932,"S. Miguel, Nordeste",37.83256,-25.150108,18.7,9.9,,8,1.5,5.2,84.0,,NW
2026-02-06 03:00:00,1210956,"Madeira, Porto Moniz",32.867477,-17.171373,,16.9,2.8,0,0.0,,65.0,,
2026-02-06 03:00:00,1210960,"Madeira, S. Jorge, Santana",32.83446944,-16.906219,31.7,14.6,21.4,7,0.2,8.8,75.0,1014.1,W
2026-02-06 03:00:00,1210965,"Madeira, Santana",32.808238,-16.8864166,,12.6,28.1,0,0.0,,71.0,,
2026-02-06 03:00:00,1210967,"Madeira, São Vicente",32.8001833,-17.044722,,13.5,0.0,0,0.0,,77.0,,
2026-02-06 03:00:00,1210972,"Madeira, Pico Alto",32.693491,-16.903955,15.8,6.7,0.0,6,,4.4,78.0,,SW
2026-02-06 03:00:00,1210973,"Madeira, Areeiro",32.71666667,-16.91666667,35.6,3.3,9.5,8,0.1,9.9,86.0,,NW
2026-02-06 03:00:00,1210974,"Madeira, Pico do Areeiro",32.735107,-16.928271,,0.8,,0,0.0,,100.0,,
2026-02-06 03:00:00,1210975,"Madeira, Santo da Serra",32.7258972,-16.816822,,10.9,0.0,0,0.0,,67.0,,
2026-02-06 03:00:00,1210976,"Madeira, Monte",32.675833,-16.906944,3.2,11.1,0.1,2,0.0,0.9,71.0,,NE
2026-02-06 03:00:00,1210977,"Madeira, Cancela",32.64500556,-16.86575,11.5,14.2,0.0,2,0.0,3.2,76.0,,NE
2026-02-06 03:00:00,1210978,"Madeira, S. Lourenço",32.747,-16.706,13.3,16.6,0.0,1,0.0,3.7,60.0,,N
2026-02-06 03:00:00,1210984,"Madeira, Quinta Grande",32.6629722,-17.01503611,,12.9,0.0,0,0.0,,67.0,,
2026-02-06 03:00:00,1210986,Ponta do Sol/Lugar de Baixo,32.681502,-17.104167,21.6,16.7,0.0,6,0.0,6.0,64.0,,SW
2026-02-06 03:00:00,1210987,Prazeres (Calheta),32.757205,-17.201551,31.3,11.1,0.0,8,0.0,8.7,87.0,,NW
2026-02-06 03:00:00,1210990,"Madeira, Calheta",32.81384167,-17.26321389,24.5,13.9,0.0,8,0.0,6.8,75.0,1013.7,NW
2026-02-06 03:00:00,1240546,"Porto, Serra do Pilar",41.1385194,-8.6025,,11.7,,0,0.0,,85.0,998.7,
2026-02-06 03:00:00,1240566,Vila Real (Cidade),41.30898056,-7.740522,4.7,6.8,,7,0.3,1.3,90.0,,W
2026-02-06 03:00:00,1240610,Viana do Castelo,41.695,-8.82916,,11.9,,0,0.0,,81.0,,
2026-02-06 03:00:00,1240675,Viseu (Cidade),40.662738,-7.9039694,,7.3,,0,0.1,,96.0,,
2026-02-06 03:00:00,1240903,"Porto, Massarelos",41.15257,-8.62598,,11.7,,0,,,89.0,,
2026-02-06 03:00:00,1240971,"Madeira, Funchal, Lido",32.63655,-16.935592,5.8,16.9,0.4,7,0.0,1.6,65.0,,W
2026-02-06 03:00:00,5210758,Alcochete / Campo Tiro,38.7627,-8.7825,10.8,11.0,,5,0.0,3.0,95.0,1002.7,S
2026-02-06 03:00:00,6210872,Loulé (CML),37.129946,-8.06523593,1.8,,,5,0.0,0.5,,1006.5,S
2026-02-06 03:00:00,6210879,Portimão (Praia da Rocha),37.11670461,-8.52946314,14.4,14.1,,6,0.0,4.0,92.0,,SW
2026-02-06 03:00:00,6211211,Monção - Guimil (CIM),42.042944,-8.421872,19.4,,0.3,5,,5.4,,996.2,S
2026-02-06 03:00:00,6211213,Paredes De Coura - Vascões (CIM),41.913444,-8.492111,11.5,5.6,1.2,6,,3.2,96.0,997.7,SW
2026-02-06 03:00:00,6211216,Arcos De Valdevez - Heliporto (CIM),41.831,-8.44375,8.6,7.6,1984.3,5,5.1,2.4,95.0,998.5,S
2026-02-06 03:00:00,6211217,Viana Do Castelo - Fonte Louçã (CIM),41.745722,-8.815306,32.0,,0.8,7,0.2,8.9,,994.9,W
2026-02-06 03:00:00,6211218,Ponte De Lima - Anais (CIM),41.698083,-8.522444,,7.3,3.0,0,,,88.0,998.6,
2026-02-06 03:00:00,6212122,Amares Caldelas (CIM),41.66796389,-8.37977778,8.3,9.2,,7,1.4,2.3,90.0,999.3,W
2026-02-06 03:00:00,6212123,Vila Verde (CIM),41.64686111,-8.43398056,5.0,9.1,,6,,1.4,90.0,998.8,SW
2026-02-06 03:00:00,6212124,Braga (CIM),41.53568333,-8.42514722,11.9,9.5,,7,0.0,3.3,87.0,999.8,W
2026-02-06 03:00:00,6212126,Esposende (CIM),41.52645556,-8.77984444,20.2,12.2,,6,0.2,5.6,94.0,999.0,SW
2026-02-06 03:00:00,6213012,Carregal do Sal (CIM),40.46718056,-7.92626389,6.8,7.4,,5,,1.9,97.0,,S
2026-02-06 03:00:00,6213013,Castro Daire / Mézio (CIM),40.98086111,-7.88318889,14.0,3.8,,5,,3.9,99.0,,S
2026-02-06 03:00:00,6213014,Mangualde / Chãs de Tavares  (CIM),40.61096111,-7.60838889,25.2,5.9,,6,0.0,7.0,100.0,,SW
2026-02-06 03:00:00,6213016,Oliveira de Frades (CIM),40.716925,-8.20133889,15.8,6.4,,4,,4.4,97.0,,SE
2026-02-06 03:00:00,6213017,Penalva do Castelo (CIM),40.65706389,-7.69655278,18.7,7.4,,5,0.0,5.2,98.0,,S
2026-02-06 03:00:00,6213020,Satão (CIM),40.76072778,-7.72019722,12.2,5.2,,6,2.3,3.4,100.0,,SW
2026-02-06 03:00:00,6213022,Vila Nova de Paiva (CIM),40.85595,-7.72716389,9.7,4.3,,6,1.8,2.7,,,SW
2026-02-06 03:00:00,6213611,Arganil / Aeródromo (CIM),40.274578,-7.974399,3.6,8.6,,8,0.1,1.0,91.0,,NW
2026-02-06 03:00:00,6213612,Cantanhede / Fonte Dom Pedro (CIM),40.341894,-8.577613,5.4,9.1,,5,3.5,1.5,93.0,,S
2026-02-06 03:00:00,6213613,Coimbra / Mata de São Pedro (CIM),40.330787,-8.374887,4.7,7.2,,5,,1.3,100.0,,S
2026-02-06 03:00:00,6213614,Góis / Quinta da Ribeira (CIM),40.171642,-8.103238,10.4,,,5,,2.9,,,S
2026-02-06 03:00:00,6213615,Mealhada / Quinta do Vale (CIM),40.373343,-8.4388429,6.1,8.8,,7,2.7,1.7,99.0,,W
2026-02-06 03:00:00,6213616,Mortágua / Aeródromo (CIM),40.426239,-8.232142,3.2,8.3,,6,0.0,0.9,94.0,,SW
2026-02-06 03:00:00,6213617,Penacova / Hombres (CIM),40.280921,-8.198685,11.9,,,8,0.6,3.3,92.0,,NW
2026-02-06 03:00:00,6213619,Vila Nova de Poiares (CIM),40.211411,-8.241995,2.2,9.1,,5,0.0,0.6,89.0,,S
2026-02-06 03:00:00,6213620,Oliveira do Hospital (CIM),40.413306,-7.867972,7.6,7.4,,5,0.0,2.1,93.0,,S
2026-02-06 03:00:00,6214119,Pedrógão Grande (CMPG),39.926573,-8.150912,8.3,8.2,,5,,2.3,97.0,1003.0,S
2026-02-06 03:00:00,6215302,"Lisboa, Carnide (CML)",38.7751,-9.1855,14.4,12.1,,6,,4.0,89.0,1002.2,SW
2026-02-06 03:00:00,6215360,Oeiras / Vila Fria (CMO),38.7239536,-9.2939255,15.1,12.3,0.0,6,0.3,4.2,83.0,1002.6,SW
2026-02-06 03:00:00,7240919,"Lisboa, Amoreiras (LFCL)",38.7239,-9.1649,9.4,11.3,,7,0.2,2.6,98.0,1003.3,W
2026-02-06 04:00:00,11217160,Santa Maria / Praia Formosa (DROTRH),36.9542,-25.0917,17.6,11.9,0.0,2,0.0,4.9,74.0,,NE
2026-02-06 04:00:00,11217165,Santa Maria / Maia (DROTRH),36.9412,-25.0176,17.3,11.5,0.0,8,0.0,4.8,75.0,,NW
2026-02-06 04:00:00,11217217,São Miguel / Santana (DROTRH),37.8049,-25.5618,7.2,11.4,0.0,7,0.1,2.0,70.0,,W
2026-02-06 04:00:00,11217225,São Miguel / Sete Cidades (DROTRH),37.8679,-25.772,20.5,11.2,0.0,7,0.0,5.7,73.0,,W
2026-02-06 04:00:00,11217255,São Miguel / Lagoa das Furnas (DROTRH),37.7619,-25.3291,7.9,10.0,0.0,4,0.0,2.2,68.0,,SE
2026-02-06 04:00:00,11217430,Graciosa / Serra das Fontes (DROTRH),39.0672,-28.0038,37.4,10.4,0.0,8,0.0,10.4,87.0,,NW
2026-02-06 04:00:00,11217510,São Jorge / Pico do Areeiro (DROTRH),38.6435,-28.0591,35.3,5.0,0.0,6,0.6,9.8,100.0,,SW
2026-02-06 04:00:00,11217625,Pico / Cabeço do Teicho (DROTRH),38.489,-28.3534,28.4,5.8,0.0,6,0.2,7.9,89.0,,SW
2026-02-06 04:00:00,11217645,Pico / Cabecinho (DROTRH),38.4338,-28.1141,27.0,8.2,0.0,7,0.0,7.5,78.0,,W
2026-02-06 04:00:00,11217730,Faial / Cabeço Verde (DROTRH),38.5843,-28.7576,6.5,8.7,0.0,5,0.0,1.8,85.0,,S
2026-02-06 04:00:00,1200501,Flores (Aeródromo),39.45819,-31.1301,13.0,11.7,0.0,6,2.6,3.6,80.0,1012.0,SW
2026-02-06 04:00:00,1200502,Corvo (Aeródromo),39.67389,-31.11362,38.2,12.4,0.0,7,0.8,10.6,84.0,1011.1,W
2026-02-06 04:00:00,1200504,Pico (Aeródromo),38.55219,-28.44137,20.5,12.0,0.0,7,0.0,5.7,71.0,1013.1,W
2026-02-06 04:00:00,1200505,Horta / Aeroporto,38.5211,-28.7128,29.2,13.6,,7,0.0,8.1,62.0,1013.1,W
2026-02-06 04:00:00,1200506,Horta (Obs. Principe Alberto),38.540781,-28.63225,38.2,12.6,0.0,7,0.0,10.6,72.0,1013.4,W
2026-02-06 04:00:00,1200507,Graciosa (Aeródromo),39.09036,-28.02852,38.9,12.7,0.0,7,0.0,10.8,64.0,1011.6,W
2026-02-06 04:00:00,1200510,São Jorge,38.66,-28.17,24.8,12.0,3.8,7,0.2,6.9,76.0,1012.9,W
2026-02-06 04:00:00,1200511,Angra do Heroísmo,38.6659435,-27.216567,29.2,10.7,0.2,7,0.1,8.1,77.0,1012.7,W
2026-02-06 04:00:00,1200512,P. Delgada (Aeródromo),37.74414,-25.6953048,41.4,13.0,0.0,7,0.0,11.5,65.0,1013.1,W
2026-02-06 04:00:00,1200515,Santa Maria (Aeródromo),36.967175,-25.1679,42.5,13.2,0.0,8,0.0,11.8,70.0,1014.9,NW
2026-02-06 04:00:00,1200521,Santa Catarina (Aeródromo),32.69688,-16.77612,,15.9,0.0,0,0.0,,64.0,1015.0,
2026-02-06 04:00:00,1200522,Funchal,32.64786,-16.888,3.6,15.5,0.0,8,0.0,1.0,66.0,1015.4,NW
2026-02-06 04:00:00,1200524,Porto Santo,33.074029,-16.34868,31.7,15.6,0.0,7,0.0,8.8,69.0,1014.7,W
2026-02-06 04:00:00,1200533,Sagres,37.012835,-8.949089,24.1,13.8,,6,1.0,6.7,79.0,1005.4,SW
2026-02-06 04:00:00,1200535,Lisboa (Geofísico),38.71907778,-9.14972222,14.8,11.7,0.0,6,0.6,4.1,95.0,1002.1,SW
2026-02-06 04:00:00,1200541,Sines,37.954504,-8.838271,29.5,13.2,0.0,6,0.5,8.2,99.0,1003.6,SW
2026-02-06 04:00:00,1200545,"Porto, Pedras Rubras (Aeródromo)",41.233502,-8.681332,21.6,11.6,0.0,6,0.0,6.0,78.0,999.1,SW
2026-02-06 04:00:00,1200548,Coimbra (Aeródromo),40.15006944,-8.46669167,,,0.0,0,0.0,,,,
2026-02-06 04:00:00,1200551,"Viana Castelo, Chafé",41.648875,-8.804606,12.6,11.5,0.0,6,0.0,3.5,91.0,998.2,SW
2026-02-06 04:00:00,1200554,Faro (Aeródromo),37.016579,-7.971953,18.7,14.2,0.0,7,0.0,5.2,88.0,1005.9,W
2026-02-06 04:00:00,1200558,Évora (C.Coordenação),38.53336389,-7.88338056,15.8,10.5,0.0,6,1.8,4.4,,1004.0,SW
2026-02-06 04:00:00,1200559,Viseu (Aeródromo),40.72645,-7.887472,15.1,5.9,,6,0.5,4.2,97.0,1001.4,SW
2026-02-06 04:00:00,1200560,Viseu (C.Coordenação),40.71492222,-7.89592222,15.1,5.6,,6,0.6,4.2,97.0,,SW
2026-02-06 04:00:00,1200562,Beja,38.02493056,-7.867275,16.6,10.5,0.0,6,0.0,4.6,100.0,1004.6,SW
2026-02-06 04:00:00,1200567,Vila Real,41.27418611,-7.7171,11.9,6.3,0.0,6,1.1,3.3,97.0,1000.5,SW
2026-02-06 04:00:00,1200568,Penhas Douradas,40.41136667,-7.55865278,,0.7,,0,,,99.0,,
2026-02-06 04:00:00,1200570,Castelo Branco,39.83339444,-7.46678889,9.4,8.4,0.0,6,0.0,2.6,100.0,1002.1,SW
2026-02-06 04:00:00,1200571,Portalegre,39.29546944,-7.41996944,8.3,7.3,0.0,6,0.0,2.3,100.0,1004.1,SW
2026-02-06 04:00:00,1200575,Bragança,41.80388889,-6.74283889,13.3,4.9,0.0,5,0.0,3.7,92.0,1000.5,S
2026-02-06 04:00:00,1200576,Bragança (Aeródromo),41.85763611,-6.70796389,20.5,5.5,,6,0.0,5.7,94.0,999.3,SW
2026-02-06 04:00:00,1200843,Évora (Aeródromo),38.5296,-7.8916,16.2,10.4,,5,1.5,4.5,96.0,1003.7,S
2026-02-06 04:00:00,1210513,P. Delgada (Obs. A. Chaves),37.7464,-25.662283,10.1,12.4,0.1,9,0.0,2.8,63.0,,N
2026-02-06 04:00:00,1210517,Flores / Morro Alto,39.4633,-31.2207,67.7,5.2,,6,0.0,18.8,100.0,1008.1,SW
2026-02-06 04:00:00,1210518,São Miguel - Pico Santos De Cima,37.819,-25.7512,40.0,5.4,,8,0.0,11.1,97.0,1013.4,NW
2026-02-06 04:00:00,1210520,Ilhas selvagens,30.140595,-15.869153,56.5,17.1,0.0,7,0.0,15.7,80.0,1016.4,W
2026-02-06 04:00:00,1210550,Coruche / Cruz Do Leão,39.07101,-8.4,7.6,9.8,,5,0.5,2.1,100.0,1002.8,S
2026-02-06 04:00:00,1210553,Loulé / Cavalos De Caldeirão,37.3042,-7.9534,40.7,9.2,,6,0.0,11.3,100.0,1005.5,SW
2026-02-06 04:00:00,1210577,"Odemira, S.Teotónio",37.54710833,-8.72899167,19.8,12.6,0.0,6,2.3,5.5,94.0,,SW
2026-02-06 04:00:00,1210580,"Lisboa, Relógio",38.7618,-9.1254,23.0,10.6,,6,0.7,6.4,87.0,1002.5,SW
2026-02-06 04:00:00,1210604,V.N.Cerveira (Aeródromo),41.96673056,-8.66676111,8.6,10.3,0.0,6,0.1,2.4,78.0,997.8,SW
2026-02-06 04:00:00,1210605,"Monção, Valinha",42.06669,-8.383347,10.8,9.7,0.0,5,2.1,3.0,83.0,,S
2026-02-06 04:00:00,1210606,"Lamas de Mouro, P.Ribeiro",42.03333333,-8.18333333,,4.4,0.0,0,0.0,,91.0,999.3,
2026-02-06 04:00:00,1210611,Montalegre,41.82276667,-7.78797778,14.8,3.0,0.0,6,2.1,4.1,99.0,,SW
2026-02-06 04:00:00,1210612,Vinhais,41.8434,-7.0034416,6.8,4.3,,6,0.2,1.9,100.0,,SW
2026-02-06 04:00:00,1210615,Ponte de Lima,41.75013889,-8.56671389,3.6,8.5,0.0,5,0.1,1.0,94.0,,S
2026-02-06 04:00:00,1210616,Chaves (Aeródromo),41.72516667,-7.46540833,9.7,8.6,0.0,5,0.0,2.7,80.0,998.6,S
2026-02-06 04:00:00,1210619,Cabril,41.71666667,-8.01666667,7.6,5.4,,6,3.5,2.1,99.0,,SW
2026-02-06 04:00:00,1210622,"Braga, Merelim",41.56678056,-8.45003056,5.0,9.1,4.5,5,0.0,1.4,95.0,999.1,S
2026-02-06 04:00:00,1210630,Cabeceiras de Basto,41.53333333,-7.96666667,3.2,8.3,0.0,8,3.0,0.9,98.0,,NW
2026-02-06 04:00:00,1210632,Mirandela,41.51478611,-7.19083889,12.2,8.0,0.0,5,0.0,3.4,80.0,,S
2026-02-06 04:00:00,1210633,"Macedo Cavaleiros, Bagueixe",41.56666667,-6.78333333,17.3,4.2,,6,0.0,4.8,97.0,,SW
2026-02-06 04:00:00,1210635,Miranda do Douro,41.51666667,-6.28333333,15.8,5.3,,6,0.0,4.4,94.0,,SW
2026-02-06 04:00:00,1210637,Mogadouro,41.33333333,-6.73333333,21.6,4.8,0.0,6,0.1,6.0,99.0,,SW
2026-02-06 04:00:00,1210643,Paços Ferreira,41.27365,-8.38012,8.6,8.1,,6,0.6,2.4,95.0,,SW
2026-02-06 04:00:00,1210644,Carrazêda de Ansiães,41.23333333,-7.28333333,0.7,4.6,0.0,6,0.1,0.2,90.0,,SW
2026-02-06 04:00:00,1210654,Moncorvo,41.18333333,-7.01666667,12.6,7.1,0.0,6,0.0,3.5,80.0,1000.7,SW
2026-02-06 04:00:00,1210655,"Pinhão, Santa Bárbara",41.172775,-7.5489722,3.2,9.3,,5,0.0,0.9,77.0,,S
2026-02-06 04:00:00,1210657,Luzim,41.14585,-8.2490333,9.0,7.9,1.7,6,0.1,2.5,89.0,,SW
2026-02-06 04:00:00,1210663,Moimenta da Beira,40.98333333,-7.6,15.5,5.5,0.0,7,0.4,4.3,89.0,,W
2026-02-06 04:00:00,1210666,"Trancoso, Bandarra",40.78333333,-7.36666667,23.0,4.8,0.0,6,0.1,6.4,99.0,,SW
2026-02-06 04:00:00,1210669,Arouca,40.93333333,-8.25,9.0,10.1,0.0,7,0.4,2.5,81.0,,W
2026-02-06 04:00:00,1210671,"F. Castelo Rodrigo, V.Torpim",40.75,-6.88333333,24.5,6.3,0.0,6,0.0,6.8,92.0,,SW
2026-02-06 04:00:00,1210683,Guarda,40.53333333,-7.26666667,8.6,3.0,0.9,5,0.0,2.4,87.0,,S
2026-02-06 04:00:00,1210685,Nelas,40.51666667,-7.85,9.7,7.0,0.0,6,2.0,2.7,100.0,,SW
2026-02-06 04:00:00,1210686,"Pampilhosa da Serra, Fajão",40.145653,-7.92704,14.8,4.6,,6,0.0,4.1,95.0,,SW
2026-02-06 04:00:00,1210687,Covilhã (Aeródromo),40.264309,-7.482302,9.7,7.6,0.0,6,,2.7,78.0,,SW
2026-02-06 04:00:00,1210690,Aldeia Souto (Q. Lageosa),40.35425833,-7.38931111,8.3,6.9,0.6,7,0.1,2.3,79.0,,W
2026-02-06 04:00:00,1210698,Fundão,40.14063611,-7.55362778,11.2,8.3,0.0,7,0.0,3.1,80.0,,W
2026-02-06 04:00:00,1210702,Aveiro (Universidade),40.63529722,-8.65958333,9.7,10.4,0.0,5,0.0,2.7,82.0,1000.6,S
2026-02-06 04:00:00,1210704,Dunas de Mira,40.445955,-8.76168055,5.0,9.3,0.0,4,0.0,1.4,93.0,,SE
2026-02-06 04:00:00,1210705,Anadia,40.438852,-8.439996,3.6,9.1,0.0,4,0.4,1.0,95.0,,SE
2026-02-06 04:00:00,1210707,"Coimbra, Bencanta",40.2134694,-8.45515277,2.9,10.8,0.0,3,1.1,0.8,98.0,,E
2026-02-06 04:00:00,1210713,"Figueira da Foz, Vila Verde",40.139764,-8.805945,13.7,13.0,,6,0.0,3.8,,,SW
2026-02-06 04:00:00,1210716,Ansião,39.9,-8.4,10.8,8.3,0.0,6,,3.0,96.0,,SW
2026-02-06 04:00:00,1210726,Alcobaça,39.51666667,-8.96666667,3.2,9.9,0.0,4,0.4,0.9,89.0,,SE
2026-02-06 04:00:00,1210729,Rio Maior,39.35,-8.93333333,7.9,10.1,127.0,7,2.3,2.2,92.0,,W
2026-02-06 04:00:00,1210734,"Santarém, Fonte Boa",39.201216,-8.736656,4.7,10.7,0.4,8,0.4,1.3,88.0,1002.2,NW
2026-02-06 04:00:00,1210735,Chamusca / Chouto,39.27,-8.3508,0.0,8.3,,0,0.2,0.0,100.0,1002.6,
2026-02-06 04:00:00,1210739,"Torres Vedras, Dois Portos",39.04389444,-9.179,14.8,9.7,3.3,6,2.6,4.1,94.0,,SW
2026-02-06 04:00:00,1210744,Coruche,38.94096667,-8.51073611,12.2,11.2,2.8,6,4.8,3.4,,,SW
2026-02-06 04:00:00,1210746,Santa Cruz (Aeródromo),39.12594166,-9.3790388,15.1,9.6,0.0,7,2.3,4.2,84.0,1001.9,W
2026-02-06 04:00:00,1210750,Cabo da Roca,38.78171,-9.4975361,40.3,12.3,0.1,8,0.1,11.2,84.0,,NW
2026-02-06 04:00:00,1210752,Sintra/Tapada do Mouco,38.781669,-9.400398,8.6,9.1,,6,0.2,2.4,96.0,,SW
2026-02-06 04:00:00,1210762,"Lisboa, Tapada da Ajuda",38.70956111,-9.182825,6.8,11.8,0.0,6,0.7,1.9,84.0,,SW
2026-02-06 04:00:00,1210765,Cabo Raso,38.70900833,-9.48538333,43.6,13.7,,7,0.6,12.1,84.0,,W
2026-02-06 04:00:00,1210766,"Barreiro, Lavradio",38.67448611,-9.04766111,9.0,13.5,0.0,6,3.5,2.5,83.0,,SW
2026-02-06 04:00:00,1210767,Pegões,38.65079,-8.63503,7.9,11.9,0.0,5,2.1,2.2,100.0,,S
2026-02-06 04:00:00,1210770,Setúbal,38.54846008,-8.89077058,12.6,12.6,1.3,6,5.3,3.5,84.0,,SW
2026-02-06 04:00:00,1210776,"Alcácer do Sal, Barrosinha",38.36666667,-8.48333333,14.8,12.8,0.0,6,0.0,4.1,88.0,,SW
2026-02-06 04:00:00,1210783,Alvalade,37.946806,-8.394504,13.3,13.3,0.0,5,0.5,3.7,88.0,,S
2026-02-06 04:00:00,1210785,Ourique / Santana Da Serra,37.5025,-8.3019,11.5,11.7,0.0,4,,3.2,86.0,1004.9,SE
2026-02-06 04:00:00,1210789,Aljezur,37.31675278,-8.80001667,12.6,13.6,4.7,6,2.5,3.5,86.0,,SW
2026-02-06 04:00:00,1210790,Fóia,37.3143,-8.595733,37.8,7.3,0.4,7,3.0,10.5,,,W
2026-02-06 04:00:00,1210800,"Sabugal, Martim Rei",40.33918056,-7.03693333,12.2,5.0,0.0,6,0.0,3.4,97.0,,SW
2026-02-06 04:00:00,1210803,Zebreira,39.86666667,-7.01666667,19.1,7.9,0.0,6,0.0,5.3,89.0,,SW
2026-02-06 04:00:00,1210806,"Proença-a-Nova, P.Moitas",39.73333333,-7.86666667,2.2,8.1,15.3,7,0.0,0.6,100.0,,W
2026-02-06 04:00:00,1210812,Alvega,39.46666667,-8.05,6.5,9.4,,2,0.0,1.8,100.0,,NE
2026-02-06 04:00:00,1210824,"Avis, Benavila",39.1,-7.86666667,2.2,9.7,0.0,5,0.0,0.6,99.0,,S
2026-02-06 04:00:00,1210826,Mora,38.94068,-8.16406,13.0,10.8,0.0,5,0.3,3.6,93.0,,S
2026-02-06 04:00:00,1210835,Elvas,38.8908,-7.13976111,11.5,9.6,0.0,5,0.0,3.2,96.0,,S
2026-02-06 04:00:00,1210837,Estremoz,38.86666667,-7.51666667,6.1,9.5,0.0,6,0.9,1.7,100.0,,SW
2026-02-06 04:00:00,1210840,"Reguengos, S. P. do Corval",38.484866,-7.4729166,12.6,9.1,0.1,4,0.0,3.5,99.0,,SE
2026-02-06 04:00:00,1210846,Montemor-O-Novo,38.6451,-8.1991,8.3,10.4,,6,0.2,2.3,94.0,1004.3,SW
2026-02-06 04:00:00,1210847,Viana do Alentejo,38.3319194,-8.04553888,18.4,10.5,0.0,5,,5.1,,,S
2026-02-06 04:00:00,1210848,"Portel, Oriola",38.31666667,-7.86666667,12.2,11.5,,6,0.0,3.4,90.0,,SW
2026-02-06 04:00:00,1210851,Amareleja,38.2007,-7.2261,12.6,,0.0,5,0.0,3.5,,1004.1,S
2026-02-06 04:00:00,1210863,"Mértola, Vale Formoso",37.75,-7.55,6.1,9.9,0.0,5,0.0,1.7,94.0,,S
2026-02-06 04:00:00,1210864,"Castro Verde, N.Corvo",37.57655833,-7.97211389,15.5,11.4,0.0,6,0.0,4.3,99.0,,SW
2026-02-06 04:00:00,1210865,"Alcoutim, Mart.Longo",37.43333333,-7.76666667,11.2,11.3,,6,0.0,3.1,87.0,1005.4,SW
2026-02-06 04:00:00,1210866,Vila Real de S.António,37.1871055,-7.416325,,12.6,,0,0.0,,91.0,,
2026-02-06 04:00:00,1210874,Albufeira,37.0935,-8.262,13.7,12.6,,6,0.0,3.8,93.0,,SW
2026-02-06 04:00:00,1210878,Portimão (Aeródromo),37.149167,-8.581389,13.7,13.4,0.0,6,0.0,3.8,90.0,1005.3,SW
2026-02-06 04:00:00,1210881,"Olhão, EPPO",37.033,-7.821,11.2,14.3,0.0,6,0.0,3.1,90.0,1006.5,SW
2026-02-06 04:00:00,1210883,Tavira,37.12166968,-7.62050375,11.9,11.6,,7,0.0,3.3,95.0,1006.1,W
2026-02-06 04:00:00,1210907,Faja / Ilha das Flores,39.45328,-31.2647,,12.8,,0,,,81.0,1012.7,
2026-02-06 04:00:00,1210932,"S. Miguel, Nordeste",37.83256,-25.150108,19.4,10.5,,8,0.0,5.4,76.0,,NW
2026-02-06 04:00:00,1210956,"Madeira, Porto Moniz",32.867477,-17.171373,,16.7,0.0,0,0.0,,64.0,,
2026-02-06 04:00:00,1210960,"Madeira, S. Jorge, Santana",32.83446944,-16.906219,37.4,13.7,55.9,8,0.0,10.4,83.0,1014.5,NW
2026-02-06 04:00:00,1210965,"Madeira, Santana",32.808238,-16.8864166,,11.8,27.5,0,0.4,,81.0,,
2026-02-06 04:00:00,1210967,"Madeira, São Vicente",32.8001833,-17.044722,,14.2,0.0,0,0.1,,76.0,,
2026-02-06 04:00:00,1210972,"Madeira, Pico Alto",32.693491,-16.903955,24.1,6.5,0.0,6,,6.7,78.0,,SW
2026-02-06 04:00:00,1210973,"Madeira, Areeiro",32.71666667,-16.91666667,33.5,3.0,8.1,8,0.1,9.3,88.0,,NW
2026-02-06 04:00:00,1210974,"Madeira, Pico do Areeiro",32.735107,-16.928271,,0.7,,0,0.1,,100.0,,
2026-02-06 04:00:00,1210975,"Madeira, Santo da Serra",32.7258972,-16.816822,,10.2,0.0,0,0.0,,74.0,,
2026-02-06 04:00:00,1210976,"Madeira, Monte",32.675833,-16.906944,10.1,10.6,0.1,8,0.1,2.8,76.0,,NW
2026-02-06 04:00:00,1210977,"Madeira, Cancela",32.64500556,-16.86575,4.0,13.8,0.0,2,0.0,1.1,79.0,,NE
2026-02-06 04:00:00,1210978,"Madeira, S. Lourenço",32.747,-16.706,14.4,15.7,0.0,8,0.0,4.0,69.0,,NW
2026-02-06 04:00:00,1210984,"Madeira, Quinta Grande",32.6629722,-17.01503611,,12.2,0.9,0,0.0,,67.0,,
2026-02-06 04:00:00,1210986,Ponta do Sol/Lugar de Baixo,32.681502,-17.104167,5.8,15.9,0.0,9,0.0,1.6,67.0,,N
2026-02-06 04:00:00,1210987,Prazeres (Calheta),32.757205,-17.201551,34.2,10.6,0.9,8,0.2,9.5,87.0,,NW
2026-02-06 04:00:00,1210990,"Madeira, Calheta",32.81384167,-17.26321389,37.1,13.7,0.0,8,0.0,10.3,71.0,1014.1,NW
2026-02-06 04:00:00,1240546,"Porto, Serra do Pilar",41.1385194,-8.6025,,10.7,,0,2.9,,91.0,998.8,
2026-02-06 04:00:00,1240566,Vila Real (Cidade),41.30898056,-7.740522,5.4,6.5,,5,0.5,1.5,92.0,,S
2026-02-06 04:00:00,1240610,Viana do Castelo,41.695,-8.82916,,12.2,,0,0.0,,78.0,,
2026-02-06 04:00:00,1240675,Viseu (Cidade),40.662738,-7.9039694,,7.4,,0,1.3,,95.0,,
2026-02-06 04:00:00,1240903,"Porto, Massarelos",41.15257,-8.62598,,11.0,,0,,,89.0,,
2026-02-06 04:00:00,1240971,"Madeira, Funchal, Lido",32.63655,-16.935592,0.4,16.4,0.0,0,0.1,0.1,67.0,,
2026-02-06 04:00:00,5210758,Alcochete / Campo Tiro,38.7627,-8.7825,8.3,11.8,,6,0.1,2.3,91.0,1002.1,SW
2026-02-06 04:00:00,6210872,Loulé (CML),37.129946,-8.06523593,1.8,,,8,0.0,0.5,,1006.2,NW
2026-02-06 04:00:00,6210879,Portimão (Praia da Rocha),37.11670461,-8.52946314,21.2,14.3,,6,0.0,5.9,92.0,,SW
2026-02-06 04:00:00,6211211,Monção - Guimil (CIM),42.042944,-8.421872,14.8,,0.7,5,,4.1,,996.2,S
2026-02-06 04:00:00,6211213,Paredes De Coura - Vascões (CIM),41.913444,-8.492111,4.0,5.2,0.0,4,,1.1,96.0,998.5,SE
2026-02-06 04:00:00,6211216,Arcos De Valdevez - Heliporto (CIM),41.831,-8.44375,6.5,7.2,3589.0,3,0.0,1.8,97.0,999.1,E
2026-02-06 04:00:00,6211217,Viana Do Castelo - Fonte Louçã (CIM),41.745722,-8.815306,28.4,,0.6,6,0.0,7.9,,996.3,SW
2026-02-06 04:00:00,6211218,Ponte De Lima - Anais (CIM),41.698083,-8.522444,,7.3,1.3,0,,,89.0,998.1,
2026-02-06 04:00:00,6212122,Amares Caldelas (CIM),41.66796389,-8.37977778,1.1,7.9,,9,0.0,0.3,92.0,999.5,N
2026-02-06 04:00:00,6212123,Vila Verde (CIM),41.64686111,-8.43398056,1.1,8.1,,3,,0.3,91.0,999.0,E
2026-02-06 04:00:00,6212124,Braga (CIM),41.53568333,-8.42514722,14.4,9.2,,6,0.0,4.0,87.0,1000.1,SW
2026-02-06 04:00:00,6212126,Esposende (CIM),41.52645556,-8.77984444,21.2,12.7,,6,0.0,5.9,93.0,999.1,SW
2026-02-06 04:00:00,6213012,Carregal do Sal (CIM),40.46718056,-7.92626389,9.7,7.7,,6,,2.7,97.0,,SW
2026-02-06 04:00:00,6213013,Castro Daire / Mézio (CIM),40.98086111,-7.88318889,13.3,3.5,,5,,3.7,100.0,,S
2026-02-06 04:00:00,6213014,Mangualde / Chãs de Tavares  (CIM),40.61096111,-7.60838889,28.1,5.9,,6,0.3,7.8,100.0,,SW
2026-02-06 04:00:00,6213017,Penalva do Castelo (CIM),40.65706389,-7.69655278,18.7,7.1,,6,4.6,5.2,100.0,,SW
2026-02-06 04:00:00,6213020,Satão (CIM),40.76072778,-7.72019722,14.4,4.9,,6,1.3,4.0,100.0,,SW
2026-02-06 04:00:00,6213022,Vila Nova de Paiva (CIM),40.85595,-7.72716389,15.5,4.4,,6,1.0,4.3,,,SW
2026-02-06 04:00:00,6213611,Arganil / Aeródromo (CIM),40.274578,-7.974399,3.6,7.8,,7,0.0,1.0,95.0,,W
2026-02-06 04:00:00,6213612,Cantanhede / Fonte Dom Pedro (CIM),40.341894,-8.577613,8.3,8.4,,4,0.1,2.3,96.0,,SE
2026-02-06 04:00:00,6213613,Coimbra / Mata de São Pedro (CIM),40.330787,-8.374887,4.0,,,5,,1.1,,,S
2026-02-06 04:00:00,6213614,Góis / Quinta da Ribeira (CIM),40.171642,-8.103238,5.0,,,5,,1.4,,,S
2026-02-06 04:00:00,6213615,Mealhada / Quinta do Vale (CIM),40.373343,-8.4388429,5.0,8.5,,4,0.0,1.4,99.0,,SE
2026-02-06 04:00:00,6213616,Mortágua / Aeródromo (CIM),40.426239,-8.232142,1.8,8.4,,3,1.2,0.5,96.0,,E
2026-02-06 04:00:00,6213617,Penacova / Hombres (CIM),40.280921,-8.198685,8.6,,,6,1.6,2.4,92.0,,SW
2026-02-06 04:00:00,6213619,Vila Nova de Poiares (CIM),40.211411,-8.241995,3.6,8.7,,6,0.0,1.0,93.0,,SW
2026-02-06 04:00:00,6213620,Oliveira do Hospital (CIM),40.413306,-7.867972,10.8,7.8,,5,0.4,3.0,90.0,,S
2026-02-06 04:00:00,6214119,Pedrógão Grande (CMPG),39.926573,-8.150912,9.4,8.2,,5,0.1,2.6,97.0,1003.0,S
2026-02-06 04:00:00,6215302,"Lisboa, Carnide (CML)",38.7751,-9.1855,13.3,11.3,,6,,3.7,89.0,1001.7,SW
2026-02-06 04:00:00,6215360,Oeiras / Vila Fria (CMO),38.7239536,-9.2939255,19.4,12.0,0.0,6,0.0,5.4,82.0,1002.3,SW
2026-02-06 04:00:00,7240919,"Lisboa, Amoreiras (LFCL)",38.7239,-9.1649,11.2,10.3,,7,0.9,3.1,99.0,1002.9,W
2026-02-06 05:00:00,11217160,Santa Maria / Praia Formosa (DROTRH),36.9542,-25.0917,20.5,12.2,0.0,3,0.2,5.7,75.0,,E
2026-02-06 05:00:00,11217165,Santa Maria / Maia (DROTRH),36.9412,-25.0176,15.5,11.8,0.0,7,0.0,4.3,76.0,,W
2026-02-06 05:00:00,11217217,São Miguel / Santana (DROTRH),37.8049,-25.5618,7.2,11.7,0.1,7,0.0,2.0,72.0,,W
2026-02-06 05:00:00,11217225,São Miguel / Sete Cidades (DROTRH),37.8679,-25.772,17.3,11.3,0.0,7,0.0,4.8,76.0,,W
2026-02-06 05:00:00,11217255,São Miguel / Lagoa das Furnas (DROTRH),37.7619,-25.3291,9.4,10.2,0.0,5,0.0,2.6,68.0,,S
2026-02-06 05:00:00,11217430,Graciosa / Serra das Fontes (DROTRH),39.0672,-28.0038,27.7,10.0,0.0,8,1.1,7.7,96.0,,NW
2026-02-06 05:00:00,11217510,São Jorge / Pico do Areeiro (DROTRH),38.6435,-28.0591,33.5,5.6,0.0,6,0.1,9.3,99.0,,SW
2026-02-06 05:00:00,11217625,Pico / Cabeço do Teicho (DROTRH),38.489,-28.3534,23.0,6.2,0.0,6,0.0,6.4,88.0,,SW
2026-02-06 05:00:00,11217645,Pico / Cabecinho (DROTRH),38.4338,-28.1141,21.2,8.6,0.0,7,0.0,5.9,78.0,,W
2026-02-06 05:00:00,11217730,Faial / Cabeço Verde (DROTRH),38.5843,-28.7576,13.3,9.2,0.0,6,0.0,3.7,85.0,,SW
2026-02-06 05:00:00,1200501,Flores (Aeródromo),39.45819,-31.1301,20.5,12.1,0.1,6,0.6,5.7,80.0,1010.9,SW
2026-02-06 05:00:00,1200502,Corvo (Aeródromo),39.67389,-31.11362,32.0,12.9,310.5,7,0.1,8.9,82.0,1010.1,W
2026-02-06 05:00:00,1200504,Pico (Aeródromo),38.55219,-28.44137,20.5,12.6,0.0,7,0.0,5.7,68.0,1013.0,W
2026-02-06 05:00:00,1200505,Horta / Aeroporto,38.5211,-28.7128,35.3,14.0,,7,0.0,9.8,63.0,1013.0,W
2026-02-06 05:00:00,1200506,Horta (Obs. Principe Alberto),38.540781,-28.63225,41.8,13.1,0.0,7,0.0,11.6,70.0,1013.4,W
2026-02-06 05:00:00,1200507,Graciosa (Aeródromo),39.09036,-28.02852,31.0,12.5,0.0,7,0.0,8.6,71.0,1011.6,W
2026-02-06 05:00:00,1200510,São Jorge,38.66,-28.17,26.6,12.9,0.0,7,0.0,7.4,69.0,1012.8,W
2026-02-06 05:00:00,1200511,Angra do Heroísmo,38.6659435,-27.216567,24.5,10.7,1.7,7,0.1,6.8,85.0,1012.9,W
2026-02-06 05:00:00,1200512,P. Delgada (Aeródromo),37.74414,-25.6953048,40.3,13.0,0.7,7,0.3,11.2,72.0,1013.3,W
2026-02-06 05:00:00,1200515,Santa Maria (Aeródromo),36.967175,-25.1679,41.8,13.1,1.2,8,0.1,11.6,73.0,1015.2,NW
2026-02-06 05:00:00,1200521,Santa Catarina (Aeródromo),32.69688,-16.77612,,15.3,0.0,0,0.0,,61.0,1015.4,
2026-02-06 05:00:00,1200522,Funchal,32.64786,-16.888,12.6,14.5,0.0,7,0.0,3.5,64.0,1015.6,W
2026-02-06 05:00:00,1200524,Porto Santo,33.074029,-16.34868,33.8,15.4,0.2,7,0.0,9.4,69.0,1015.1,W
2026-02-06 05:00:00,1200533,Sagres,37.012835,-8.949089,27.4,13.0,,7,0.1,7.6,80.0,1005.5,W
2026-02-06 05:00:00,1200535,Lisboa (Geofísico),38.71907778,-9.14972222,11.9,10.8,0.0,6,1.4,3.3,100.0,1002.1,SW
2026-02-06 05:00:00,1200541,Sines,37.954504,-8.838271,18.0,12.2,0.0,6,0.1,5.0,98.0,1003.6,SW
2026-02-06 05:00:00,1200545,"Porto, Pedras Rubras (Aeródromo)",41.233502,-8.681332,16.2,11.4,0.0,6,0.0,4.5,76.0,999.1,SW
2026-02-06 05:00:00,1200548,Coimbra (Aeródromo),40.15006944,-8.46669167,,,0.0,0,0.0,,,,
2026-02-06 05:00:00,1200551,"Viana Castelo, Chafé",41.648875,-8.804606,12.6,11.8,0.0,6,0.0,3.5,88.0,998.1,SW
2026-02-06 05:00:00,1200554,Faro (Aeródromo),37.016579,-7.971953,20.9,14.2,0.0,6,0.0,5.8,86.0,1005.5,SW
2026-02-06 05:00:00,1200558,Évora (C.Coordenação),38.53336389,-7.88338056,17.3,10.5,0.0,6,0.1,4.8,,1003.3,SW
2026-02-06 05:00:00,1200559,Viseu (Aeródromo),40.72645,-7.887472,12.2,5.7,,5,0.0,3.4,94.0,1001.3,S
2026-02-06 05:00:00,1200560,Viseu (C.Coordenação),40.71492222,-7.89592222,6.5,5.2,,5,0.0,1.8,96.0,,S
2026-02-06 05:00:00,1200562,Beja,38.02493056,-7.867275,20.5,10.6,0.0,6,0.7,5.7,100.0,1004.1,SW
2026-02-06 05:00:00,1200567,Vila Real,41.27418611,-7.7171,8.3,6.4,0.0,6,0.4,2.3,96.0,1000.3,SW
2026-02-06 05:00:00,1200568,Penhas Douradas,40.41136667,-7.55865278,,0.9,,0,,,94.0,,
2026-02-06 05:00:00,1200570,Castelo Branco,39.83339444,-7.46678889,8.3,8.0,0.0,6,0.0,2.3,100.0,1001.7,SW
2026-02-06 05:00:00,1200571,Portalegre,39.29546944,-7.41996944,9.7,7.3,0.0,7,2.7,2.7,100.0,1003.6,W
2026-02-06 05:00:00,1200575,Bragança,41.80388889,-6.74283889,10.4,5.0,0.0,4,0.0,2.9,91.0,1000.8,SE
2026-02-06 05:00:00,1200576,Bragança (Aeródromo),41.85763611,-6.70796389,19.4,5.4,,6,0.0,5.4,93.0,999.7,SW
2026-02-06 05:00:00,1200843,Évora (Aeródromo),38.5296,-7.8916,17.6,10.4,,5,0.1,4.9,96.0,1002.9,S
2026-02-06 05:00:00,1210513,P. Delgada (Obs. A. Chaves),37.7464,-25.662283,9.0,12.5,3.7,1,0.2,2.5,69.0,,N
2026-02-06 05:00:00,1210517,Flores / Morro Alto,39.4633,-31.2207,78.1,5.3,,6,0.0,21.7,100.0,1006.5,SW
2026-02-06 05:00:00,1210518,São Miguel - Pico Santos De Cima,37.819,-25.7512,38.2,5.6,,8,0.0,10.6,100.0,1013.4,NW
2026-02-06 05:00:00,1210520,Ilhas selvagens,30.140595,-15.869153,47.2,16.9,0.0,8,0.0,13.1,81.0,1016.9,NW
2026-02-06 05:00:00,1210550,Coruche / Cruz Do Leão,39.07101,-8.4,5.4,9.7,,6,0.3,1.5,100.0,1002.3,SW
2026-02-06 05:00:00,1210553,Loulé / Cavalos De Caldeirão,37.3042,-7.9534,46.1,9.4,,6,0.2,12.8,100.0,1004.8,SW
2026-02-06 05:00:00,1210577,"Odemira, S.Teotónio",37.54710833,-8.72899167,13.3,11.0,0.0,6,0.0,3.7,97.0,,SW
2026-02-06 05:00:00,1210580,"Lisboa, Relógio",38.7618,-9.1254,9.7,10.3,,6,1.0,2.7,88.0,1002.4,SW
2026-02-06 05:00:00,1210604,V.N.Cerveira (Aeródromo),41.96673056,-8.66676111,9.0,10.9,0.0,5,0.0,2.5,79.0,997.7,S
2026-02-06 05:00:00,1210605,"Monção, Valinha",42.06669,-8.383347,3.2,9.0,0.0,3,0.0,0.9,87.0,,E
2026-02-06 05:00:00,1210606,"Lamas de Mouro, P.Ribeiro",42.03333333,-8.18333333,,4.3,0.0,0,0.0,,89.0,999.5,
2026-02-06 05:00:00,1210611,Montalegre,41.82276667,-7.78797778,13.0,2.8,0.0,6,0.5,3.6,99.0,,SW
2026-02-06 05:00:00,1210612,Vinhais,41.8434,-7.0034416,6.5,4.1,,6,0.7,1.8,100.0,,SW
2026-02-06 05:00:00,1210615,Ponte de Lima,41.75013889,-8.56671389,5.4,9.2,0.0,4,1.0,1.5,93.0,,SE
2026-02-06 05:00:00,1210616,Chaves (Aeródromo),41.72516667,-7.46540833,7.9,8.0,0.0,6,0.5,2.2,84.0,998.9,SW
2026-02-06 05:00:00,1210619,Cabril,41.71666667,-8.01666667,6.5,5.4,,5,0.4,1.8,99.0,,S
2026-02-06 05:00:00,1210622,"Braga, Merelim",41.56678056,-8.45003056,11.9,9.2,3.1,5,0.8,3.3,88.0,999.1,S
2026-02-06 05:00:00,1210630,Cabeceiras de Basto,41.53333333,-7.96666667,7.6,7.9,0.0,0,0.7,2.1,100.0,,
2026-02-06 05:00:00,1210632,Mirandela,41.51478611,-7.19083889,18.0,7.7,0.0,5,0.0,5.0,81.0,,S
2026-02-06 05:00:00,1210633,"Macedo Cavaleiros, Bagueixe",41.56666667,-6.78333333,15.1,4.8,,7,0.2,4.2,95.0,,W
2026-02-06 05:00:00,1210635,Miranda do Douro,41.51666667,-6.28333333,11.5,4.7,,6,0.0,3.2,98.0,,SW
2026-02-06 05:00:00,1210637,Mogadouro,41.33333333,-6.73333333,24.8,4.8,0.0,6,0.0,6.9,98.0,,SW
2026-02-06 05:00:00,1210643,Paços Ferreira,41.27365,-8.38012,5.8,8.2,,5,0.1,1.6,93.0,,S
2026-02-06 05:00:00,1210644,Carrazêda de Ansiães,41.23333333,-7.28333333,3.2,4.3,0.0,6,0.0,0.9,91.0,,SW
2026-02-06 05:00:00,1210654,Moncorvo,41.18333333,-7.01666667,7.9,7.1,0.0,5,0.0,2.2,76.0,1000.9,S
2026-02-06 05:00:00,1210655,"Pinhão, Santa Bárbara",41.172775,-7.5489722,4.0,8.1,,8,0.0,1.1,84.0,,NW
2026-02-06 05:00:00,1210657,Luzim,41.14585,-8.2490333,4.7,7.5,0.4,6,0.2,1.3,90.0,,SW
2026-02-06 05:00:00,1210663,Moimenta da Beira,40.98333333,-7.6,8.3,5.5,0.0,6,0.1,2.3,88.0,,SW
2026-02-06 05:00:00,1210666,"Trancoso, Bandarra",40.78333333,-7.36666667,22.3,4.5,0.0,6,1.5,6.2,99.0,,SW
2026-02-06 05:00:00,1210669,Arouca,40.93333333,-8.25,3.6,9.0,0.0,3,0.2,1.0,91.0,,E
2026-02-06 05:00:00,1210671,"F. Castelo Rodrigo, V.Torpim",40.75,-6.88333333,14.8,6.3,0.0,5,0.0,4.1,88.0,,S
2026-02-06 05:00:00,1210683,Guarda,40.53333333,-7.26666667,9.0,2.9,0.2,6,0.0,2.5,96.0,,SW
2026-02-06 05:00:00,1210685,Nelas,40.51666667,-7.85,7.9,6.9,0.0,6,0.6,2.2,100.0,,SW
2026-02-06 05:00:00,1210686,"Pampilhosa da Serra, Fajão",40.145653,-7.92704,24.8,4.6,,6,0.1,6.9,96.0,,SW
2026-02-06 05:00:00,1210687,Covilhã (Aeródromo),40.264309,-7.482302,8.3,7.4,0.0,6,,2.3,84.0,,SW
2026-02-06 05:00:00,1210690,Aldeia Souto (Q. Lageosa),40.35425833,-7.38931111,11.2,7.4,0.6,7,0.1,3.1,79.0,,W
2026-02-06 05:00:00,1210698,Fundão,40.14063611,-7.55362778,8.6,8.2,0.0,7,0.0,2.4,79.0,,W
2026-02-06 05:00:00,1210702,Aveiro (Universidade),40.63529722,-8.65958333,10.1,10.3,0.0,4,0.0,2.8,84.0,1000.4,SE
2026-02-06 05:00:00,1210704,Dunas de Mira,40.445955,-8.76168055,4.3,9.7,0.0,5,0.1,1.2,94.0,,S
2026-02-06 05:00:00,1210705,Anadia,40.438852,-8.439996,5.0,8.8,0.0,4,0.0,1.4,95.0,,SE
2026-02-06 05:00:00,1210707,"Coimbra, Bencanta",40.2134694,-8.45515277,1.1,10.2,0.1,4,0.3,0.3,100.0,,SE
2026-02-06 05:00:00,1210713,"Figueira da Foz, Vila Verde",40.139764,-8.805945,7.9,12.3,,4,0.0,2.2,,,SE
2026-02-06 05:00:00,1210716,Ansião,39.9,-8.4,10.4,7.7,0.0,5,,2.9,97.0,,S
2026-02-06 05:00:00,1210726,Alcobaça,39.51666667,-8.96666667,1.4,10.0,0.0,5,1.7,0.4,89.0,,S
2026-02-06 05:00:00,1210729,Rio Maior,39.35,-8.93333333,5.8,10.0,110.1,5,2.3,1.6,92.0,,S
2026-02-06 05:00:00,1210734,"Santarém, Fonte Boa",39.201216,-8.736656,9.4,9.3,1.7,5,4.5,2.6,94.0,1002.4,S
2026-02-06 05:00:00,1210735,Chamusca / Chouto,39.27,-8.3508,9.7,9.1,,7,2.3,2.7,100.0,1002.5,W
